__time,/plot_data/data.0,/plot_data/data.1,/plot_data/data.10,/plot_data/data.11,/plot_data/data.12,/plot_data/data.13,/plot_data/data.14,/plot_data/data.15,/plot_data/data.16,/plot_data/data.17,/plot_data/data.18,/plot_data/data.19,/plot_data/data.2,/plot_data/data.20,/plot_data/data.21,/plot_data/data.22,/plot_data/data.23,/plot_data/data.24,/plot_data/data.25,/plot_data/data.26,/plot_data/data.27,/plot_data/data.28,/plot_data/data.29,/plot_data/data.3,/plot_data/data.30,/plot_data/data.31,/plot_data/data.32,/plot_data/data.33,/plot_data/data.34,/plot_data/data.35,/plot_data/data.36,/plot_data/data.37,/plot_data/data.38,/plot_data/data.39,/plot_data/data.4,/plot_data/data.40,/plot_data/data.41,/plot_data/data.42,/plot_data/data.43,/plot_data/data.44,/plot_data/data.45,/plot_data/data.46,/plot_data/data.47,/plot_data/data.48,/plot_data/data.49,/plot_data/data.5,/plot_data/data.50,/plot_data/data.51,/plot_data/data.52,/plot_data/data.53,/plot_data/data.54,/plot_data/data.55,/plot_data/data.56,/plot_data/data.57,/plot_data/data.58,/plot_data/data.59,/plot_data/data.6,/plot_data/data.60,/plot_data/data.61,/plot_data/data.62,/plot_data/data.63,/plot_data/data.7,/plot_data/data.8,/plot_data/data.9,/robotiq_ft_wrench/header/seq,/robotiq_ft_wrench/header/stamp,/robotiq_ft_wrench/wrench/force/x,/robotiq_ft_wrench/wrench/force/y,/robotiq_ft_wrench/wrench/force/z,/robotiq_ft_wrench/wrench/torque/x,/robotiq_ft_wrench/wrench/torque/y,/robotiq_ft_wrench/wrench/torque/z
1701092925.745445,,,,,,,,,,,,,,,,,,,,,,,,,,,,,,,,,,,,,,,,,,,,,,,,,,,,,,,,,,,,,,,,,138872.000000000,1701092925.745349169,1.980000019,17.969999313,96.910003662,0.485000014,-0.479000002,0.001000000
1701092925.761847,,,,,,,,,,,,,,,,,,,,,,,,,,,,,,,,,,,,,,,,,,,,,,,,,,,,,,,,,,,,,,,,,138873.000000000,1701092925.761606216,2.039999962,17.899999619,96.889999390,0.481999993,-0.479999989,0.000000000
1701092925.778114,,,,,,,,,,,,,,,,,,,,,,,,,,,,,,,,,,,,,,,,,,,,,,,,,,,,,,,,,,,,,,,,,138874.000000000,1701092925.777879953,2.109999895,17.930000305,96.940002441,0.481000006,-0.481999993,0.000000000
1701092925.794362,,,,,,,,,,,,,,,,,,,,,,,,,,,,,,,,,,,,,,,,,,,,,,,,,,,,,,,,,,,,,,,,,138875.000000000,1701092925.794122934,2.069999933,17.969999313,96.980003357,0.483000010,-0.481000006,0.002000000
1701092925.796898,-0.699445069,0.007527950,-0.018286590,0.002155711,3.990124437,3.311728158,-5.867390399,0.028816224,-0.066726725,0.089780739,0.000479802,-0.000333765,0.165945441,0.000682652,-0.000795992,-0.001932713,0.000059854,1.000000000,1.000000000,-2.202229450,-0.206381080,-1.506269036,23.990124437,3.128861666,-16.688271842,34.132609601,-0.596993970,-0.966356392,0.089780739,0.000000000,0.000000000,0.000000000,0.000000000,0.000000000,-0.015864268,0.000000000,0.000000000,0.000000000,0.000000000,0.000000000,0.000000000,0.000000000,0.000000000,0.000000000,0.000000000,0.787732840,0.000000000,0.000000000,0.000000000,0.000000000,0.000000000,0.000000000,0.000000000,0.000000000,0.000000000,32764.000000000,-0.698747483,-524315568.000000000,32764.000000000,0.000000000,0.000000000,0.007949214,0.165277471,-3.140170594,,,,,,,,
1701092925.810665,,,,,,,,,,,,,,,,,,,,,,,,,,,,,,,,,,,,,,,,,,,,,,,,,,,,,,,,,,,,,,,,,138876.000000000,1701092925.810381651,2.109999895,17.860000610,96.930000305,0.485000014,-0.483000010,0.003000000
1701092925.826932,,,,,,,,,,,,,,,,,,,,,,,,,,,,,,,,,,,,,,,,,,,,,,,,,,,,,,,,,,,,,,,,,138877.000000000,1701092925.826652527,2.039999962,17.899999619,96.900001526,0.483999997,-0.479999989,0.002000000
1701092925.843048,,,,,,,,,,,,,,,,,,,,,,,,,,,,,,,,,,,,,,,,,,,,,,,,,,,,,,,,,,,,,,,,,138878.000000000,1701092925.842903137,2.029999971,17.959999084,96.870002747,0.481000006,-0.481000006,0.000000000
1701092925.859217,,,,,,,,,,,,,,,,,,,,,,,,,,,,,,,,,,,,,,,,,,,,,,,,,,,,,,,,,,,,,,,,,138879.000000000,1701092925.859122753,2.029999971,17.989999771,96.919998169,0.483000010,-0.479999989,0.000000000
1701092925.875597,,,,,,,,,,,,,,,,,,,,,,,,,,,,,,,,,,,,,,,,,,,,,,,,,,,,,,,,,,,,,,,,,138880.000000000,1701092925.875357628,2.059999943,17.909999847,96.900001526,0.486999989,-0.481000006,0.000000000
1701092925.891997,,,,,,,,,,,,,,,,,,,,,,,,,,,,,,,,,,,,,,,,,,,,,,,,,,,,,,,,,,,,,,,,,138881.000000000,1701092925.891726971,2.109999895,17.860000610,96.910003662,0.481999993,-0.483000010,0.000000000
1701092925.896412,-0.699445069,0.007527950,-0.018285778,0.002155879,3.991624436,3.324727979,-5.869390063,0.029116223,-0.067076728,0.089530739,0.000479832,-0.000333505,0.165945441,0.000682612,-0.000794942,-0.001933525,0.000059687,1.000000000,1.000000000,-2.202274323,-0.206783583,-1.507119036,23.991624436,3.128861666,-16.675272021,34.130609937,-0.596206478,-0.966762644,0.089530739,0.000000000,0.000000000,0.000000000,0.000000000,0.000000000,-0.015864268,0.000000000,0.000000000,0.000000000,0.000000000,0.000000000,0.000000000,0.000000000,0.000000000,0.000000000,0.000000000,0.787732840,0.000000000,0.000000000,0.000000000,0.000000000,0.000000000,0.000000000,0.000000000,0.000000000,0.000000000,32764.000000000,-0.698747366,-524315568.000000000,32764.000000000,0.000000000,0.000000000,0.007948843,0.165277513,-3.140169547,,,,,,,,
1701092925.908278,,,,,,,,,,,,,,,,,,,,,,,,,,,,,,,,,,,,,,,,,,,,,,,,,,,,,,,,,,,,,,,,,138882.000000000,1701092925.908171892,2.130000114,17.829999924,96.889999390,0.479000002,-0.483000010,0.000000000
1701092925.924805,,,,,,,,,,,,,,,,,,,,,,,,,,,,,,,,,,,,,,,,,,,,,,,,,,,,,,,,,,,,,,,,,138883.000000000,1701092925.924567938,2.059999943,17.860000610,96.930000305,0.483999997,-0.481999993,0.004000000
1701092925.941179,,,,,,,,,,,,,,,,,,,,,,,,,,,,,,,,,,,,,,,,,,,,,,,,,,,,,,,,,,,,,,,,,138884.000000000,1701092925.940966606,2.059999943,17.889999390,96.930000305,0.486000001,-0.481999993,0.002000000
1701092925.953339,,,,,,,,,,,,,,,,,,,,,,,,,,,,,,,,,,,,,,,,,,,,,,,,,,,,,,,,,,,,,,,,,138885.000000000,1701092925.953291178,2.049999952,17.920000076,96.910003662,0.481999993,-0.481999993,0.000000000
1701092925.969923,,,,,,,,,,,,,,,,,,,,,,,,,,,,,,,,,,,,,,,,,,,,,,,,,,,,,,,,,,,,,,,,,138886.000000000,1701092925.969749451,2.019999981,17.930000305,96.959999084,0.481000006,-0.479000002,0.003000000
1701092925.986528,,,,,,,,,,,,,,,,,,,,,,,,,,,,,,,,,,,,,,,,,,,,,,,,,,,,,,,,,,,,,,,,,138887.000000000,1701092925.986292839,2.059999943,17.889999390,96.959999084,0.485000014,-0.483000010,0.004000000
1701092925.996693,-0.699445069,0.007527950,-0.018285002,0.002155681,3.992624435,3.328228059,-5.862390094,0.029366223,-0.067426728,0.089830739,0.000479852,-0.000333435,0.165945441,0.000682752,-0.000794434,-0.001934300,0.000059887,1.000000000,1.000000000,-2.199101833,-0.207168583,-1.507219035,23.992624435,3.128861666,-16.671771941,34.137609906,-0.595825225,-0.967150144,0.089830739,0.000000000,0.000000000,0.000000000,0.000000000,0.000000000,-0.015864268,0.000000000,0.000000000,0.000000000,0.000000000,0.000000000,0.000000000,0.000000000,0.000000000,0.000000000,0.000000000,0.787732840,0.000000000,0.000000000,0.000000000,0.000000000,0.000000000,0.000000000,0.000000000,0.000000000,0.000000000,32764.000000000,-0.698747261,-524315568.000000000,32764.000000000,0.000000000,0.000000000,0.007948719,0.165277375,-3.140169035,,,,,,,,
1701092926.002644,,,,,,,,,,,,,,,,,,,,,,,,,,,,,,,,,,,,,,,,,,,,,,,,,,,,,,,,,,,,,,,,,138888.000000000,1701092926.002600670,2.049999952,17.909999847,96.910003662,0.488999993,-0.477999985,0.001000000
1701092926.018982,,,,,,,,,,,,,,,,,,,,,,,,,,,,,,,,,,,,,,,,,,,,,,,,,,,,,,,,,,,,,,,,,138889.000000000,1701092926.018855810,2.109999895,17.940000534,96.910003662,0.483000010,-0.485000014,-0.001000000
1701092926.035361,,,,,,,,,,,,,,,,,,,,,,,,,,,,,,,,,,,,,,,,,,,,,,,,,,,,,,,,,,,,,,,,,138890.000000000,1701092926.035142660,2.059999943,17.909999847,96.949996948,0.476999998,-0.479999989,-0.001000000
1701092926.051451,,,,,,,,,,,,,,,,,,,,,,,,,,,,,,,,,,,,,,,,,,,,,,,,,,,,,,,,,,,,,,,,,138891.000000000,1701092926.051375628,2.049999952,17.920000076,96.949996948,0.488000005,-0.479999989,0.003000000
1701092926.067719,,,,,,,,,,,,,,,,,,,,,,,,,,,,,,,,,,,,,,,,,,,,,,,,,,,,,,,,,,,,,,,,,138892.000000000,1701092926.067603588,2.079999924,17.860000610,96.970001221,0.488999993,-0.479000002,0.003000000
1701092926.084048,,,,,,,,,,,,,,,,,,,,,,,,,,,,,,,,,,,,,,,,,,,,,,,,,,,,,,,,,,,,,,,,,138893.000000000,1701092926.083846092,2.019999981,17.809999466,96.889999390,0.479000002,-0.479000002,0.002000000
1701092926.097659,-0.699445069,0.007527950,-0.018284065,0.002155683,4.001124427,3.322728124,-5.857889895,0.029616221,-0.067576728,0.089830739,0.000480022,-0.000333545,0.165945441,0.000682842,-0.000794375,-0.001935238,0.000059887,1.000000000,1.000000000,-2.197244253,-0.207616083,-1.510619032,24.001124427,3.128861666,-16.677271876,34.142110105,-0.595781474,-0.967618894,0.089830739,0.000000000,0.000000000,0.000000000,0.000000000,0.000000000,-0.015864268,0.000000000,0.000000000,0.000000000,0.000000000,0.000000000,0.000000000,0.000000000,0.000000000,0.000000000,0.000000000,0.787732840,0.000000000,0.000000000,0.000000000,0.000000000,0.000000000,0.000000000,0.000000000,0.000000000,0.000000000,32764.000000000,-0.698746990,-524315568.000000000,32764.000000000,0.000000000,0.000000000,0.007948824,0.165277290,-3.140168977,,,,,,,,
1701092926.100284,,,,,,,,,,,,,,,,,,,,,,,,,,,,,,,,,,,,,,,,,,,,,,,,,,,,,,,,,,,,,,,,,138894.000000000,1701092926.100146294,2.059999943,17.899999619,96.870002747,0.476999998,-0.479999989,-0.001000000
1701092926.116473,,,,,,,,,,,,,,,,,,,,,,,,,,,,,,,,,,,,,,,,,,,,,,,,,,,,,,,,,,,,,,,,,138895.000000000,1701092926.116392136,2.079999924,17.860000610,96.930000305,0.483000010,-0.479999989,-0.001000000
1701092926.132770,,,,,,,,,,,,,,,,,,,,,,,,,,,,,,,,,,,,,,,,,,,,,,,,,,,,,,,,,,,,,,,,,138896.000000000,1701092926.132653713,2.059999943,17.889999390,96.919998169,0.486999989,-0.483000010,0.002000000
1701092926.148987,,,,,,,,,,,,,,,,,,,,,,,,,,,,,,,,,,,,,,,,,,,,,,,,,,,,,,,,,,,,,,,,,138897.000000000,1701092926.148908615,2.039999962,17.870000839,96.930000305,0.481999993,-0.479000002,0.001000000
1701092926.165158,,,,,,,,,,,,,,,,,,,,,,,,,,,,,,,,,,,,,,,,,,,,,,,,,,,,,,,,,,,,,,,,,138898.000000000,1701092926.165130138,2.109999895,17.969999313,96.919998169,0.481000006,-0.483999997,0.001000000
1701092926.177340,,,,,,,,,,,,,,,,,,,,,,,,,,,,,,,,,,,,,,,,,,,,,,,,,,,,,,,,,,,,,,,,,138899.000000000,1701092926.177297831,2.059999943,17.959999084,96.910003662,0.486000001,-0.479999989,0.000000000
1701092926.193638,,,,,,,,,,,,,,,,,,,,,,,,,,,,,,,,,,,,,,,,,,,,,,,,,,,,,,,,,,,,,,,,,138900.000000000,1701092926.193547249,2.109999895,17.879999161,96.889999390,0.483000010,-0.483000010,0.000000000
1701092926.196726,-0.699445069,0.007527950,-0.018283703,0.002155851,4.004624423,3.313228097,-5.861390261,0.029366220,-0.067626727,0.089580739,0.000480092,-0.000333735,0.165945441,0.000682772,-0.000795184,-0.001935600,0.000059720,1.000000000,1.000000000,-2.199226901,-0.207788582,-1.512269031,24.004624423,3.128861666,-16.686771903,34.138609739,-0.596387727,-0.967800143,0.089580739,0.000000000,0.000000000,0.000000000,0.000000000,0.000000000,-0.015864268,0.000000000,0.000000000,0.000000000,0.000000000,0.000000000,0.000000000,0.000000000,0.000000000,0.000000000,0.000000000,0.787732840,0.000000000,0.000000000,0.000000000,0.000000000,0.000000000,0.000000000,0.000000000,0.000000000,0.000000000,32764.000000000,-0.698746884,-524315568.000000000,32764.000000000,0.000000000,0.000000000,0.007949100,0.165277363,-3.140169789,,,,,,,,
1701092926.209882,,,,,,,,,,,,,,,,,,,,,,,,,,,,,,,,,,,,,,,,,,,,,,,,,,,,,,,,,,,,,,,,,138901.000000000,1701092926.209809065,2.049999952,17.969999313,96.980003357,0.481999993,-0.481000006,0.000000000
1701092926.226083,,,,,,,,,,,,,,,,,,,,,,,,,,,,,,,,,,,,,,,,,,,,,,,,,,,,,,,,,,,,,,,,,138902.000000000,1701092926.226037502,2.119999886,17.930000305,96.980003357,0.483000010,-0.483999997,0.002000000
1701092926.242332,,,,,,,,,,,,,,,,,,,,,,,,,,,,,,,,,,,,,,,,,,,,,,,,,,,,,,,,,,,,,,,,,138903.000000000,1701092926.242264986,2.029999971,17.870000839,96.940002441,0.488000005,-0.479000002,0.000000000
1701092926.258725,,,,,,,,,,,,,,,,,,,,,,,,,,,,,,,,,,,,,,,,,,,,,,,,,,,,,,,,,,,,,,,,,138904.000000000,1701092926.258521557,2.079999924,17.940000534,96.900001526,0.486999989,-0.483000010,0.000000000
1701092926.274946,,,,,,,,,,,,,,,,,,,,,,,,,,,,,,,,,,,,,,,,,,,,,,,,,,,,,,,,,,,,,,,,,138905.000000000,1701092926.274781466,2.099999905,17.889999390,96.870002747,0.477999985,-0.481000006,0.001000000
1701092926.291352,,,,,,,,,,,,,,,,,,,,,,,,,,,,,,,,,,,,,,,,,,,,,,,,,,,,,,,,,,,,,,,,,138906.000000000,1701092926.291032314,1.950000048,17.909999847,96.889999390,0.485000014,-0.477999985,0.002000000
1701092926.297896,-0.699445069,0.007527950,-0.018284578,0.002155982,3.999624416,3.324228063,-5.859889941,0.029816220,-0.067376727,0.089380739,0.000479992,-0.000333515,0.165945441,0.000682802,-0.000794034,-0.001934725,0.000059587,1.000000000,1.000000000,-2.197791774,-0.207363582,-1.510469028,23.999624416,3.128861666,-16.675771937,34.140110059,-0.595525228,-0.967362643,0.089380739,0.000000000,0.000000000,0.000000000,0.000000000,0.000000000,-0.015864268,0.000000000,0.000000000,0.000000000,0.000000000,0.000000000,0.000000000,0.000000000,0.000000000,0.000000000,0.000000000,0.787732840,0.000000000,0.000000000,0.000000000,0.000000000,0.000000000,0.000000000,0.000000000,0.000000000,0.000000000,32764.000000000,-0.698747075,-524315568.000000000,32764.000000000,0.000000000,0.000000000,0.007948758,0.165277328,-3.140168641,,,,,,,,
1701092926.307639,,,,,,,,,,,,,,,,,,,,,,,,,,,,,,,,,,,,,,,,,,,,,,,,,,,,,,,,,,,,,,,,,138907.000000000,1701092926.307343960,1.960000038,17.840000153,96.900001526,0.486000001,-0.477999985,0.002000000
1701092926.323895,,,,,,,,,,,,,,,,,,,,,,,,,,,,,,,,,,,,,,,,,,,,,,,,,,,,,,,,,,,,,,,,,138908.000000000,1701092926.323614120,1.960000038,17.989999771,96.930000305,0.483999997,-0.477999985,-0.001000000
1701092926.339990,,,,,,,,,,,,,,,,,,,,,,,,,,,,,,,,,,,,,,,,,,,,,,,,,,,,,,,,,,,,,,,,,138909.000000000,1701092926.339854240,1.960000038,18.049999237,96.900001526,0.481000006,-0.479000002,-0.001000000
1701092926.356231,,,,,,,,,,,,,,,,,,,,,,,,,,,,,,,,,,,,,,,,,,,,,,,,,,,,,,,,,,,,,,,,,138910.000000000,1701092926.356085300,2.039999962,17.909999847,96.889999390,0.483000010,-0.481000006,0.000000000
1701092926.372677,,,,,,,,,,,,,,,,,,,,,,,,,,,,,,,,,,,,,,,,,,,,,,,,,,,,,,,,,,,,,,,,,138911.000000000,1701092926.372347593,2.049999952,17.860000610,96.940002441,0.486999989,-0.481000006,0.001000000
1701092926.388878,,,,,,,,,,,,,,,,,,,,,,,,,,,,,,,,,,,,,,,,,,,,,,,,,,,,,,,,,,,,,,,,,138912.000000000,1701092926.388605595,1.990000010,17.920000076,96.919998169,0.486000001,-0.477999985,0.002000000
1701092926.397022,-0.699445069,0.007527950,-0.018287266,0.002156176,3.977124438,3.331228032,-5.868389849,0.029616220,-0.066876726,0.089080739,0.000479542,-0.000333375,0.165945441,0.000682632,-0.000793950,-0.001932038,0.000059387,1.000000000,1.000000000,-2.201146739,-0.206076082,-1.501769037,23.977124438,3.128861666,-16.668771968,34.131610151,-0.595462729,-0.966018893,0.089080739,0.000000000,0.000000000,0.000000000,0.000000000,0.000000000,-0.015864268,0.000000000,0.000000000,0.000000000,0.000000000,0.000000000,0.000000000,0.000000000,0.000000000,0.000000000,0.000000000,0.787732840,0.000000000,0.000000000,0.000000000,0.000000000,0.000000000,0.000000000,0.000000000,0.000000000,0.000000000,32764.000000000,-0.698747813,-524315568.000000000,32764.000000000,0.000000000,0.000000000,0.007948607,0.165277484,-3.140168562,,,,,,,,
1701092926.405217,,,,,,,,,,,,,,,,,,,,,,,,,,,,,,,,,,,,,,,,,,,,,,,,,,,,,,,,,,,,,,,,,138913.000000000,1701092926.404887438,2.059999943,17.969999313,96.889999390,0.479999989,-0.483000010,0.000000000
1701092926.421472,,,,,,,,,,,,,,,,,,,,,,,,,,,,,,,,,,,,,,,,,,,,,,,,,,,,,,,,,,,,,,,,,138914.000000000,1701092926.421167612,2.029999971,17.920000076,96.910003662,0.483000010,-0.479999989,0.001000000
1701092926.437760,,,,,,,,,,,,,,,,,,,,,,,,,,,,,,,,,,,,,,,,,,,,,,,,,,,,,,,,,,,,,,,,,138915.000000000,1701092926.437438011,2.019999981,17.819999695,96.919998169,0.486000001,-0.481000006,0.000000000
1701092926.449797,,,,,,,,,,,,,,,,,,,,,,,,,,,,,,,,,,,,,,,,,,,,,,,,,,,,,,,,,,,,,,,,,138916.000000000,1701092926.449624300,2.019999981,17.909999847,96.910003662,0.479999989,-0.479999989,0.002000000
1701092926.465979,,,,,,,,,,,,,,,,,,,,,,,,,,,,,,,,,,,,,,,,,,,,,,,,,,,,,,,,,,,,,,,,,138917.000000000,1701092926.465842962,2.099999905,17.889999390,96.910003662,0.479000002,-0.483000010,0.001000000
1701092926.482343,,,,,,,,,,,,,,,,,,,,,,,,,,,,,,,,,,,,,,,,,,,,,,,,,,,,,,,,,,,,,,,,,138918.000000000,1701092926.482083082,2.079999924,17.969999313,96.980003357,0.486000001,-0.481999993,0.000000000
1701092926.497779,-0.699445069,0.007527950,-0.018287091,0.002156176,3.974124441,3.340227952,-5.865389209,0.029866219,-0.067076727,0.089080739,0.000479482,-0.000333195,0.165945441,0.000682692,-0.000793167,-0.001932213,0.000059387,1.000000000,1.000000000,-2.199381486,-0.206171082,-1.500569038,23.974124441,3.128861666,-16.659772048,34.134610791,-0.594875232,-0.966106393,0.089080739,0.000000000,0.000000000,0.000000000,0.000000000,0.000000000,-0.015864268,0.000000000,0.000000000,0.000000000,0.000000000,0.000000000,0.000000000,0.000000000,0.000000000,0.000000000,0.000000000,0.787732840,0.000000000,0.000000000,0.000000000,0.000000000,0.000000000,0.000000000,0.000000000,0.000000000,0.000000000,32764.000000000,-0.698747853,-524315568.000000000,32764.000000000,0.000000000,0.000000000,0.007948344,0.165277422,-3.140167778,,,,,,,,
1701092926.498692,,,,,,,,,,,,,,,,,,,,,,,,,,,,,,,,,,,,,,,,,,,,,,,,,,,,,,,,,,,,,,,,,138919.000000000,1701092926.498391151,2.059999943,18.000000000,96.970001221,0.488000005,-0.481999993,0.000000000
1701092926.514951,,,,,,,,,,,,,,,,,,,,,,,,,,,,,,,,,,,,,,,,,,,,,,,,,,,,,,,,,,,,,,,,,138920.000000000,1701092926.514670134,2.039999962,17.930000305,96.910003662,0.481999993,-0.479999989,0.000000000
1701092926.531272,,,,,,,,,,,,,,,,,,,,,,,,,,,,,,,,,,,,,,,,,,,,,,,,,,,,,,,,,,,,,,,,,138921.000000000,1701092926.530934811,2.049999952,17.940000534,96.940002441,0.483999997,-0.479999989,0.000000000
1701092926.547534,,,,,,,,,,,,,,,,,,,,,,,,,,,,,,,,,,,,,,,,,,,,,,,,,,,,,,,,,,,,,,,,,138922.000000000,1701092926.547207594,2.099999905,17.909999847,96.919998169,0.485000014,-0.481000006,0.000000000
1701092926.563566,,,,,,,,,,,,,,,,,,,,,,,,,,,,,,,,,,,,,,,,,,,,,,,,,,,,,,,,,,,,,,,,,138923.000000000,1701092926.563443422,2.109999895,17.909999847,96.910003662,0.485000014,-0.481000006,0.001000000
1701092926.579754,,,,,,,,,,,,,,,,,,,,,,,,,,,,,,,,,,,,,,,,,,,,,,,,,,,,,,,,,,,,,,,,,138924.000000000,1701092926.579659224,2.140000105,17.930000305,96.919998169,0.483000010,-0.483999997,0.002000000
1701092926.595960,,,,,,,,,,,,,,,,,,,,,,,,,,,,,,,,,,,,,,,,,,,,,,,,,,,,,,,,,,,,,,,,,138925.000000000,1701092926.595879316,2.039999962,17.959999084,96.849998474,0.483000010,-0.479999989,0.000000000
1701092926.595984,-0.699445069,0.007527950,-0.018287103,0.002156143,3.976624450,3.343728032,-5.866889529,0.029766221,-0.066976725,0.089130739,0.000479532,-0.000333125,0.165945441,0.000682662,-0.000793125,-0.001932200,0.000059420,1.000000000,1.000000000,-2.199959110,-0.206158581,-1.501519042,23.976624450,3.128861666,-16.656271968,34.133110471,-0.594843978,-0.966100142,0.089130739,0.000000000,0.000000000,0.000000000,0.000000000,0.000000000,-0.015864268,0.000000000,0.000000000,0.000000000,0.000000000,0.000000000,0.000000000,0.000000000,0.000000000,0.000000000,0.000000000,0.787732840,0.000000000,0.000000000,0.000000000,0.000000000,0.000000000,0.000000000,0.000000000,0.000000000,0.000000000,32764.000000000,-0.698747805,-524315568.000000000,32764.000000000,0.000000000,0.000000000,0.007948269,0.165277453,-3.140167736,,,,,,,,
1701092926.612280,,,,,,,,,,,,,,,,,,,,,,,,,,,,,,,,,,,,,,,,,,,,,,,,,,,,,,,,,,,,,,,,,138926.000000000,1701092926.612131834,2.049999952,17.909999847,96.879997253,0.483999997,-0.481999993,-0.001000000
1701092926.628562,,,,,,,,,,,,,,,,,,,,,,,,,,,,,,,,,,,,,,,,,,,,,,,,,,,,,,,,,,,,,,,,,138927.000000000,1701092926.628391981,2.059999943,17.899999619,96.900001526,0.483000010,-0.481000006,0.000000000
1701092926.644717,,,,,,,,,,,,,,,,,,,,,,,,,,,,,,,,,,,,,,,,,,,,,,,,,,,,,,,,,,,,,,,,,138928.000000000,1701092926.644616365,1.980000019,17.879999161,96.900001526,0.479999989,-0.479000002,0.003000000
1701092926.660996,,,,,,,,,,,,,,,,,,,,,,,,,,,,,,,,,,,,,,,,,,,,,,,,,,,,,,,,,,,,,,,,,138929.000000000,1701092926.660837173,1.970000029,17.920000076,96.910003662,0.481999993,-0.477999985,0.004000000
1701092926.677347,,,,,,,,,,,,,,,,,,,,,,,,,,,,,,,,,,,,,,,,,,,,,,,,,,,,,,,,,,,,,,,,,138930.000000000,1701092926.677081108,2.039999962,17.899999619,96.919998169,0.486000001,-0.481999993,0.001000000
1701092926.693615,,,,,,,,,,,,,,,,,,,,,,,,,,,,,,,,,,,,,,,,,,,,,,,,,,,,,,,,,,,,,,,,,138931.000000000,1701092926.693363905,2.059999943,17.909999847,96.940002441,0.479999989,-0.481000006,0.000000000
1701092926.705683,,,,,,,,,,,,,,,,,,,,,,,,,,,,,,,,,,,,,,,,,,,,,,,,,,,,,,,,,,,,,,,,,138932.000000000,1701092926.705559015,2.059999943,17.940000534,96.949996948,0.481000006,-0.483000010,-0.001000000
1701092926.721157,-0.699445069,0.007527950,-0.018284966,0.002156148,3.989124438,3.341227975,-5.866389804,0.029216220,-0.067576726,0.089130739,0.000479782,-0.000333175,0.165945441,0.000682672,-0.000793984,-0.001934338,0.000059420,1.000000000,1.000000000,-2.200396722,-0.207196081,-1.506519037,23.989124438,3.128861666,-16.658772025,34.133610196,-0.595487731,-0.967168893,0.089130739,0.000000000,0.000000000,0.000000000,0.000000000,0.000000000,-0.015864268,0.000000000,0.000000000,0.000000000,0.000000000,0.000000000,0.000000000,0.000000000,0.000000000,0.000000000,0.000000000,0.787732840,0.000000000,0.000000000,0.000000000,0.000000000,0.000000000,0.000000000,0.000000000,0.000000000,0.000000000,32764.000000000,-0.698747328,-524315568.000000000,32764.000000000,0.000000000,0.000000000,0.007948412,0.165277453,-3.140168595,,,,,,,,
1701092926.721965,,,,,,,,,,,,,,,,,,,,,,,,,,,,,,,,,,,,,,,,,,,,,,,,,,,,,,,,,,,,,,,,,138933.000000000,1701092926.721832514,2.019999981,17.889999390,96.940002441,0.486000001,-0.479999989,0.003000000
1701092926.738243,,,,,,,,,,,,,,,,,,,,,,,,,,,,,,,,,,,,,,,,,,,,,,,,,,,,,,,,,,,,,,,,,138934.000000000,1701092926.738115549,2.000000000,17.860000610,96.879997253,0.486000001,-0.479999989,0.002000000
1701092926.754499,,,,,,,,,,,,,,,,,,,,,,,,,,,,,,,,,,,,,,,,,,,,,,,,,,,,,,,,,,,,,,,,,138935.000000000,1701092926.754377842,2.059999943,17.850000381,96.900001526,0.479999989,-0.479999989,0.001000000
1701092926.770643,,,,,,,,,,,,,,,,,,,,,,,,,,,,,,,,,,,,,,,,,,,,,,,,,,,,,,,,,,,,,,,,,138936.000000000,1701092926.770599127,2.029999971,17.920000076,96.930000305,0.483000010,-0.479999989,0.000000000
1701092926.787044,,,,,,,,,,,,,,,,,,,,,,,,,,,,,,,,,,,,,,,,,,,,,,,,,,,,,,,,,,,,,,,,,138937.000000000,1701092926.786825895,2.019999981,17.920000076,96.949996948,0.485000014,-0.479000002,-0.001000000
1701092926.797795,-0.699445069,0.007527950,-0.018286141,0.002156112,3.984124443,3.337728086,-5.863390307,0.029816221,-0.067176724,0.089180739,0.000479682,-0.000333245,0.165945441,0.000682732,-0.000793359,-0.001933163,0.000059454,1.000000000,1.000000000,-2.198719418,-0.206621079,-1.504469039,23.984124443,3.128861666,-16.662271914,34.136609693,-0.595018975,-0.966581390,0.089180739,0.000000000,0.000000000,0.000000000,0.000000000,0.000000000,-0.015864268,0.000000000,0.000000000,0.000000000,0.000000000,0.000000000,0.000000000,0.000000000,0.000000000,0.000000000,0.000000000,0.787732840,0.000000000,0.000000000,0.000000000,0.000000000,0.000000000,0.000000000,0.000000000,0.000000000,0.000000000,32764.000000000,-0.698747552,-524315568.000000000,32764.000000000,0.000000000,0.000000000,0.007948415,0.165277388,-3.140167969,,,,,,,,
1701092926.803603,,,,,,,,,,,,,,,,,,,,,,,,,,,,,,,,,,,,,,,,,,,,,,,,,,,,,,,,,,,,,,,,,138938.000000000,1701092926.803286076,2.009999990,17.899999619,96.949996948,0.485000014,-0.479000002,0.000000000
1701092926.819854,,,,,,,,,,,,,,,,,,,,,,,,,,,,,,,,,,,,,,,,,,,,,,,,,,,,,,,,,,,,,,,,,138939.000000000,1701092926.819671154,2.039999962,17.909999847,96.940002441,0.481999993,-0.481000006,0.001000000
1701092926.836005,,,,,,,,,,,,,,,,,,,,,,,,,,,,,,,,,,,,,,,,,,,,,,,,,,,,,,,,,,,,,,,,,138940.000000000,1701092926.835888386,2.049999952,17.930000305,96.879997253,0.483000010,-0.481999993,0.000000000
1701092926.852405,,,,,,,,,,,,,,,,,,,,,,,,,,,,,,,,,,,,,,,,,,,,,,,,,,,,,,,,,,,,,,,,,138941.000000000,1701092926.852127790,2.079999924,17.940000534,96.900001526,0.485000014,-0.481999993,0.000000000
1701092926.868758,,,,,,,,,,,,,,,,,,,,,,,,,,,,,,,,,,,,,,,,,,,,,,,,,,,,,,,,,,,,,,,,,138942.000000000,1701092926.868403435,2.069999933,17.959999084,96.919998169,0.483999997,-0.479999989,0.000000000
1701092926.884827,,,,,,,,,,,,,,,,,,,,,,,,,,,,,,,,,,,,,,,,,,,,,,,,,,,,,,,,,,,,,,,,,138943.000000000,1701092926.884654760,2.000000000,17.829999924,96.949996948,0.481000006,-0.479999989,0.003000000
1701092926.898427,-0.699445069,0.007527950,-0.018287053,0.002156010,3.974624452,3.328228059,-5.867891268,0.029316222,-0.067076724,0.089330739,0.000479492,-0.000333435,0.165945441,0.000682642,-0.000794500,-0.001932250,0.000059554,1.000000000,1.000000000,-2.201352303,-0.206188579,-1.500519042,23.974624452,3.128861666,-16.671771941,34.132108732,-0.595875226,-0.966125141,0.089330739,0.000000000,0.000000000,0.000000000,0.000000000,0.000000000,-0.015864268,0.000000000,0.000000000,0.000000000,0.000000000,0.000000000,0.000000000,0.000000000,0.000000000,0.000000000,0.000000000,0.787732840,0.000000000,0.000000000,0.000000000,0.000000000,0.000000000,0.000000000,0.000000000,0.000000000,0.000000000,32764.000000000,-0.698747841,-524315568.000000000,32764.000000000,0.000000000,0.000000000,0.007948725,0.165277473,-3.140169108,,,,,,,,
1701092926.901373,,,,,,,,,,,,,,,,,,,,,,,,,,,,,,,,,,,,,,,,,,,,,,,,,,,,,,,,,,,,,,,,,138944.000000000,1701092926.901043415,2.059999943,17.899999619,96.940002441,0.483999997,-0.481000006,0.000000000
1701092926.917912,,,,,,,,,,,,,,,,,,,,,,,,,,,,,,,,,,,,,,,,,,,,,,,,,,,,,,,,,,,,,,,,,138945.000000000,1701092926.917584419,2.119999886,17.870000839,96.930000305,0.483000010,-0.483000010,0.000000000
1701092926.930282,,,,,,,,,,,,,,,,,,,,,,,,,,,,,,,,,,,,,,,,,,,,,,,,,,,,,,,,,,,,,,,,,138946.000000000,1701092926.930009604,2.069999933,17.870000839,96.910003662,0.479000002,-0.479999989,0.001000000
1701092926.946752,,,,,,,,,,,,,,,,,,,,,,,,,,,,,,,,,,,,,,,,,,,,,,,,,,,,,,,,,,,,,,,,,138947.000000000,1701092926.946610212,2.059999943,17.899999619,96.910003662,0.481000006,-0.481000006,0.000000000
1701092926.963364,,,,,,,,,,,,,,,,,,,,,,,,,,,,,,,,,,,,,,,,,,,,,,,,,,,,,,,,,,,,,,,,,138948.000000000,1701092926.963100910,2.029999971,17.889999390,96.910003662,0.483999997,-0.479999989,0.003000000
1701092926.979835,,,,,,,,,,,,,,,,,,,,,,,,,,,,,,,,,,,,,,,,,,,,,,,,,,,,,,,,,,,,,,,,,138949.000000000,1701092926.979573727,2.069999933,17.920000076,96.900001526,0.485000014,-0.481999993,0.003000000
1701092926.996025,,,,,,,,,,,,,,,,,,,,,,,,,,,,,,,,,,,,,,,,,,,,,,,,,,,,,,,,,,,,,,,,,138950.000000000,1701092926.995865107,2.059999943,17.930000305,96.919998169,0.483999997,-0.481999993,0.002000000
1701092926.997358,-0.699445069,0.007527950,-0.018286040,0.002156012,3.984124431,3.322228208,-5.860890536,0.029266223,-0.067226725,0.089330738,0.000479682,-0.000333555,0.165945441,0.000682782,-0.000794867,-0.001933263,0.000059554,1.000000000,1.000000000,-2.198812005,-0.206671080,-1.504319034,23.984124431,3.128861666,-16.677771792,34.139109464,-0.596150220,-0.966631391,0.089330738,0.000000000,0.000000000,0.000000000,0.000000000,0.000000000,-0.015864268,0.000000000,0.000000000,0.000000000,0.000000000,0.000000000,0.000000000,0.000000000,0.000000000,0.000000000,0.000000000,0.787732840,0.000000000,0.000000000,0.000000000,0.000000000,0.000000000,0.000000000,0.000000000,0.000000000,0.000000000,32764.000000000,-0.698747541,-524315568.000000000,32764.000000000,0.000000000,0.000000000,0.007948885,0.165277340,-3.140169475,,,,,,,,
1701092927.012367,,,,,,,,,,,,,,,,,,,,,,,,,,,,,,,,,,,,,,,,,,,,,,,,,,,,,,,,,,,,,,,,,138951.000000000,1701092927.012133598,1.990000010,18.010000229,96.889999390,0.485000014,-0.479000002,0.000000000
1701092927.028599,,,,,,,,,,,,,,,,,,,,,,,,,,,,,,,,,,,,,,,,,,,,,,,,,,,,,,,,,,,,,,,,,138952.000000000,1701092927.028400183,2.019999981,17.989999771,96.930000305,0.486000001,-0.477999985,0.000000000
1701092927.044816,,,,,,,,,,,,,,,,,,,,,,,,,,,,,,,,,,,,,,,,,,,,,,,,,,,,,,,,,,,,,,,,,138953.000000000,1701092927.044648647,2.069999933,17.959999084,96.940002441,0.483999997,-0.481000006,0.002000000
1701092927.061046,,,,,,,,,,,,,,,,,,,,,,,,,,,,,,,,,,,,,,,,,,,,,,,,,,,,,,,,,,,,,,,,,138954.000000000,1701092927.060878754,2.049999952,17.940000534,96.900001526,0.483999997,-0.481999993,0.003000000
1701092927.077438,,,,,,,,,,,,,,,,,,,,,,,,,,,,,,,,,,,,,,,,,,,,,,,,,,,,,,,,,,,,,,,,,138955.000000000,1701092927.077132940,2.049999952,17.950000763,96.900001526,0.485000014,-0.481000006,0.002000000
1701092927.093574,,,,,,,,,,,,,,,,,,,,,,,,,,,,,,,,,,,,,,,,,,,,,,,,,,,,,,,,,,,,,,,,,138956.000000000,1701092927.093415499,2.039999962,17.920000076,96.900001526,0.485000014,-0.479999989,0.001000000
1701092927.096079,-0.699445069,0.007527950,-0.018286378,0.002155911,3.983624432,3.342228189,-5.864890246,0.029916225,-0.067076725,0.089480739,0.000479672,-0.000333155,0.165945441,0.000682702,-0.000793000,-0.001932925,0.000059654,1.000000000,1.000000000,-2.199061887,-0.206503580,-1.503969034,23.983624432,3.128861666,-16.657771811,34.135109754,-0.594750218,-0.966462641,0.089480739,0.000000000,0.000000000,0.000000000,0.000000000,0.000000000,-0.015864268,0.000000000,0.000000000,0.000000000,0.000000000,0.000000000,0.000000000,0.000000000,0.000000000,0.000000000,0.000000000,0.787732840,0.000000000,0.000000000,0.000000000,0.000000000,0.000000000,0.000000000,0.000000000,0.000000000,0.000000000,32764.000000000,-0.698747587,-524315568.000000000,32764.000000000,0.000000000,0.000000000,0.007948287,0.165277417,-3.140167606,,,,,,,,
1701092927.109930,,,,,,,,,,,,,,,,,,,,,,,,,,,,,,,,,,,,,,,,,,,,,,,,,,,,,,,,,,,,,,,,,138957.000000000,1701092927.109693050,2.039999962,17.879999161,96.889999390,0.481999993,-0.479999989,0.002000000
1701092927.122246,,,,,,,,,,,,,,,,,,,,,,,,,,,,,,,,,,,,,,,,,,,,,,,,,,,,,,,,,,,,,,,,,138958.000000000,1701092927.121915102,2.049999952,17.889999390,96.940002441,0.481000006,-0.479999989,0.001000000
1701092927.138523,,,,,,,,,,,,,,,,,,,,,,,,,,,,,,,,,,,,,,,,,,,,,,,,,,,,,,,,,,,,,,,,,138959.000000000,1701092927.138201952,2.039999962,17.879999161,96.930000305,0.481999993,-0.479000002,0.001000000
1701092927.154667,,,,,,,,,,,,,,,,,,,,,,,,,,,,,,,,,,,,,,,,,,,,,,,,,,,,,,,,,,,,,,,,,138960.000000000,1701092927.154464006,2.029999971,17.969999313,96.930000305,0.485000014,-0.479999989,0.003000000
1701092927.170892,,,,,,,,,,,,,,,,,,,,,,,,,,,,,,,,,,,,,,,,,,,,,,,,,,,,,,,,,,,,,,,,,138961.000000000,1701092927.170699596,2.059999943,17.979999542,96.949996948,0.483999997,-0.481000006,0.000000000
1701092927.187224,,,,,,,,,,,,,,,,,,,,,,,,,,,,,,,,,,,,,,,,,,,,,,,,,,,,,,,,,,,,,,,,,138962.000000000,1701092927.186947107,2.069999933,17.979999542,96.940002441,0.483999997,-0.481999993,0.001000000
1701092927.197995,-0.699445069,0.007527950,-0.018286402,0.002155645,3.984624431,3.343228021,-5.862889819,0.029616223,-0.067026724,0.089880739,0.000479692,-0.000333135,0.165945441,0.000682742,-0.000793350,-0.001932900,0.000059920,1.000000000,1.000000000,-2.198526724,-0.206488579,-1.503969034,23.984624431,3.128861666,-16.656771979,34.137110181,-0.595012727,-0.966450140,0.089880739,0.000000000,0.000000000,0.000000000,0.000000000,0.000000000,-0.015864268,0.000000000,0.000000000,0.000000000,0.000000000,0.000000000,0.000000000,0.000000000,0.000000000,0.000000000,0.000000000,0.787732840,0.000000000,0.000000000,0.000000000,0.000000000,0.000000000,0.000000000,0.000000000,0.000000000,0.000000000,32764.000000000,-0.698747569,-524315568.000000000,32764.000000000,0.000000000,0.000000000,0.007948304,0.165277378,-3.140167951,,,,,,,,
1701092927.203711,,,,,,,,,,,,,,,,,,,,,,,,,,,,,,,,,,,,,,,,,,,,,,,,,,,,,,,,,,,,,,,,,138963.000000000,1701092927.203471661,2.059999943,17.889999390,96.900001526,0.483999997,-0.481000006,0.001000000
1701092927.220042,,,,,,,,,,,,,,,,,,,,,,,,,,,,,,,,,,,,,,,,,,,,,,,,,,,,,,,,,,,,,,,,,138964.000000000,1701092927.219977379,2.119999886,17.899999619,96.870002747,0.483999997,-0.483000010,0.001000000
1701092927.236760,,,,,,,,,,,,,,,,,,,,,,,,,,,,,,,,,,,,,,,,,,,,,,,,,,,,,,,,,,,,,,,,,138965.000000000,1701092927.236503363,2.109999895,17.879999161,96.879997253,0.481999993,-0.481999993,0.001000000
1701092927.253176,,,,,,,,,,,,,,,,,,,,,,,,,,,,,,,,,,,,,,,,,,,,,,,,,,,,,,,,,,,,,,,,,138966.000000000,1701092927.252912760,2.019999981,17.920000076,96.889999390,0.483000010,-0.479999989,0.001000000
1701092927.269763,,,,,,,,,,,,,,,,,,,,,,,,,,,,,,,,,,,,,,,,,,,,,,,,,,,,,,,,,,,,,,,,,138967.000000000,1701092927.269428730,2.049999952,17.879999161,96.879997253,0.483999997,-0.479999989,0.001000000
1701092927.282189,,,,,,,,,,,,,,,,,,,,,,,,,,,,,,,,,,,,,,,,,,,,,,,,,,,,,,,,,,,,,,,,,138968.000000000,1701092927.281873941,2.089999914,17.870000839,96.870002747,0.481999993,-0.481999993,0.001000000
1701092927.297823,-0.699445069,0.007527950,-0.018285690,0.002155679,3.990124425,3.347227922,-5.875890307,0.029966221,-0.067176724,0.089830739,0.000479802,-0.000333055,0.165945441,0.000682482,-0.000792684,-0.001933613,0.000059887,1.000000000,1.000000000,-2.203236925,-0.206831079,-1.506219032,23.990124425,3.128861666,-16.652772078,34.124109693,-0.594512732,-0.966806390,0.089830739,0.000000000,0.000000000,0.000000000,0.000000000,0.000000000,-0.015864268,0.000000000,0.000000000,0.000000000,0.000000000,0.000000000,0.000000000,0.000000000,0.000000000,0.000000000,0.000000000,0.787732840,0.000000000,0.000000000,0.000000000,0.000000000,0.000000000,0.000000000,0.000000000,0.000000000,0.000000000,32764.000000000,-0.698747388,-524315568.000000000,32764.000000000,0.000000000,0.000000000,0.007948153,0.165277641,-3.140167285,,,,,,,,
1701092927.298625,,,,,,,,,,,,,,,,,,,,,,,,,,,,,,,,,,,,,,,,,,,,,,,,,,,,,,,,,,,,,,,,,138969.000000000,1701092927.298378229,2.099999905,17.909999847,96.849998474,0.481999993,-0.481999993,0.002000000
1701092927.314780,,,,,,,,,,,,,,,,,,,,,,,,,,,,,,,,,,,,,,,,,,,,,,,,,,,,,,,,,,,,,,,,,138970.000000000,1701092927.314644814,2.049999952,17.930000305,96.900001526,0.483000010,-0.479999989,0.001000000
1701092927.331092,,,,,,,,,,,,,,,,,,,,,,,,,,,,,,,,,,,,,,,,,,,,,,,,,,,,,,,,,,,,,,,,,138971.000000000,1701092927.330876112,2.039999962,17.870000839,96.940002441,0.486000001,-0.479999989,0.000000000
1701092927.347466,,,,,,,,,,,,,,,,,,,,,,,,,,,,,,,,,,,,,,,,,,,,,,,,,,,,,,,,,,,,,,,,,138972.000000000,1701092927.347151279,2.049999952,17.860000610,96.900001526,0.485000014,-0.479000002,0.000000000
1701092927.363685,,,,,,,,,,,,,,,,,,,,,,,,,,,,,,,,,,,,,,,,,,,,,,,,,,,,,,,,,,,,,,,,,138973.000000000,1701092927.363423109,2.099999905,17.950000763,96.870002747,0.483000010,-0.481000006,0.000000000
1701092927.379878,,,,,,,,,,,,,,,,,,,,,,,,,,,,,,,,,,,,,,,,,,,,,,,,,,,,,,,,,,,,,,,,,138974.000000000,1701092927.379673958,2.049999952,17.959999084,96.879997253,0.483000010,-0.479999989,0.001000000
1701092927.396237,,,,,,,,,,,,,,,,,,,,,,,,,,,,,,,,,,,,,,,,,,,,,,,,,,,,,,,,,,,,,,,,,138975.000000000,1701092927.395955324,2.079999924,17.909999847,96.949996948,0.486000001,-0.483000010,0.001000000
1701092927.405946,-0.699445069,0.007527950,-0.018285090,0.002155914,3.998124418,3.331727948,-5.880390505,0.029716221,-0.067176724,0.089480739,0.000479962,-0.000333365,0.165945441,0.000682392,-0.000793792,-0.001934213,0.000059654,1.000000000,1.000000000,-2.205829503,-0.207111078,-1.509769029,23.998124418,3.128861666,-16.668272052,34.119609495,-0.595343981,-0.967106389,0.089480739,0.000000000,0.000000000,0.000000000,0.000000000,0.000000000,-0.015864268,0.000000000,0.000000000,0.000000000,0.000000000,0.000000000,0.000000000,0.000000000,0.000000000,0.000000000,0.000000000,0.787732840,0.000000000,0.000000000,0.000000000,0.000000000,0.000000000,0.000000000,0.000000000,0.000000000,0.000000000,32764.000000000,-0.698747167,-524315568.000000000,32764.000000000,0.000000000,0.000000000,0.007948581,0.165277736,-3.140168398,,,,,,,,
1701092927.412397,,,,,,,,,,,,,,,,,,,,,,,,,,,,,,,,,,,,,,,,,,,,,,,,,,,,,,,,,,,,,,,,,138976.000000000,1701092927.412237883,2.099999905,17.950000763,96.940002441,0.486000001,-0.483000010,0.000000000
1701092927.428526,,,,,,,,,,,,,,,,,,,,,,,,,,,,,,,,,,,,,,,,,,,,,,,,,,,,,,,,,,,,,,,,,138977.000000000,1701092927.428460836,2.079999924,17.969999313,96.949996948,0.483999997,-0.481999993,0.000000000
1701092927.444829,,,,,,,,,,,,,,,,,,,,,,,,,,,,,,,,,,,,,,,,,,,,,,,,,,,,,,,,,,,,,,,,,138978.000000000,1701092927.444692373,2.029999971,17.930000305,96.879997253,0.483000010,-0.481000006,0.002000000
1701092927.461289,,,,,,,,,,,,,,,,,,,,,,,,,,,,,,,,,,,,,,,,,,,,,,,,,,,,,,,,,,,,,,,,,138979.000000000,1701092927.460955381,2.039999962,17.909999847,96.900001526,0.485000014,-0.481000006,0.002000000
1701092927.477506,,,,,,,,,,,,,,,,,,,,,,,,,,,,,,,,,,,,,,,,,,,,,,,,,,,,,,,,,,,,,,,,,138980.000000000,1701092927.477224588,2.059999943,17.879999161,96.940002441,0.485000014,-0.481999993,-0.001000000
1701092927.493653,,,,,,,,,,,,,,,,,,,,,,,,,,,,,,,,,,,,,,,,,,,,,,,,,,,,,,,,,,,,,,,,,138981.000000000,1701092927.493480682,2.029999971,17.899999619,96.919998169,0.481000006,-0.481000006,0.000000000
1701092927.496156,-0.699445069,0.007527950,-0.018283791,0.002156084,4.002124414,3.332728067,-5.880890612,0.029966223,-0.067676726,0.089230739,0.000480042,-0.000333345,0.165945441,0.000682382,-0.000793409,-0.001935513,0.000059487,1.000000000,1.000000000,-2.205744540,-0.207751081,-1.511619027,24.002124414,3.128861666,-16.667271933,34.119109388,-0.595056475,-0.967756392,0.089230739,0.000000000,0.000000000,0.000000000,0.000000000,0.000000000,-0.015864268,0.000000000,0.000000000,0.000000000,0.000000000,0.000000000,0.000000000,0.000000000,0.000000000,0.000000000,0.000000000,0.787732840,0.000000000,0.000000000,0.000000000,0.000000000,0.000000000,0.000000000,0.000000000,0.000000000,0.000000000,32764.000000000,-0.698746950,-524315568.000000000,32764.000000000,0.000000000,0.000000000,0.007948521,0.165277750,-3.140168018,,,,,,,,
1701092927.510121,,,,,,,,,,,,,,,,,,,,,,,,,,,,,,,,,,,,,,,,,,,,,,,,,,,,,,,,,,,,,,,,,138982.000000000,1701092927.509762287,2.009999990,17.889999390,96.919998169,0.481000006,-0.481000006,0.000000000
1701092927.522187,,,,,,,,,,,,,,,,,,,,,,,,,,,,,,,,,,,,,,,,,,,,,,,,,,,,,,,,,,,,,,,,,138983.000000000,1701092927.521976948,2.049999952,17.889999390,96.930000305,0.483999997,-0.481000006,0.001000000
1701092927.538377,,,,,,,,,,,,,,,,,,,,,,,,,,,,,,,,,,,,,,,,,,,,,,,,,,,,,,,,,,,,,,,,,138984.000000000,1701092927.538202286,2.079999924,17.840000153,96.930000305,0.483999997,-0.481999993,0.002000000
1701092927.554758,,,,,,,,,,,,,,,,,,,,,,,,,,,,,,,,,,,,,,,,,,,,,,,,,,,,,,,,,,,,,,,,,138985.000000000,1701092927.554448843,2.059999943,17.920000076,96.930000305,0.483000010,-0.481000006,0.000000000
1701092927.570975,,,,,,,,,,,,,,,,,,,,,,,,,,,,,,,,,,,,,,,,,,,,,,,,,,,,,,,,,,,,,,,,,138986.000000000,1701092927.570713758,2.059999943,17.950000763,96.919998169,0.483999997,-0.481000006,0.001000000
1701092927.587223,,,,,,,,,,,,,,,,,,,,,,,,,,,,,,,,,,,,,,,,,,,,,,,,,,,,,,,,,,,,,,,,,138987.000000000,1701092927.586968184,2.019999981,17.920000076,96.930000305,0.485000014,-0.479999989,0.002000000
1701092927.597536,-0.699445069,0.007527950,-0.018284553,0.002156082,3.994624421,3.330728212,-5.870890765,0.029966224,-0.067576728,0.089230739,0.000479892,-0.000333385,0.165945441,0.000682582,-0.000793509,-0.001934750,0.000059487,1.000000000,1.000000000,-2.201814595,-0.207388582,-1.508619030,23.994624421,3.128861666,-16.669271788,34.129109235,-0.595131468,-0.967375143,0.089230739,0.000000000,0.000000000,0.000000000,0.000000000,0.000000000,-0.015864268,0.000000000,0.000000000,0.000000000,0.000000000,0.000000000,0.000000000,0.000000000,0.000000000,0.000000000,0.000000000,0.787732840,0.000000000,0.000000000,0.000000000,0.000000000,0.000000000,0.000000000,0.000000000,0.000000000,0.000000000,32764.000000000,-0.698747177,-524315568.000000000,32764.000000000,0.000000000,0.000000000,0.007948571,0.165277546,-3.140168118,,,,,,,,
1701092927.603708,,,,,,,,,,,,,,,,,,,,,,,,,,,,,,,,,,,,,,,,,,,,,,,,,,,,,,,,,,,,,,,,,138988.000000000,1701092927.603363514,2.029999971,17.889999390,96.900001526,0.483999997,-0.479999989,0.003000000
1701092927.619959,,,,,,,,,,,,,,,,,,,,,,,,,,,,,,,,,,,,,,,,,,,,,,,,,,,,,,,,,,,,,,,,,138989.000000000,1701092927.619644403,2.069999933,17.870000839,96.919998169,0.481000006,-0.481999993,0.000000000
1701092927.636020,,,,,,,,,,,,,,,,,,,,,,,,,,,,,,,,,,,,,,,,,,,,,,,,,,,,,,,,,,,,,,,,,138990.000000000,1701092927.635892630,2.099999905,17.930000305,96.879997253,0.481000006,-0.483000010,0.000000000
1701092927.652373,,,,,,,,,,,,,,,,,,,,,,,,,,,,,,,,,,,,,,,,,,,,,,,,,,,,,,,,,,,,,,,,,138991.000000000,1701092927.652127028,2.059999943,17.959999084,96.900001526,0.486000001,-0.483000010,0.001000000
1701092927.668858,,,,,,,,,,,,,,,,,,,,,,,,,,,,,,,,,,,,,,,,,,,,,,,,,,,,,,,,,,,,,,,,,138992.000000000,1701092927.668387651,2.019999981,17.940000534,96.930000305,0.485000014,-0.479999989,0.002000000
1701092927.685080,,,,,,,,,,,,,,,,,,,,,,,,,,,,,,,,,,,,,,,,,,,,,,,,,,,,,,,,,,,,,,,,,138993.000000000,1701092927.684657574,2.049999952,18.010000229,96.949996948,0.483999997,-0.481000006,0.001000000
1701092927.697021,-0.699445069,0.007527950,-0.018284428,0.002155982,3.989624426,3.341228070,-5.863391452,0.029966224,-0.067826729,0.089380739,0.000479792,-0.000333175,0.165945441,0.000682732,-0.000792984,-0.001934875,0.000059587,1.000000000,1.000000000,-2.198447374,-0.207463584,-1.506469032,23.989624426,3.128861666,-16.658771930,34.136608548,-0.594737723,-0.967437645,0.089380739,0.000000000,0.000000000,0.000000000,0.000000000,0.000000000,-0.015864268,0.000000000,0.000000000,0.000000000,0.000000000,0.000000000,0.000000000,0.000000000,0.000000000,0.000000000,0.000000000,0.787732840,0.000000000,0.000000000,0.000000000,0.000000000,0.000000000,0.000000000,0.000000000,0.000000000,0.000000000,32764.000000000,-0.698747260,-524315568.000000000,32764.000000000,0.000000000,0.000000000,0.007948306,0.165277394,-3.140167591,,,,,,,,
1701092927.701148,,,,,,,,,,,,,,,,,,,,,,,,,,,,,,,,,,,,,,,,,,,,,,,,,,,,,,,,,,,,,,,,,138994.000000000,1701092927.701050282,2.009999990,17.989999771,96.940002441,0.483999997,-0.479999989,0.000000000
1701092927.717885,,,,,,,,,,,,,,,,,,,,,,,,,,,,,,,,,,,,,,,,,,,,,,,,,,,,,,,,,,,,,,,,,138995.000000000,1701092927.717629194,2.049999952,17.920000076,96.919998169,0.483999997,-0.481999993,0.001000000
1701092927.730346,,,,,,,,,,,,,,,,,,,,,,,,,,,,,,,,,,,,,,,,,,,,,,,,,,,,,,,,,,,,,,,,,138996.000000000,1701092927.730112076,2.039999962,17.969999313,96.860000610,0.483999997,-0.481000006,0.000000000
1701092927.746881,,,,,,,,,,,,,,,,,,,,,,,,,,,,,,,,,,,,,,,,,,,,,,,,,,,,,,,,,,,,,,,,,138997.000000000,1701092927.746667147,2.099999905,17.969999313,96.860000610,0.483000010,-0.483000010,0.001000000
1701092927.763287,,,,,,,,,,,,,,,,,,,,,,,,,,,,,,,,,,,,,,,,,,,,,,,,,,,,,,,,,,,,,,,,,138998.000000000,1701092927.763103724,2.029999971,17.780000687,96.959999084,0.483000010,-0.479000002,0.001000000
1701092927.779854,,,,,,,,,,,,,,,,,,,,,,,,,,,,,,,,,,,,,,,,,,,,,,,,,,,,,,,,,,,,,,,,,138999.000000000,1701092927.779572487,2.079999924,17.799999237,96.930000305,0.485000014,-0.481999993,0.001000000
1701092927.796250,,,,,,,,,,,,,,,,,,,,,,,,,,,,,,,,,,,,,,,,,,,,,,,,,,,,,,,,,,,,,,,,,139000.000000000,1701092927.795960426,2.059999943,17.940000534,96.900001526,0.483999997,-0.479999989,0.000000000
1701092927.797816,-0.699445069,0.007527950,-0.018285190,0.002156014,3.986124429,3.334228101,-5.866891055,0.029716223,-0.067576728,0.089330739,0.000479722,-0.000333315,0.165945441,0.000682662,-0.000793667,-0.001934113,0.000059554,1.000000000,1.000000000,-2.200342216,-0.207091083,-1.505119033,23.986124429,3.128861666,-16.665771899,34.133108945,-0.595250223,-0.967056394,0.089330739,0.000000000,0.000000000,0.000000000,0.000000000,0.000000000,-0.015864268,0.000000000,0.000000000,0.000000000,0.000000000,0.000000000,0.000000000,0.000000000,0.000000000,0.000000000,0.000000000,0.787732840,0.000000000,0.000000000,0.000000000,0.000000000,0.000000000,0.000000000,0.000000000,0.000000000,0.000000000,32764.000000000,-0.698747412,-524315568.000000000,32764.000000000,0.000000000,0.000000000,0.007948518,0.165277461,-3.140168275,,,,,,,,
1701092927.812442,,,,,,,,,,,,,,,,,,,,,,,,,,,,,,,,,,,,,,,,,,,,,,,,,,,,,,,,,,,,,,,,,139001.000000000,1701092927.812299013,2.019999981,17.969999313,96.879997253,0.479999989,-0.479999989,0.000000000
1701092927.828797,,,,,,,,,,,,,,,,,,,,,,,,,,,,,,,,,,,,,,,,,,,,,,,,,,,,,,,,,,,,,,,,,139002.000000000,1701092927.828624249,2.019999981,17.930000305,96.870002747,0.481999993,-0.479999989,0.001000000
1701092927.845320,,,,,,,,,,,,,,,,,,,,,,,,,,,,,,,,,,,,,,,,,,,,,,,,,,,,,,,,,,,,,,,,,139003.000000000,1701092927.844987631,2.089999914,17.920000076,96.900001526,0.486999989,-0.479999989,0.000000000
1701092927.861613,,,,,,,,,,,,,,,,,,,,,,,,,,,,,,,,,,,,,,,,,,,,,,,,,,,,,,,,,,,,,,,,,139004.000000000,1701092927.861375570,2.119999886,17.879999161,96.910003662,0.485000014,-0.483000010,0.000000000
1701092927.878002,,,,,,,,,,,,,,,,,,,,,,,,,,,,,,,,,,,,,,,,,,,,,,,,,,,,,,,,,,,,,,,,,139005.000000000,1701092927.877875805,2.069999933,17.959999084,96.910003662,0.481000006,-0.483000010,0.002000000
1701092927.890293,,,,,,,,,,,,,,,,,,,,,,,,,,,,,,,,,,,,,,,,,,,,,,,,,,,,,,,,,,,,,,,,,139006.000000000,1701092927.890089750,2.049999952,17.950000763,96.879997253,0.485000014,-0.479999989,0.002000000
1701092927.897913,-0.699445069,0.007527950,-0.018284990,0.002155981,3.990124425,3.345228067,-5.876890521,0.029866222,-0.067526725,0.089380739,0.000479802,-0.000333095,0.165945441,0.000682462,-0.000792917,-0.001934313,0.000059587,1.000000000,1.000000000,-2.203807004,-0.207181080,-1.506669032,23.990124425,3.128861666,-16.654771933,34.123109479,-0.594687725,-0.967156391,0.089380739,0.000000000,0.000000000,0.000000000,0.000000000,0.000000000,-0.015864268,0.000000000,0.000000000,0.000000000,0.000000000,0.000000000,0.000000000,0.000000000,0.000000000,0.000000000,0.000000000,0.787732840,0.000000000,0.000000000,0.000000000,0.000000000,0.000000000,0.000000000,0.000000000,0.000000000,0.000000000,32764.000000000,-0.698747315,-524315568.000000000,32764.000000000,0.000000000,0.000000000,0.007948218,0.165277663,-3.140167525,,,,,,,,
1701092927.906592,,,,,,,,,,,,,,,,,,,,,,,,,,,,,,,,,,,,,,,,,,,,,,,,,,,,,,,,,,,,,,,,,139007.000000000,1701092927.906407356,1.990000010,17.889999390,96.889999390,0.486999989,-0.476999998,0.001000000
1701092927.922687,,,,,,,,,,,,,,,,,,,,,,,,,,,,,,,,,,,,,,,,,,,,,,,,,,,,,,,,,,,,,,,,,139008.000000000,1701092927.922639608,2.069999933,17.889999390,96.930000305,0.483000010,-0.481999993,0.000000000
1701092927.939348,,,,,,,,,,,,,,,,,,,,,,,,,,,,,,,,,,,,,,,,,,,,,,,,,,,,,,,,,,,,,,,,,139009.000000000,1701092927.939125061,2.079999924,17.879999161,96.959999084,0.479999989,-0.481000006,0.000000000
1701092927.955989,,,,,,,,,,,,,,,,,,,,,,,,,,,,,,,,,,,,,,,,,,,,,,,,,,,,,,,,,,,,,,,,,139010.000000000,1701092927.955741882,2.049999952,17.909999847,96.940002441,0.483999997,-0.481999993,0.002000000
1701092927.972588,,,,,,,,,,,,,,,,,,,,,,,,,,,,,,,,,,,,,,,,,,,,,,,,,,,,,,,,,,,,,,,,,139011.000000000,1701092927.972349405,2.039999962,17.879999161,96.930000305,0.486000001,-0.481000006,0.001000000
1701092927.988983,,,,,,,,,,,,,,,,,,,,,,,,,,,,,,,,,,,,,,,,,,,,,,,,,,,,,,,,,,,,,,,,,139012.000000000,1701092927.988686323,2.039999962,17.920000076,96.930000305,0.481999993,-0.481000006,0.000000000
1701092927.997281,-0.699445069,0.007527950,-0.018285503,0.002156113,3.988624427,3.338227906,-5.870890383,0.029866219,-0.067326726,0.089180739,0.000479772,-0.000333235,0.165945441,0.000682582,-0.000793267,-0.001933800,0.000059454,1.000000000,1.000000000,-2.201651957,-0.206928581,-1.506269032,23.988624427,3.128861666,-16.661772094,34.129109617,-0.594950234,-0.966900142,0.089180739,0.000000000,0.000000000,0.000000000,0.000000000,0.000000000,-0.015864268,0.000000000,0.000000000,0.000000000,0.000000000,0.000000000,0.000000000,0.000000000,0.000000000,0.000000000,0.000000000,0.787732840,0.000000000,0.000000000,0.000000000,0.000000000,0.000000000,0.000000000,0.000000000,0.000000000,0.000000000,32764.000000000,-0.698747397,-524315568.000000000,32764.000000000,0.000000000,0.000000000,0.007948395,0.165277541,-3.140167877,,,,,,,,
1701092928.005346,,,,,,,,,,,,,,,,,,,,,,,,,,,,,,,,,,,,,,,,,,,,,,,,,,,,,,,,,,,,,,,,,139013.000000000,1701092928.005022764,2.029999971,17.950000763,96.970001221,0.479000002,-0.479999989,0.000000000
1701092928.021607,,,,,,,,,,,,,,,,,,,,,,,,,,,,,,,,,,,,,,,,,,,,,,,,,,,,,,,,,,,,,,,,,139014.000000000,1701092928.021297455,2.039999962,17.969999313,96.940002441,0.483000010,-0.479999989,0.001000000
1701092928.037660,,,,,,,,,,,,,,,,,,,,,,,,,,,,,,,,,,,,,,,,,,,,,,,,,,,,,,,,,,,,,,,,,139015.000000000,1701092928.037532330,2.140000105,17.899999619,96.870002747,0.486999989,-0.483000010,0.001000000
1701092928.054103,,,,,,,,,,,,,,,,,,,,,,,,,,,,,,,,,,,,,,,,,,,,,,,,,,,,,,,,,,,,,,,,,139016.000000000,1701092928.053781271,2.089999914,17.930000305,96.930000305,0.481000006,-0.479999989,0.000000000
1701092928.070359,,,,,,,,,,,,,,,,,,,,,,,,,,,,,,,,,,,,,,,,,,,,,,,,,,,,,,,,,,,,,,,,,139017.000000000,1701092928.070045948,2.099999905,17.969999313,96.919998169,0.479999989,-0.483000010,0.000000000
1701092928.086570,,,,,,,,,,,,,,,,,,,,,,,,,,,,,,,,,,,,,,,,,,,,,,,,,,,,,,,,,,,,,,,,,139018.000000000,1701092928.086305380,2.009999990,17.940000534,96.889999390,0.486000001,-0.479000002,0.000000000
1701092928.098657,,,,,,,,,,,,,,,,,,,,,,,,,,,,,,,,,,,,,,,,,,,,,,,,,,,,,,,,,,,,,,,,,139019.000000000,1701092928.098507404,2.029999971,17.930000305,96.900001526,0.488000005,-0.481000006,0.000000000
1701092928.110519,-0.699445069,0.007527950,-0.018285403,0.002156213,3.992624435,3.345727983,-5.870890002,0.029716218,-0.067226726,0.089030739,0.000479852,-0.000333085,0.165945441,0.000682582,-0.000793092,-0.001933900,0.000059354,1.000000000,1.000000000,-2.201539303,-0.206968581,-1.508019035,23.992624435,3.128861666,-16.654272017,34.129109998,-0.594818982,-0.966950142,0.089030739,0.000000000,0.000000000,0.000000000,0.000000000,0.000000000,-0.015864268,0.000000000,0.000000000,0.000000000,0.000000000,0.000000000,0.000000000,0.000000000,0.000000000,0.000000000,0.000000000,0.787732840,0.000000000,0.000000000,0.000000000,0.000000000,0.000000000,0.000000000,0.000000000,0.000000000,0.000000000,32764.000000000,-0.698747306,-524315568.000000000,32764.000000000,0.000000000,0.000000000,0.007948227,0.165277543,-3.140167704,,,,,,,,
1701092928.114967,,,,,,,,,,,,,,,,,,,,,,,,,,,,,,,,,,,,,,,,,,,,,,,,,,,,,,,,,,,,,,,,,139020.000000000,1701092928.114775181,2.099999905,17.840000153,96.959999084,0.481000006,-0.479999989,0.000000000
1701092928.131246,,,,,,,,,,,,,,,,,,,,,,,,,,,,,,,,,,,,,,,,,,,,,,,,,,,,,,,,,,,,,,,,,139021.000000000,1701092928.131039858,2.039999962,17.950000763,96.940002441,0.483000010,-0.479000002,0.000000000
1701092928.147326,,,,,,,,,,,,,,,,,,,,,,,,,,,,,,,,,,,,,,,,,,,,,,,,,,,,,,,,,,,,,,,,,139022.000000000,1701092928.147284508,1.990000010,17.940000534,96.889999390,0.485000014,-0.477999985,0.000000000
1701092928.163715,,,,,,,,,,,,,,,,,,,,,,,,,,,,,,,,,,,,,,,,,,,,,,,,,,,,,,,,,,,,,,,,,139023.000000000,1701092928.163520098,2.059999943,17.989999771,96.900001526,0.486000001,-0.481000006,0.000000000
1701092928.179974,,,,,,,,,,,,,,,,,,,,,,,,,,,,,,,,,,,,,,,,,,,,,,,,,,,,,,,,,,,,,,,,,139024.000000000,1701092928.179782867,2.119999886,17.950000763,96.889999390,0.483000010,-0.481999993,0.001000000
1701092928.196149,,,,,,,,,,,,,,,,,,,,,,,,,,,,,,,,,,,,,,,,,,,,,,,,,,,,,,,,,,,,,,,,,139025.000000000,1701092928.196029186,2.109999895,17.969999313,96.919998169,0.483999997,-0.483000010,0.000000000
1701092928.196748,-0.699445069,0.007527950,-0.018285554,0.002156280,3.994624433,3.347728124,-5.864390521,0.029866221,-0.067076727,0.088930739,0.000479892,-0.000333045,0.165945441,0.000682712,-0.000792792,-0.001933750,0.000059287,1.000000000,1.000000000,-2.198719503,-0.206888582,-1.508919035,23.994624433,3.128861666,-16.652271876,34.135609479,-0.594593975,-0.966875143,0.088930739,0.000000000,0.000000000,0.000000000,0.000000000,0.000000000,-0.015864268,0.000000000,0.000000000,0.000000000,0.000000000,0.000000000,0.000000000,0.000000000,0.000000000,0.000000000,0.000000000,0.787732840,0.000000000,0.000000000,0.000000000,0.000000000,0.000000000,0.000000000,0.000000000,0.000000000,0.000000000,32764.000000000,-0.698747279,-524315568.000000000,32764.000000000,0.000000000,0.000000000,0.007948155,0.165277413,-3.140167406,,,,,,,,
1701092928.212570,,,,,,,,,,,,,,,,,,,,,,,,,,,,,,,,,,,,,,,,,,,,,,,,,,,,,,,,,,,,,,,,,139026.000000000,1701092928.212287664,2.049999952,17.940000534,96.940002441,0.486999989,-0.481000006,0.000000000
1701092928.228804,,,,,,,,,,,,,,,,,,,,,,,,,,,,,,,,,,,,,,,,,,,,,,,,,,,,,,,,,,,,,,,,,139027.000000000,1701092928.228537560,2.029999971,17.920000076,96.910003662,0.485000014,-0.479999989,0.000000000
1701092928.244915,,,,,,,,,,,,,,,,,,,,,,,,,,,,,,,,,,,,,,,,,,,,,,,,,,,,,,,,,,,,,,,,,139028.000000000,1701092928.244800568,2.049999952,17.950000763,96.879997253,0.481999993,-0.481999993,0.000000000
1701092928.261153,,,,,,,,,,,,,,,,,,,,,,,,,,,,,,,,,,,,,,,,,,,,,,,,,,,,,,,,,,,,,,,,,139029.000000000,1701092928.261029720,2.049999952,17.959999084,96.849998474,0.481999993,-0.481999993,0.000000000
1701092928.277461,,,,,,,,,,,,,,,,,,,,,,,,,,,,,,,,,,,,,,,,,,,,,,,,,,,,,,,,,,,,,,,,,139030.000000000,1701092928.277281761,2.009999990,18.020000458,96.919998169,0.488000005,-0.483000010,-0.008000000
1701092928.293645,,,,,,,,,,,,,,,,,,,,,,,,,,,,,,,,,,,,,,,,,,,,,,,,,,,,,,,,,,,,,,,,,139031.000000000,1701092928.293527126,1.870000005,17.969999313,96.930000305,0.490000010,-0.485000014,-0.059999999
1701092928.296851,-0.699445069,0.007527950,-0.018285384,0.002158747,3.983624437,3.365728250,-5.869390444,0.030316221,-0.067576728,0.085230739,0.000479672,-0.000332685,0.165945441,0.000682612,-0.000791292,-0.001933925,0.000056820,1.000000000,1.000000000,-2.199639468,-0.207003583,-1.508219036,23.983624437,3.128861666,-16.634271750,34.130609556,-0.593468970,-0.966962644,0.085230739,0.000000000,0.000000000,0.000000000,0.000000000,0.000000000,-0.015864268,0.000000000,0.000000000,0.000000000,0.000000000,0.000000000,0.000000000,0.000000000,0.000000000,0.000000000,0.000000000,0.787732840,0.000000000,0.000000000,0.000000000,0.000000000,0.000000000,0.000000000,0.000000000,0.000000000,0.000000000,32764.000000000,-0.698747482,-524315568.000000000,32764.000000000,0.000000000,0.000000000,0.007947636,0.165277508,-3.140165955,,,,,,,,
1701092928.310068,,,,,,,,,,,,,,,,,,,,,,,,,,,,,,,,,,,,,,,,,,,,,,,,,,,,,,,,,,,,,,,,,139032.000000000,1701092928.309814453,1.769999981,17.930000305,96.860000610,0.490000010,-0.483999997,-0.072999999
1701092928.326462,,,,,,,,,,,,,,,,,,,,,,,,,,,,,,,,,,,,,,,,,,,,,,,,,,,,,,,,,,,,,,,,,139033.000000000,1701092928.326188087,1.649999976,18.049999237,96.819999695,0.486000001,-0.486000001,-0.112999998
1701092928.338506,,,,,,,,,,,,,,,,,,,,,,,,,,,,,,,,,,,,,,,,,,,,,,,,,,,,,,,,,,,,,,,,,139034.000000000,1701092928.338449001,1.600000024,18.079999924,96.910003662,0.479999989,-0.486999989,-0.128999993
1701092928.354888,,,,,,,,,,,,,,,,,,,,,,,,,,,,,,,,,,,,,,,,,,,,,,,,,,,,,,,,,,,,,,,,,139035.000000000,1701092928.354682207,1.399999976,18.309999466,96.889999390,0.456999987,-0.492000014,-0.170000002
1701092928.371307,,,,,,,,,,,,,,,,,,,,,,,,,,,,,,,,,,,,,,,,,,,,,,,,,,,,,,,,,,,,,,,,,139036.000000000,1701092928.371123314,1.379999995,18.229999542,96.919998169,0.476000011,-0.500000000,-0.216000006
1701092928.387929,,,,,,,,,,,,,,,,,,,,,,,,,,,,,,,,,,,,,,,,,,,,,,,,,,,,,,,,,,,,,,,,,139037.000000000,1701092928.387750387,1.190000057,18.120000839,96.839996338,0.493999988,-0.486999989,-0.233999997
1701092928.404246,,,,,,,,,,,,,,,,,,,,,,,,,,,,,,,,,,,,,,,,,,,,,,,,,,,,,,,,,,,,,,,,,139038.000000000,1701092928.404153585,1.179999948,18.079999924,96.739997864,0.505999982,-0.497999996,-0.264999986
1701092928.420569,,,,,,,,,,,,,,,,,,,,,,,,,,,,,,,,,,,,,,,,,,,,,,,,,,,,,,,,,,,,,,,,,139039.000000000,1701092928.420411110,1.000000000,18.200000763,96.769996643,0.493999988,-0.490000010,-0.280999988
1701092928.436897,,,,,,,,,,,,,,,,,,,,,,,,,,,,,,,,,,,,,,,,,,,,,,,,,,,,,,,,,,,,,,,,,139040.000000000,1701092928.436663866,0.959999979,18.329999924,96.809997559,0.460999995,-0.497999996,-0.323000014
1701092928.437399,-0.699445069,0.007527950,-0.018300205,0.002218925,3.661124450,3.464728227,-5.906891207,0.030166218,-0.072326728,-0.005069261,0.000473222,-0.000330705,0.165945441,0.000681862,-0.000786542,-0.001919238,-0.000003380,1.000000000,1.000000000,-2.211324777,-0.200466083,-1.469519041,23.661124450,3.128861666,-16.535271773,34.093108793,-0.589906473,-0.959618894,-0.005069261,0.000000000,0.000000000,0.000000000,0.000000000,0.000000000,-0.015864268,0.000000000,0.000000000,0.000000000,0.000000000,0.000000000,0.000000000,0.000000000,0.000000000,0.000000000,0.000000000,0.787732840,0.000000000,0.000000000,0.000000000,0.000000000,0.000000000,0.000000000,0.000000000,0.000000000,0.000000000,32764.000000000,-0.698755503,-524315568.000000000,32764.000000000,0.000000000,0.000000000,0.007945145,0.165278094,-3.140162422,,,,,,,,
1701092928.453139,,,,,,,,,,,,,,,,,,,,,,,,,,,,,,,,,,,,,,,,,,,,,,,,,,,,,,,,,,,,,,,,,139041.000000000,1701092928.452918053,0.839999974,18.409999847,96.849998474,0.474999994,-0.512000024,-0.389999986
1701092928.469363,,,,,,,,,,,,,,,,,,,,,,,,,,,,,,,,,,,,,,,,,,,,,,,,,,,,,,,,,,,,,,,,,139042.000000000,1701092928.469182014,0.600000024,18.319999695,96.709999084,0.488000005,-0.500999987,-0.426999986
1701092928.485717,,,,,,,,,,,,,,,,,,,,,,,,,,,,,,,,,,,,,,,,,,,,,,,,,,,,,,,,,,,,,,,,,139043.000000000,1701092928.485450268,0.529999971,18.350000381,96.629997253,0.495999992,-0.513000011,-0.476000011
1701092928.496935,-0.699445069,0.007527950,-0.018306950,0.002262017,3.455124453,3.524728170,-5.933891635,0.030416217,-0.076726729,-0.069719260,0.000469102,-0.000329505,0.165945441,0.000681322,-0.000783209,-0.001912588,-0.000046480,1.000000000,1.000000000,-2.219774951,-0.197656085,-1.451769041,23.455124453,3.128861666,-16.475271830,34.066108365,-0.587406477,-0.956293896,-0.069719260,0.000000000,0.000000000,0.000000000,0.000000000,0.000000000,-0.015864268,0.000000000,0.000000000,0.000000000,0.000000000,0.000000000,0.000000000,0.000000000,0.000000000,0.000000000,0.000000000,0.787732840,0.000000000,0.000000000,0.000000000,0.000000000,0.000000000,0.000000000,0.000000000,0.000000000,0.000000000,32764.000000000,-0.698760339,-524315568.000000000,32764.000000000,0.000000000,0.000000000,0.007943588,0.165278534,-3.140159960,,,,,,,,
1701092928.501790,,,,,,,,,,,,,,,,,,,,,,,,,,,,,,,,,,,,,,,,,,,,,,,,,,,,,,,,,,,,,,,,,139044.000000000,1701092928.501718760,0.349999994,18.500000000,96.620002747,0.486999989,-0.505999982,-0.488000005
1701092928.518166,,,,,,,,,,,,,,,,,,,,,,,,,,,,,,,,,,,,,,,,,,,,,,,,,,,,,,,,,,,,,,,,,139045.000000000,1701092928.518096924,0.239999995,18.559999466,96.819999695,0.469999999,-0.513000011,-0.536000013
1701092928.530631,,,,,,,,,,,,,,,,,,,,,,,,,,,,,,,,,,,,,,,,,,,,,,,,,,,,,,,,,,,,,,,,,139046.000000000,1701092928.530456305,0.189999998,18.459999084,96.779998779,0.479000002,-0.526000023,-0.592999995
1701092928.547323,,,,,,,,,,,,,,,,,,,,,,,,,,,,,,,,,,,,,,,,,,,,,,,,,,,,,,,,,,,,,,,,,139047.000000000,1701092928.547084093,0.050000001,18.430000305,96.669998169,0.486000001,-0.521000028,-0.625999987
1701092928.563780,,,,,,,,,,,,,,,,,,,,,,,,,,,,,,,,,,,,,,,,,,,,,,,,,,,,,,,,,,,,,,,,,139048.000000000,1701092928.563675880,0.010000000,18.450000763,96.639999390,0.488999993,-0.527000010,-0.662999988
1701092928.580143,,,,,,,,,,,,,,,,,,,,,,,,,,,,,,,,,,,,,,,,,,,,,,,,,,,,,,,,,,,,,,,,,139049.000000000,1701092928.580069065,-0.100000001,18.569999695,96.639999390,0.483999997,-0.522000015,-0.667999983
1701092928.596921,,,,,,,,,,,,,,,,,,,,,,,,,,,,,,,,,,,,,,,,,,,,,,,,,,,,,,,,,,,,,,,,,139050.000000000,1701092928.596560001,-0.079999998,18.590000153,96.660003662,0.472999990,-0.528999984,-0.686999977
