__time,/plot_data/data.0,/plot_data/data.1,/plot_data/data.10,/plot_data/data.11,/plot_data/data.12,/plot_data/data.13,/plot_data/data.14,/plot_data/data.15,/plot_data/data.16,/plot_data/data.17,/plot_data/data.18,/plot_data/data.19,/plot_data/data.2,/plot_data/data.20,/plot_data/data.21,/plot_data/data.22,/plot_data/data.23,/plot_data/data.24,/plot_data/data.25,/plot_data/data.26,/plot_data/data.27,/plot_data/data.28,/plot_data/data.29,/plot_data/data.3,/plot_data/data.30,/plot_data/data.31,/plot_data/data.32,/plot_data/data.33,/plot_data/data.34,/plot_data/data.35,/plot_data/data.36,/plot_data/data.37,/plot_data/data.38,/plot_data/data.39,/plot_data/data.4,/plot_data/data.40,/plot_data/data.41,/plot_data/data.42,/plot_data/data.43,/plot_data/data.44,/plot_data/data.45,/plot_data/data.46,/plot_data/data.47,/plot_data/data.48,/plot_data/data.49,/plot_data/data.5,/plot_data/data.50,/plot_data/data.51,/plot_data/data.52,/plot_data/data.53,/plot_data/data.54,/plot_data/data.55,/plot_data/data.56,/plot_data/data.57,/plot_data/data.58,/plot_data/data.59,/plot_data/data.6,/plot_data/data.60,/plot_data/data.61,/plot_data/data.62,/plot_data/data.63,/plot_data/data.7,/plot_data/data.8,/plot_data/data.9,/robotiq_ft_wrench/header/seq,/robotiq_ft_wrench/header/stamp,/robotiq_ft_wrench/wrench/force/x,/robotiq_ft_wrench/wrench/force/y,/robotiq_ft_wrench/wrench/force/z,/robotiq_ft_wrench/wrench/torque/x,/robotiq_ft_wrench/wrench/torque/y,/robotiq_ft_wrench/wrench/torque/z
1701093136.088631,,,,,,,,,,,,,,,,,,,,,,,,,,,,,,,,,,,,,,,,,,,,,,,,,,,,,,,,,,,,,,,,,152012.000000000,1701093136.088473320,-3.039999962,15.369999886,96.889999390,0.504999995,-0.428000003,-0.250999987
1701093136.104861,,,,,,,,,,,,,,,,,,,,,,,,,,,,,,,,,,,,,,,,,,,,,,,,,,,,,,,,,,,,,,,,,152013.000000000,1701093136.104753494,-3.099999905,15.369999886,96.900001526,0.500000000,-0.425999999,-0.250999987
1701093136.121150,,,,,,,,,,,,,,,,,,,,,,,,,,,,,,,,,,,,,,,,,,,,,,,,,,,,,,,,,,,,,,,,,152014.000000000,1701093136.121077538,-3.069999933,15.340000153,96.889999390,0.500000000,-0.426999986,-0.250999987
1701093136.137436,,,,,,,,,,,,,,,,,,,,,,,,,,,,,,,,,,,,,,,,,,,,,,,,,,,,,,,,,,,,,,,,,152015.000000000,1701093136.137342691,-3.019999981,15.380000114,96.940002441,0.505999982,-0.425999999,-0.248999998
1701093136.153796,,,,,,,,,,,,,,,,,,,,,,,,,,,,,,,,,,,,,,,,,,,,,,,,,,,,,,,,,,,,,,,,,152016.000000000,1701093136.153592348,-3.049999952,15.369999886,96.930000305,0.504999995,-0.426999986,-0.250999987
1701093136.166012,,,,,,,,,,,,,,,,,,,,,,,,,,,,,,,,,,,,,,,,,,,,,,,,,,,,,,,,,,,,,,,,,152017.000000000,1701093136.165805578,-3.140000105,15.489999771,96.870002747,0.501999974,-0.425999999,-0.250999987
1701093136.182383,,,,,,,,,,,,,,,,,,,,,,,,,,,,,,,,,,,,,,,,,,,,,,,,,,,,,,,,,,,,,,,,,152018.000000000,1701093136.182170868,-3.069999933,15.420000076,96.879997253,0.504000008,-0.426999986,-0.250999987
1701093136.197214,-0.699445069,0.007527950,-0.018779173,0.002322548,-1.143375483,0.825728097,-5.889890628,0.049316218,-0.013126721,-0.162069254,0.000377132,-0.000383485,0.165945441,0.000682202,-0.000892959,-0.001440500,-0.000108046,1.000000000,1.000000000,-2.277739550,0.026891421,0.295280939,18.856624517,3.128861666,-19.174271903,34.110109372,-0.669718979,-0.720250140,-0.162069254,0.000000000,0.000000000,0.000000000,0.000000000,0.000000000,-0.015864268,0.000000000,0.000000000,0.000000000,0.000000000,0.000000000,0.000000000,0.000000000,0.000000000,0.000000000,0.000000000,0.787732840,0.000000000,0.000000000,0.000000000,0.000000000,0.000000000,0.000000000,0.000000000,0.000000000,0.000000000,32764.000000000,-0.698902506,-524315568.000000000,32764.000000000,0.000000000,0.000000000,0.008008907,0.165275002,-3.140270936,,,,,,,,
1701093136.198699,,,,,,,,,,,,,,,,,,,,,,,,,,,,,,,,,,,,,,,,,,,,,,,,,,,,,,,,,,,,,,,,,152019.000000000,1701093136.198485613,-3.099999905,15.399999619,96.879997253,0.505999982,-0.425000012,-0.248999998
1701093136.215091,,,,,,,,,,,,,,,,,,,,,,,,,,,,,,,,,,,,,,,,,,,,,,,,,,,,,,,,,,,,,,,,,152020.000000000,1701093136.214841366,-3.039999962,15.470000267,96.919998169,0.504000008,-0.426999986,-0.248999998
1701093136.231394,,,,,,,,,,,,,,,,,,,,,,,,,,,,,,,,,,,,,,,,,,,,,,,,,,,,,,,,,,,,,,,,,152021.000000000,1701093136.231171846,-3.049999952,15.470000267,96.919998169,0.500000000,-0.426999986,-0.250999987
1701093136.247601,,,,,,,,,,,,,,,,,,,,,,,,,,,,,,,,,,,,,,,,,,,,,,,,,,,,,,,,,,,,,,,,,152022.000000000,1701093136.247488976,-3.119999886,15.500000000,96.919998169,0.503000021,-0.426999986,-0.250000000
1701093136.263898,,,,,,,,,,,,,,,,,,,,,,,,,,,,,,,,,,,,,,,,,,,,,,,,,,,,,,,,,,,,,,,,,152023.000000000,1701093136.263729095,-3.059999943,15.380000114,96.949996948,0.508000016,-0.428000003,-0.250999987
1701093136.280229,,,,,,,,,,,,,,,,,,,,,,,,,,,,,,,,,,,,,,,,,,,,,,,,,,,,,,,,,,,,,,,,,152024.000000000,1701093136.280002594,-3.079999924,15.390000343,96.949996948,0.505999982,-0.425999999,-0.250999987
1701093136.296347,-0.699445069,0.007527950,-0.018778511,0.002322583,-1.135875466,0.825728193,-5.884391360,0.049416216,-0.013176722,-0.162119254,0.000377282,-0.000383485,0.165945441,0.000682312,-0.000892825,-0.001441163,-0.000108080,1.000000000,1.000000000,-2.275439841,0.026578920,0.292230933,18.864124534,3.128861666,-19.174271807,34.115608640,-0.669618976,-0.720581392,-0.162119254,0.000000000,0.000000000,0.000000000,0.000000000,0.000000000,-0.015864268,0.000000000,0.000000000,0.000000000,0.000000000,0.000000000,0.000000000,0.000000000,0.000000000,0.000000000,0.000000000,0.787732840,0.000000000,0.000000000,0.000000000,0.000000000,0.000000000,0.000000000,0.000000000,0.000000000,0.000000000,32764.000000000,-0.698902283,-524315568.000000000,32764.000000000,0.000000000,0.000000000,0.008008894,0.165274896,-3.140270803,,,,,,,,
1701093136.296462,,,,,,,,,,,,,,,,,,,,,,,,,,,,,,,,,,,,,,,,,,,,,,,,,,,,,,,,,,,,,,,,,152025.000000000,1701093136.296379566,-3.039999962,15.430000305,96.930000305,0.500999987,-0.428999990,-0.250000000
1701093136.312851,,,,,,,,,,,,,,,,,,,,,,,,,,,,,,,,,,,,,,,,,,,,,,,,,,,,,,,,,,,,,,,,,152026.000000000,1701093136.312669992,-3.059999943,15.409999847,96.919998169,0.501999974,-0.426999986,-0.250000000
1701093136.329181,,,,,,,,,,,,,,,,,,,,,,,,,,,,,,,,,,,,,,,,,,,,,,,,,,,,,,,,,,,,,,,,,152027.000000000,1701093136.328938007,-3.079999924,15.449999809,96.889999390,0.508000016,-0.426999986,-0.250999987
1701093136.345653,,,,,,,,,,,,,,,,,,,,,,,,,,,,,,,,,,,,,,,,,,,,,,,,,,,,,,,,,,,,,,,,,152028.000000000,1701093136.345376730,-3.039999962,15.409999847,96.879997253,0.503000021,-0.425000012,-0.250999987
1701093136.361755,,,,,,,,,,,,,,,,,,,,,,,,,,,,,,,,,,,,,,,,,,,,,,,,,,,,,,,,,,,,,,,,,152029.000000000,1701093136.361662865,-3.009999990,15.380000114,96.900001526,0.500000000,-0.428999990,-0.250999987
1701093136.373931,,,,,,,,,,,,,,,,,,,,,,,,,,,,,,,,,,,,,,,,,,,,,,,,,,,,,,,,,,,,,,,,,152030.000000000,1701093136.373841286,-3.059999943,15.300000191,96.949996948,0.501999974,-0.426999986,-0.252000004
1701093136.390267,,,,,,,,,,,,,,,,,,,,,,,,,,,,,,,,,,,,,,,,,,,,,,,,,,,,,,,,,,,,,,,,,152031.000000000,1701093136.390099287,-3.039999962,15.369999886,96.930000305,0.504999995,-0.428999990,-0.250999987
1701093136.397115,-0.699445069,0.007527950,-0.018777411,0.002322585,-1.127875474,0.825228181,-5.871391635,0.049716216,-0.013426721,-0.162119253,0.000377442,-0.000383495,0.165945441,0.000682572,-0.000892450,-0.001442263,-0.000108080,1.000000000,1.000000000,-2.269957452,0.026048920,0.289030937,18.872124526,3.128861666,-19.174771819,34.128608365,-0.669337728,-0.721131391,-0.162119253,0.000000000,0.000000000,0.000000000,0.000000000,0.000000000,-0.015864268,0.000000000,0.000000000,0.000000000,0.000000000,0.000000000,0.000000000,0.000000000,0.000000000,0.000000000,0.000000000,0.787732840,0.000000000,0.000000000,0.000000000,0.000000000,0.000000000,0.000000000,0.000000000,0.000000000,0.000000000,32764.000000000,-0.698902001,-524315568.000000000,32764.000000000,0.000000000,0.000000000,0.008008865,0.165274642,-3.140270428,,,,,,,,
1701093136.406600,,,,,,,,,,,,,,,,,,,,,,,,,,,,,,,,,,,,,,,,,,,,,,,,,,,,,,,,,,,,,,,,,152032.000000000,1701093136.406368732,-3.029999971,15.470000267,96.870002747,0.504000008,-0.426999986,-0.248999998
1701093136.422813,,,,,,,,,,,,,,,,,,,,,,,,,,,,,,,,,,,,,,,,,,,,,,,,,,,,,,,,,,,,,,,,,152033.000000000,1701093136.422709703,-3.019999981,15.439999580,96.949996948,0.501999974,-0.428000003,-0.250999987
1701093136.439044,,,,,,,,,,,,,,,,,,,,,,,,,,,,,,,,,,,,,,,,,,,,,,,,,,,,,,,,,,,,,,,,,152034.000000000,1701093136.438951492,-3.039999962,15.420000076,96.919998169,0.503000021,-0.428000003,-0.252999991
1701093136.455365,,,,,,,,,,,,,,,,,,,,,,,,,,,,,,,,,,,,,,,,,,,,,,,,,,,,,,,,,,,,,,,,,152035.000000000,1701093136.455205441,-3.029999971,15.439999580,96.919998169,0.505999982,-0.426999986,-0.247999996
1701093136.471833,,,,,,,,,,,,,,,,,,,,,,,,,,,,,,,,,,,,,,,,,,,,,,,,,,,,,,,,,,,,,,,,,152036.000000000,1701093136.471482515,-3.009999990,15.449999809,96.919998169,0.505999982,-0.428000003,-0.248999998
1701093136.487896,,,,,,,,,,,,,,,,,,,,,,,,,,,,,,,,,,,,,,,,,,,,,,,,,,,,,,,,,,,,,,,,,152037.000000000,1701093136.487785339,-3.079999924,15.529999733,96.870002747,0.504000008,-0.425999999,-0.250999987
1701093136.496465,-0.699445069,0.007527950,-0.018776223,0.002322488,-1.117375472,0.846728149,-5.869892077,0.050066217,-0.013626722,-0.161969254,0.000377652,-0.000383065,0.165945441,0.000682602,-0.000890909,-0.001443450,-0.000107980,1.000000000,1.000000000,-2.268255129,0.025481420,0.284980935,18.882624528,3.128861666,-19.153271851,34.130107923,-0.668181477,-0.721725142,-0.161969254,0.000000000,0.000000000,0.000000000,0.000000000,0.000000000,-0.015864268,0.000000000,0.000000000,0.000000000,0.000000000,0.000000000,0.000000000,0.000000000,0.000000000,0.000000000,0.000000000,0.787732840,0.000000000,0.000000000,0.000000000,0.000000000,0.000000000,0.000000000,0.000000000,0.000000000,0.000000000,32764.000000000,-0.698901663,-524315568.000000000,32764.000000000,0.000000000,0.000000000,0.008008272,0.165274617,-3.140268884,,,,,,,,
1701093136.504242,,,,,,,,,,,,,,,,,,,,,,,,,,,,,,,,,,,,,,,,,,,,,,,,,,,,,,,,,,,,,,,,,152038.000000000,1701093136.504069567,-3.000000000,15.420000076,96.910003662,0.504000008,-0.430000007,-0.250999987
1701093136.520552,,,,,,,,,,,,,,,,,,,,,,,,,,,,,,,,,,,,,,,,,,,,,,,,,,,,,,,,,,,,,,,,,152039.000000000,1701093136.520384312,-3.039999962,15.390000343,96.889999390,0.504999995,-0.428000003,-0.250999987
1701093136.536732,,,,,,,,,,,,,,,,,,,,,,,,,,,,,,,,,,,,,,,,,,,,,,,,,,,,,,,,,,,,,,,,,152040.000000000,1701093136.536700487,-3.049999952,15.420000076,96.910003662,0.503000021,-0.428000003,-0.248999998
1701093136.553147,,,,,,,,,,,,,,,,,,,,,,,,,,,,,,,,,,,,,,,,,,,,,,,,,,,,,,,,,,,,,,,,,152041.000000000,1701093136.552945137,-3.059999943,15.420000076,96.919998169,0.501999974,-0.426999986,-0.250000000
1701093136.569752,,,,,,,,,,,,,,,,,,,,,,,,,,,,,,,,,,,,,,,,,,,,,,,,,,,,,,,,,,,,,,,,,152042.000000000,1701093136.569498062,-3.039999962,15.430000305,96.879997253,0.503000021,-0.426999986,-0.252000004
1701093136.586131,,,,,,,,,,,,,,,,,,,,,,,,,,,,,,,,,,,,,,,,,,,,,,,,,,,,,,,,,,,,,,,,,152043.000000000,1701093136.585914373,-3.000000000,15.430000305,96.860000610,0.505999982,-0.428999990,-0.250000000
1701093136.596266,-0.699445069,0.007527950,-0.018774486,0.002322558,-1.104875484,0.840228191,-5.874891238,0.049966215,-0.014026723,-0.162069255,0.000377902,-0.000383195,0.165945441,0.000682502,-0.000891367,-0.001445188,-0.000108046,1.000000000,1.000000000,-2.270582293,0.024643919,0.279880938,18.895124516,3.128861666,-19.159771809,34.125108762,-0.668525227,-0.722593892,-0.162069255,0.000000000,0.000000000,0.000000000,0.000000000,0.000000000,-0.015864268,0.000000000,0.000000000,0.000000000,0.000000000,0.000000000,0.000000000,0.000000000,0.000000000,0.000000000,0.000000000,0.787732840,0.000000000,0.000000000,0.000000000,0.000000000,0.000000000,0.000000000,0.000000000,0.000000000,0.000000000,32764.000000000,-0.698901232,-524315568.000000000,32764.000000000,0.000000000,0.000000000,0.008008452,0.165274726,-3.140269344,,,,,,,,
1701093136.598312,,,,,,,,,,,,,,,,,,,,,,,,,,,,,,,,,,,,,,,,,,,,,,,,,,,,,,,,,,,,,,,,,152044.000000000,1701093136.598151684,-2.990000010,15.420000076,96.870002747,0.504999995,-0.428999990,-0.250000000
1701093136.614660,,,,,,,,,,,,,,,,,,,,,,,,,,,,,,,,,,,,,,,,,,,,,,,,,,,,,,,,,,,,,,,,,152045.000000000,1701093136.614437103,-3.000000000,15.369999886,96.910003662,0.501999974,-0.428999990,-0.252000004
1701093136.630920,,,,,,,,,,,,,,,,,,,,,,,,,,,,,,,,,,,,,,,,,,,,,,,,,,,,,,,,,,,,,,,,,152046.000000000,1701093136.630713224,-3.009999990,15.359999657,96.930000305,0.501999974,-0.428000003,-0.250999987
1701093136.647243,,,,,,,,,,,,,,,,,,,,,,,,,,,,,,,,,,,,,,,,,,,,,,,,,,,,,,,,,,,,,,,,,152047.000000000,1701093136.647098064,-3.049999952,15.390000343,96.959999084,0.504999995,-0.426999986,-0.250000000
1701093136.663477,,,,,,,,,,,,,,,,,,,,,,,,,,,,,,,,,,,,,,,,,,,,,,,,,,,,,,,,,,,,,,,,,152048.000000000,1701093136.663360834,-3.059999943,15.460000038,96.900001526,0.504999995,-0.426999986,-0.248999998
1701093136.679840,,,,,,,,,,,,,,,,,,,,,,,,,,,,,,,,,,,,,,,,,,,,,,,,,,,,,,,,,,,,,,,,,152049.000000000,1701093136.679616213,-3.069999933,15.439999580,96.900001526,0.503000021,-0.426999986,-0.250000000
1701093136.696103,,,,,,,,,,,,,,,,,,,,,,,,,,,,,,,,,,,,,,,,,,,,,,,,,,,,,,,,,,,,,,,,,152050.000000000,1701093136.695962429,-3.069999933,15.439999580,96.889999390,0.501999974,-0.428000003,-0.250999987
1701093136.696121,-0.699445069,0.007527950,-0.018773598,0.002322494,-1.098375490,0.838728156,-5.874890475,0.050066214,-0.014226722,-0.161969257,0.000378032,-0.000383225,0.165945441,0.000682502,-0.000891309,-0.001446075,-0.000107980,1.000000000,1.000000000,-2.270534490,0.024216421,0.277380939,18.901624510,3.128861666,-19.161271844,34.125109525,-0.668481480,-0.723037641,-0.161969257,0.000000000,0.000000000,0.000000000,0.000000000,0.000000000,-0.015864268,0.000000000,0.000000000,0.000000000,0.000000000,0.000000000,0.000000000,0.000000000,0.000000000,0.000000000,0.000000000,0.787732840,0.000000000,0.000000000,0.000000000,0.000000000,0.000000000,0.000000000,0.000000000,0.000000000,0.000000000,32764.000000000,-0.698901007,-524315568.000000000,32764.000000000,0.000000000,0.000000000,0.008008476,0.165274730,-3.140269285,,,,,,,,
1701093136.712478,,,,,,,,,,,,,,,,,,,,,,,,,,,,,,,,,,,,,,,,,,,,,,,,,,,,,,,,,,,,,,,,,152051.000000000,1701093136.712233067,-3.089999914,15.449999809,96.889999390,0.503000021,-0.426999986,-0.248999998
1701093136.728692,,,,,,,,,,,,,,,,,,,,,,,,,,,,,,,,,,,,,,,,,,,,,,,,,,,,,,,,,,,,,,,,,152052.000000000,1701093136.728478670,-3.029999971,15.329999924,96.940002441,0.504999995,-0.428000003,-0.250999987
1701093136.745062,,,,,,,,,,,,,,,,,,,,,,,,,,,,,,,,,,,,,,,,,,,,,,,,,,,,,,,,,,,,,,,,,152053.000000000,1701093136.744838715,-3.049999952,15.369999886,96.900001526,0.500999987,-0.425999999,-0.250000000
1701093136.761232,,,,,,,,,,,,,,,,,,,,,,,,,,,,,,,,,,,,,,,,,,,,,,,,,,,,,,,,,,,,,,,,,152054.000000000,1701093136.761153936,-3.029999971,15.430000305,96.879997253,0.499000013,-0.428000003,-0.252000004
1701093136.777623,,,,,,,,,,,,,,,,,,,,,,,,,,,,,,,,,,,,,,,,,,,,,,,,,,,,,,,,,,,,,,,,,152055.000000000,1701093136.777412415,-3.039999962,15.449999809,96.910003662,0.504999995,-0.425999999,-0.248999998
1701093136.794037,,,,,,,,,,,,,,,,,,,,,,,,,,,,,,,,,,,,,,,,,,,,,,,,,,,,,,,,,,,,,,,,,152056.000000000,1701093136.793753624,-3.029999971,15.399999619,96.940002441,0.505999982,-0.426999986,-0.250999987
1701093136.796642,-0.699445069,0.007527950,-0.018774411,0.002322492,-1.103875485,0.837728133,-5.880389743,0.049716216,-0.014026723,-0.161969257,0.000377922,-0.000383245,0.165945441,0.000682392,-0.000891825,-0.001445263,-0.000107980,1.000000000,1.000000000,-2.273119197,0.024608919,0.279580937,18.896124515,3.128861666,-19.162271867,34.119610257,-0.668868979,-0.722631392,-0.161969257,0.000000000,0.000000000,0.000000000,0.000000000,0.000000000,-0.015864268,0.000000000,0.000000000,0.000000000,0.000000000,0.000000000,0.000000000,0.000000000,0.000000000,0.000000000,0.000000000,0.787732840,0.000000000,0.000000000,0.000000000,0.000000000,0.000000000,0.000000000,0.000000000,0.000000000,0.000000000,32764.000000000,-0.698901206,-524315568.000000000,32764.000000000,0.000000000,0.000000000,0.008008550,0.165274837,-3.140269801,,,,,,,,
1701093136.806221,,,,,,,,,,,,,,,,,,,,,,,,,,,,,,,,,,,,,,,,,,,,,,,,,,,,,,,,,,,,,,,,,152057.000000000,1701093136.805978060,-3.079999924,15.420000076,96.889999390,0.501999974,-0.425000012,-0.250000000
1701093136.822558,,,,,,,,,,,,,,,,,,,,,,,,,,,,,,,,,,,,,,,,,,,,,,,,,,,,,,,,,,,,,,,,,152058.000000000,1701093136.822246313,-3.019999981,15.399999619,96.819999695,0.500000000,-0.428999990,-0.250000000
1701093136.838822,,,,,,,,,,,,,,,,,,,,,,,,,,,,,,,,,,,,,,,,,,,,,,,,,,,,,,,,,,,,,,,,,152059.000000000,1701093136.838510036,-3.069999933,15.380000114,96.819999695,0.504000008,-0.425000012,-0.250000000
1701093136.855169,,,,,,,,,,,,,,,,,,,,,,,,,,,,,,,,,,,,,,,,,,,,,,,,,,,,,,,,,,,,,,,,,152060.000000000,1701093136.854875803,-3.069999933,15.399999619,96.879997253,0.504999995,-0.426999986,-0.247999996
1701093136.871289,,,,,,,,,,,,,,,,,,,,,,,,,,,,,,,,,,,,,,,,,,,,,,,,,,,,,,,,,,,,,,,,,152061.000000000,1701093136.871162176,-3.069999933,15.390000343,96.919998169,0.503000021,-0.425999999,-0.250999987
1701093136.887617,,,,,,,,,,,,,,,,,,,,,,,,,,,,,,,,,,,,,,,,,,,,,,,,,,,,,,,,,,,,,,,,,152062.000000000,1701093136.887446404,-3.029999971,15.380000114,96.919998169,0.499000013,-0.426999986,-0.247999996
1701093136.897605,-0.699445069,0.007527950,-0.018775373,0.002322256,-1.107375482,0.825728097,-5.886890368,0.049316215,-0.013676723,-0.161619258,0.000377852,-0.000383485,0.165945441,0.000682262,-0.000892959,-0.001444300,-0.000107746,1.000000000,1.000000000,-2.276539449,0.025081419,0.281330935,18.892624518,3.128861666,-19.174271903,34.113109632,-0.669718982,-0.722150142,-0.161619258,0.000000000,0.000000000,0.000000000,0.000000000,0.000000000,-0.015864268,0.000000000,0.000000000,0.000000000,0.000000000,0.000000000,0.000000000,0.000000000,0.000000000,0.000000000,0.000000000,0.787732840,0.000000000,0.000000000,0.000000000,0.000000000,0.000000000,0.000000000,0.000000000,0.000000000,0.000000000,32764.000000000,-0.698901382,-524315568.000000000,32764.000000000,0.000000000,0.000000000,0.008008910,0.165274964,-3.140270930,,,,,,,,
1701093136.903881,,,,,,,,,,,,,,,,,,,,,,,,,,,,,,,,,,,,,,,,,,,,,,,,,,,,,,,,,,,,,,,,,152063.000000000,1701093136.903733015,-3.049999952,15.380000114,96.900001526,0.505999982,-0.428000003,-0.250000000
1701093136.920073,,,,,,,,,,,,,,,,,,,,,,,,,,,,,,,,,,,,,,,,,,,,,,,,,,,,,,,,,,,,,,,,,152064.000000000,1701093136.920004368,-3.089999914,15.350000381,96.900001526,0.504999995,-0.426999986,-0.250999987
1701093136.936328,,,,,,,,,,,,,,,,,,,,,,,,,,,,,,,,,,,,,,,,,,,,,,,,,,,,,,,,,,,,,,,,,152065.000000000,1701093136.936245918,-3.029999971,15.409999847,96.919998169,0.500999987,-0.428999990,-0.250999987
1701093136.952683,,,,,,,,,,,,,,,,,,,,,,,,,,,,,,,,,,,,,,,,,,,,,,,,,,,,,,,,,,,,,,,,,152066.000000000,1701093136.952561617,-3.059999943,15.420000076,96.940002441,0.500000000,-0.426999986,-0.250999987
1701093136.969150,,,,,,,,,,,,,,,,,,,,,,,,,,,,,,,,,,,,,,,,,,,,,,,,,,,,,,,,,,,,,,,,,152067.000000000,1701093136.968972445,-3.069999933,15.369999886,96.910003662,0.504999995,-0.426999986,-0.247999996
1701093136.985486,,,,,,,,,,,,,,,,,,,,,,,,,,,,,,,,,,,,,,,,,,,,,,,,,,,,,,,,,,,,,,,,,152068.000000000,1701093136.985391617,-3.170000076,15.439999580,96.910003662,0.504999995,-0.423000008,-0.248999998
1701093137.002030,,,,,,,,,,,,,,,,,,,,,,,,,,,,,,,,,,,,,,,,,,,,,,,,,,,,,,,,,,,,,,,,,152069.000000000,1701093137.001891851,-3.069999933,15.500000000,96.930000305,0.504000008,-0.425999999,-0.247999996
1701093137.004804,-0.699445069,0.007527950,-0.018777622,0.002322118,-1.125375476,0.825728097,-5.882890277,0.049216216,-0.013226724,-0.161419256,0.000377492,-0.000383485,0.165945441,0.000682342,-0.000893092,-0.001442050,-0.000107613,1.000000000,1.000000000,-2.275039411,0.026161418,0.288730934,18.874624524,3.128861666,-19.174271903,34.117109723,-0.669818980,-0.721025144,-0.161419256,0.000000000,0.000000000,0.000000000,0.000000000,0.000000000,-0.015864268,0.000000000,0.000000000,0.000000000,0.000000000,0.000000000,0.000000000,0.000000000,0.000000000,0.000000000,0.000000000,0.787732840,0.000000000,0.000000000,0.000000000,0.000000000,0.000000000,0.000000000,0.000000000,0.000000000,0.000000000,32764.000000000,-0.698901979,-524315568.000000000,32764.000000000,0.000000000,0.000000000,0.008008923,0.165274872,-3.140271060,,,,,,,,
1701093137.014457,,,,,,,,,,,,,,,,,,,,,,,,,,,,,,,,,,,,,,,,,,,,,,,,,,,,,,,,,,,,,,,,,152070.000000000,1701093137.014322758,-3.099999905,15.329999924,96.919998169,0.500999987,-0.423999995,-0.252000004
1701093137.030746,,,,,,,,,,,,,,,,,,,,,,,,,,,,,,,,,,,,,,,,,,,,,,,,,,,,,,,,,,,,,,,,,152071.000000000,1701093137.030688524,-3.119999886,15.399999619,96.889999390,0.505999982,-0.425999999,-0.250999987
1701093137.047070,,,,,,,,,,,,,,,,,,,,,,,,,,,,,,,,,,,,,,,,,,,,,,,,,,,,,,,,,,,,,,,,,152072.000000000,1701093137.047001123,-3.099999905,15.449999809,96.910003662,0.507000029,-0.425999999,-0.250000000
1701093137.063520,,,,,,,,,,,,,,,,,,,,,,,,,,,,,,,,,,,,,,,,,,,,,,,,,,,,,,,,,,,,,,,,,152073.000000000,1701093137.063283682,-3.039999962,15.470000267,96.940002441,0.501999974,-0.426999986,-0.248999998
1701093137.079972,,,,,,,,,,,,,,,,,,,,,,,,,,,,,,,,,,,,,,,,,,,,,,,,,,,,,,,,,,,,,,,,,152074.000000000,1701093137.079745531,-3.079999924,15.430000305,96.900001526,0.503000021,-0.425000012,-0.252000004
1701093137.095892,-0.699445069,0.007527950,-0.018779160,0.002322148,-1.133875468,0.828728118,-5.879890017,0.049666216,-0.012776724,-0.161469257,0.000377322,-0.000383425,0.165945441,0.000682402,-0.000892342,-0.001440513,-0.000107646,1.000000000,1.000000000,-2.273284307,0.026908918,0.292080930,18.866124532,3.128861666,-19.171271882,34.120109983,-0.669256479,-0.720256394,-0.161469257,0.000000000,0.000000000,0.000000000,0.000000000,0.000000000,-0.015864268,0.000000000,0.000000000,0.000000000,0.000000000,0.000000000,0.000000000,0.000000000,0.000000000,0.000000000,0.000000000,0.787732840,0.000000000,0.000000000,0.000000000,0.000000000,0.000000000,0.000000000,0.000000000,0.000000000,0.000000000,32764.000000000,-0.698902310,-524315568.000000000,32764.000000000,0.000000000,0.000000000,0.008008782,0.165274806,-3.140270311,,,,,,,,
1701093137.096179,,,,,,,,,,,,,,,,,,,,,,,,,,,,,,,,,,,,,,,,,,,,,,,,,,,,,,,,,,,,,,,,,152075.000000000,1701093137.096123934,-3.039999962,15.359999657,96.879997253,0.507000029,-0.426999986,-0.250999987
1701093137.112524,,,,,,,,,,,,,,,,,,,,,,,,,,,,,,,,,,,,,,,,,,,,,,,,,,,,,,,,,,,,,,,,,152076.000000000,1701093137.112402201,-3.019999981,15.329999924,96.879997253,0.504000008,-0.426999986,-0.250999987
1701093137.128890,,,,,,,,,,,,,,,,,,,,,,,,,,,,,,,,,,,,,,,,,,,,,,,,,,,,,,,,,,,,,,,,,152077.000000000,1701093137.128755331,-3.059999943,15.430000305,96.879997253,0.501999974,-0.428000003,-0.247999996
1701093137.145123,,,,,,,,,,,,,,,,,,,,,,,,,,,,,,,,,,,,,,,,,,,,,,,,,,,,,,,,,,,,,,,,,152078.000000000,1701093137.145079851,-3.069999933,15.420000076,96.930000305,0.505999982,-0.426999986,-0.250999987
1701093137.161503,,,,,,,,,,,,,,,,,,,,,,,,,,,,,,,,,,,,,,,,,,,,,,,,,,,,,,,,,,,,,,,,,152079.000000000,1701093137.161414862,-3.039999962,15.439999580,96.959999084,0.507000029,-0.426999986,-0.252000004
1701093137.178007,,,,,,,,,,,,,,,,,,,,,,,,,,,,,,,,,,,,,,,,,,,,,,,,,,,,,,,,,,,,,,,,,152080.000000000,1701093137.177896261,-2.980000019,15.430000305,96.900001526,0.501999974,-0.428999990,-0.250000000
1701093137.190495,,,,,,,,,,,,,,,,,,,,,,,,,,,,,,,,,,,,,,,,,,,,,,,,,,,,,,,,,,,,,,,,,152081.000000000,1701093137.190361977,-3.009999990,15.409999847,96.889999390,0.500999987,-0.428000003,-0.248999998
1701093137.197504,-0.699445069,0.007527950,-0.018777760,0.002322251,-1.125875476,0.827728143,-5.872890429,0.049866217,-0.013176722,-0.161619257,0.000377482,-0.000383445,0.165945441,0.000682542,-0.000892125,-0.001441913,-0.000107746,1.000000000,1.000000000,-2.270319470,0.026228920,0.288730934,18.874124524,3.128861666,-19.172271857,34.127109571,-0.669093978,-0.720956391,-0.161619257,0.000000000,0.000000000,0.000000000,0.000000000,0.000000000,-0.015864268,0.000000000,0.000000000,0.000000000,0.000000000,0.000000000,0.000000000,0.000000000,0.000000000,0.000000000,0.000000000,0.787732840,0.000000000,0.000000000,0.000000000,0.000000000,0.000000000,0.000000000,0.000000000,0.000000000,0.000000000,32764.000000000,-0.698901999,-524315568.000000000,32764.000000000,0.000000000,0.000000000,0.008008781,0.165274672,-3.140270096,,,,,,,,
1701093137.206804,,,,,,,,,,,,,,,,,,,,,,,,,,,,,,,,,,,,,,,,,,,,,,,,,,,,,,,,,,,,,,,,,152082.000000000,1701093137.206726551,-3.099999905,15.359999657,96.919998169,0.504000008,-0.428000003,-0.247999996
1701093137.223537,,,,,,,,,,,,,,,,,,,,,,,,,,,,,,,,,,,,,,,,,,,,,,,,,,,,,,,,,,,,,,,,,152083.000000000,1701093137.223248005,-3.140000105,15.390000343,96.879997253,0.501999974,-0.423999995,-0.252000004
1701093137.240068,,,,,,,,,,,,,,,,,,,,,,,,,,,,,,,,,,,,,,,,,,,,,,,,,,,,,,,,,,,,,,,,,152084.000000000,1701093137.239841938,-3.089999914,15.430000305,96.879997253,0.500999987,-0.425999999,-0.248999998
1701093137.256301,,,,,,,,,,,,,,,,,,,,,,,,,,,,,,,,,,,,,,,,,,,,,,,,,,,,,,,,,,,,,,,,,152085.000000000,1701093137.256183863,-3.069999933,15.500000000,96.919998169,0.505999982,-0.425999999,-0.250999987
1701093137.272834,,,,,,,,,,,,,,,,,,,,,,,,,,,,,,,,,,,,,,,,,,,,,,,,,,,,,,,,,,,,,,,,,152086.000000000,1701093137.272574425,-3.019999981,15.439999580,96.889999390,0.507000029,-0.428999990,-0.250999987
1701093137.289293,,,,,,,,,,,,,,,,,,,,,,,,,,,,,,,,,,,,,,,,,,,,,,,,,,,,,,,,,,,,,,,,,152087.000000000,1701093137.289047241,-3.119999886,15.439999580,96.839996338,0.504999995,-0.423999995,-0.250999987
1701093137.298060,-0.699445069,0.007527950,-0.018779348,0.002322347,-1.136375478,0.840228095,-5.880891375,0.050316217,-0.012776724,-0.161769257,0.000377272,-0.000383195,0.165945441,0.000682382,-0.000890900,-0.001440325,-0.000107846,1.000000000,1.000000000,-2.272632350,0.026996418,0.292780934,18.863624522,3.128861666,-19.159771905,34.119108625,-0.668175230,-0.720162643,-0.161769257,0.000000000,0.000000000,0.000000000,0.000000000,0.000000000,-0.015864268,0.000000000,0.000000000,0.000000000,0.000000000,0.000000000,0.000000000,0.000000000,0.000000000,0.000000000,0.000000000,0.787732840,0.000000000,0.000000000,0.000000000,0.000000000,0.000000000,0.000000000,0.000000000,0.000000000,0.000000000,32764.000000000,-0.698902380,-524315568.000000000,32764.000000000,0.000000000,0.000000000,0.008008399,0.165274823,-3.140268873,,,,,,,,
1701093137.305665,,,,,,,,,,,,,,,,,,,,,,,,,,,,,,,,,,,,,,,,,,,,,,,,,,,,,,,,,,,,,,,,,152088.000000000,1701093137.305482864,-3.069999933,15.500000000,96.919998169,0.501999974,-0.425000012,-0.250000000
1701093137.322058,,,,,,,,,,,,,,,,,,,,,,,,,,,,,,,,,,,,,,,,,,,,,,,,,,,,,,,,,,,,,,,,,152089.000000000,1701093137.321931601,-3.140000105,15.430000305,96.930000305,0.503000021,-0.421999991,-0.250000000
1701093137.334595,,,,,,,,,,,,,,,,,,,,,,,,,,,,,,,,,,,,,,,,,,,,,,,,,,,,,,,,,,,,,,,,,152090.000000000,1701093137.334416151,-3.029999971,15.390000343,96.889999390,0.507000029,-0.428999990,-0.250999987
1701093137.351238,,,,,,,,,,,,,,,,,,,,,,,,,,,,,,,,,,,,,,,,,,,,,,,,,,,,,,,,,,,,,,,,,152091.000000000,1701093137.350993395,-3.130000114,15.479999542,96.879997253,0.504999995,-0.425000012,-0.250999987
1701093137.367518,,,,,,,,,,,,,,,,,,,,,,,,,,,,,,,,,,,,,,,,,,,,,,,,,,,,,,,,,,,,,,,,,152092.000000000,1701093137.367403984,-3.099999905,15.399999619,96.849998474,0.499000013,-0.426999986,-0.248999998
1701093137.383932,,,,,,,,,,,,,,,,,,,,,,,,,,,,,,,,,,,,,,,,,,,,,,,,,,,,,,,,,,,,,,,,,152093.000000000,1701093137.383700371,-3.049999952,15.359999657,96.919998169,0.505999982,-0.428000003,-0.248999998
1701093137.397439,-0.699445069,0.007527950,-0.018778648,0.002322382,-1.132375494,0.838728109,-5.886392169,0.050166219,-0.012976724,-0.161819256,0.000377352,-0.000383225,0.165945441,0.000682272,-0.000891175,-0.001441025,-0.000107880,1.000000000,1.000000000,-2.275035165,0.026656418,0.291130941,18.867624506,3.128861666,-19.161271891,34.113607831,-0.668381477,-0.720512643,-0.161819256,0.000000000,0.000000000,0.000000000,0.000000000,0.000000000,-0.015864268,0.000000000,0.000000000,0.000000000,0.000000000,0.000000000,0.000000000,0.000000000,0.000000000,0.000000000,0.000000000,0.787732840,0.000000000,0.000000000,0.000000000,0.000000000,0.000000000,0.000000000,0.000000000,0.000000000,0.000000000,32764.000000000,-0.698902228,-524315568.000000000,32764.000000000,0.000000000,0.000000000,0.008008459,0.165274937,-3.140269149,,,,,,,,
1701093137.400268,,,,,,,,,,,,,,,,,,,,,,,,,,,,,,,,,,,,,,,,,,,,,,,,,,,,,,,,,,,,,,,,,152094.000000000,1701093137.400038958,-3.049999952,15.369999886,96.879997253,0.507000029,-0.426999986,-0.250999987
1701093137.416602,,,,,,,,,,,,,,,,,,,,,,,,,,,,,,,,,,,,,,,,,,,,,,,,,,,,,,,,,,,,,,,,,152095.000000000,1701093137.416388035,-3.000000000,15.390000343,96.870002747,0.500000000,-0.430000007,-0.250999987
1701093137.432807,,,,,,,,,,,,,,,,,,,,,,,,,,,,,,,,,,,,,,,,,,,,,,,,,,,,,,,,,,,,,,,,,152096.000000000,1701093137.432674646,-2.990000010,15.399999619,96.870002747,0.500000000,-0.430000007,-0.250999987
1701093137.449129,,,,,,,,,,,,,,,,,,,,,,,,,,,,,,,,,,,,,,,,,,,,,,,,,,,,,,,,,,,,,,,,,152097.000000000,1701093137.448935747,-3.039999962,15.489999771,96.870002747,0.508000016,-0.428000003,-0.250000000
1701093137.465506,,,,,,,,,,,,,,,,,,,,,,,,,,,,,,,,,,,,,,,,,,,,,,,,,,,,,,,,,,,,,,,,,152098.000000000,1701093137.465276480,-3.099999905,15.380000114,96.919998169,0.504999995,-0.423999995,-0.250999987
1701093137.481851,,,,,,,,,,,,,,,,,,,,,,,,,,,,,,,,,,,,,,,,,,,,,,,,,,,,,,,,,,,,,,,,,152099.000000000,1701093137.481687307,-3.049999952,15.409999847,96.900001526,0.500999987,-0.428000003,-0.250999987
1701093137.496681,-0.699445069,0.007527950,-0.018777748,0.002322384,-1.128375497,0.840228095,-5.892391543,0.049766218,-0.013276726,-0.161819255,0.000377432,-0.000383195,0.165945441,0.000682152,-0.000891634,-0.001441925,-0.000107880,1.000000000,1.000000000,-2.277782416,0.026216416,0.289530944,18.871624503,3.128861666,-19.159771905,34.107608457,-0.668725229,-0.720962645,-0.161819255,0.000000000,0.000000000,0.000000000,0.000000000,0.000000000,-0.015864268,0.000000000,0.000000000,0.000000000,0.000000000,0.000000000,0.000000000,0.000000000,0.000000000,0.000000000,0.000000000,0.787732840,0.000000000,0.000000000,0.000000000,0.000000000,0.000000000,0.000000000,0.000000000,0.000000000,0.000000000,32764.000000000,-0.698902055,-524315568.000000000,32764.000000000,0.000000000,0.000000000,0.008008477,0.165275060,-3.140269607,,,,,,,,
1701093137.498419,,,,,,,,,,,,,,,,,,,,,,,,,,,,,,,,,,,,,,,,,,,,,,,,,,,,,,,,,,,,,,,,,152100.000000000,1701093137.498192072,-3.119999886,15.449999809,96.879997253,0.503000021,-0.423000008,-0.250000000
1701093137.510576,,,,,,,,,,,,,,,,,,,,,,,,,,,,,,,,,,,,,,,,,,,,,,,,,,,,,,,,,,,,,,,,,152101.000000000,1701093137.510451794,-3.049999952,15.399999619,96.919998169,0.507000029,-0.428000003,-0.250999987
1701093137.527063,,,,,,,,,,,,,,,,,,,,,,,,,,,,,,,,,,,,,,,,,,,,,,,,,,,,,,,,,,,,,,,,,152102.000000000,1701093137.526771545,-3.109999895,15.380000114,96.949996948,0.504000008,-0.423000008,-0.250999987
1701093137.543369,,,,,,,,,,,,,,,,,,,,,,,,,,,,,,,,,,,,,,,,,,,,,,,,,,,,,,,,,,,,,,,,,152103.000000000,1701093137.543153286,-3.019999981,15.489999771,96.900001526,0.499000013,-0.428999990,-0.246999994
1701093137.559848,,,,,,,,,,,,,,,,,,,,,,,,,,,,,,,,,,,,,,,,,,,,,,,,,,,,,,,,,,,,,,,,,152104.000000000,1701093137.559653044,-3.099999905,15.430000305,96.879997253,0.500999987,-0.423999995,-0.247999996
1701093137.576571,,,,,,,,,,,,,,,,,,,,,,,,,,,,,,,,,,,,,,,,,,,,,,,,,,,,,,,,,,,,,,,,,152105.000000000,1701093137.576278448,-3.009999990,15.319999695,96.870002747,0.509000003,-0.428999990,-0.250000000
1701093137.592776,,,,,,,,,,,,,,,,,,,,,,,,,,,,,,,,,,,,,,,,,,,,,,,,,,,,,,,,,,,,,,,,,152106.000000000,1701093137.592616796,-3.069999933,15.340000153,96.889999390,0.504999995,-0.423000008,-0.250000000
1701093137.596853,-0.699445069,0.007527950,-0.018779110,0.002322281,-1.131875482,0.832728067,-5.891891436,0.050016224,-0.012726727,-0.161669254,0.000377362,-0.000383345,0.165945441,0.000682162,-0.000891675,-0.001440563,-0.000107780,1.000000000,1.000000000,-2.277594869,0.026888914,0.291080938,18.868124518,3.128861666,-19.167271933,34.108108564,-0.668756474,-0.720281397,-0.161669254,0.000000000,0.000000000,0.000000000,0.000000000,0.000000000,-0.015864268,0.000000000,0.000000000,0.000000000,0.000000000,0.000000000,0.000000000,0.000000000,0.000000000,0.000000000,0.000000000,0.787732840,0.000000000,0.000000000,0.000000000,0.000000000,0.000000000,0.000000000,0.000000000,0.000000000,0.000000000,32764.000000000,-0.698902269,-524315568.000000000,32764.000000000,0.000000000,0.000000000,0.008008631,0.165275046,-3.140269647,,,,,,,,
1701093137.609388,,,,,,,,,,,,,,,,,,,,,,,,,,,,,,,,,,,,,,,,,,,,,,,,,,,,,,,,,,,,,,,,,152107.000000000,1701093137.609113216,-2.950000048,15.380000114,96.940002441,0.497999996,-0.428999990,-0.248999998
1701093137.625908,,,,,,,,,,,,,,,,,,,,,,,,,,,,,,,,,,,,,,,,,,,,,,,,,,,,,,,,,,,,,,,,,152108.000000000,1701093137.625670671,-2.960000038,15.270000458,96.930000305,0.504999995,-0.430000007,-0.246999994
1701093137.642295,,,,,,,,,,,,,,,,,,,,,,,,,,,,,,,,,,,,,,,,,,,,,,,,,,,,,,,,,,,,,,,,,152109.000000000,1701093137.642181873,-3.009999990,15.220000267,96.910003662,0.505999982,-0.428000003,-0.250000000
1701093137.654835,,,,,,,,,,,,,,,,,,,,,,,,,,,,,,,,,,,,,,,,,,,,,,,,,,,,,,,,,,,,,,,,,152110.000000000,1701093137.654577971,-3.009999990,15.489999771,96.870002747,0.503000021,-0.430000007,-0.246999994
1701093137.671491,,,,,,,,,,,,,,,,,,,,,,,,,,,,,,,,,,,,,,,,,,,,,,,,,,,,,,,,,,,,,,,,,152111.000000000,1701093137.671199560,-2.970000029,15.420000076,96.940002441,0.500000000,-0.430000007,-0.250000000
1701093137.687739,,,,,,,,,,,,,,,,,,,,,,,,,,,,,,,,,,,,,,,,,,,,,,,,,,,,,,,,,,,,,,,,,152112.000000000,1701093137.687636375,-3.029999971,15.369999886,96.910003662,0.504999995,-0.428999990,-0.250999987
1701093137.697440,-0.699445069,0.007527950,-0.018774235,0.002322025,-1.098875490,0.808228126,-5.882390170,0.049816222,-0.013926728,-0.161269255,0.000378022,-0.000383835,0.165945441,0.000682352,-0.000893167,-0.001445438,-0.000107513,1.000000000,1.000000000,-2.274851862,0.024533914,0.278280941,18.901124510,3.128861666,-19.191771874,34.117609830,-0.669875224,-0.722718898,-0.161269255,0.000000000,0.000000000,0.000000000,0.000000000,0.000000000,-0.015864268,0.000000000,0.000000000,0.000000000,0.000000000,0.000000000,0.000000000,0.000000000,0.000000000,0.000000000,0.000000000,0.787732840,0.000000000,0.000000000,0.000000000,0.000000000,0.000000000,0.000000000,0.000000000,0.000000000,0.000000000,32764.000000000,-0.698901090,-524315568.000000000,32764.000000000,0.000000000,0.000000000,0.008009283,0.165274881,-3.140271133,,,,,,,,
1701093137.704044,,,,,,,,,,,,,,,,,,,,,,,,,,,,,,,,,,,,,,,,,,,,,,,,,,,,,,,,,,,,,,,,,152113.000000000,1701093137.703912497,-3.109999895,15.420000076,96.819999695,0.505999982,-0.423999995,-0.250000000
1701093137.720366,,,,,,,,,,,,,,,,,,,,,,,,,,,,,,,,,,,,,,,,,,,,,,,,,,,,,,,,,,,,,,,,,152114.000000000,1701093137.720183611,-3.049999952,15.449999809,96.860000610,0.501999974,-0.430000007,-0.247999996
1701093137.736538,,,,,,,,,,,,,,,,,,,,,,,,,,,,,,,,,,,,,,,,,,,,,,,,,,,,,,,,,,,,,,,,,152115.000000000,1701093137.736468792,-3.009999990,15.409999847,96.930000305,0.501999974,-0.425999999,-0.247999996
1701093137.752901,,,,,,,,,,,,,,,,,,,,,,,,,,,,,,,,,,,,,,,,,,,,,,,,,,,,,,,,,,,,,,,,,152116.000000000,1701093137.752708673,-2.990000010,15.399999619,96.959999084,0.507000029,-0.428999990,-0.252000004
1701093137.769546,,,,,,,,,,,,,,,,,,,,,,,,,,,,,,,,,,,,,,,,,,,,,,,,,,,,,,,,,,,,,,,,,152117.000000000,1701093137.769160748,-3.119999886,15.399999619,96.900001526,0.507000029,-0.423999995,-0.246999994
1701093137.785967,,,,,,,,,,,,,,,,,,,,,,,,,,,,,,,,,,,,,,,,,,,,,,,,,,,,,,,,,,,,,,,,,152118.000000000,1701093137.785650015,-3.039999962,15.520000458,96.910003662,0.500999987,-0.426999986,-0.248999998
1701093137.796794,-0.699445069,0.007527950,-0.018775271,0.002321723,-1.103375486,0.818728128,-5.879890017,0.049766219,-0.013576727,-0.160819257,0.000377932,-0.000383625,0.165945441,0.000682402,-0.000892709,-0.001444400,-0.000107213,1.000000000,1.000000000,-2.273534303,0.025041415,0.280530937,18.896624514,3.128861666,-19.181271872,34.120109983,-0.669531476,-0.722200146,-0.160819257,0.000000000,0.000000000,0.000000000,0.000000000,0.000000000,-0.015864268,0.000000000,0.000000000,0.000000000,0.000000000,0.000000000,0.000000000,0.000000000,0.000000000,0.000000000,0.000000000,0.787732840,0.000000000,0.000000000,0.000000000,0.000000000,0.000000000,0.000000000,0.000000000,0.000000000,0.000000000,32764.000000000,-0.698901288,-524315568.000000000,32764.000000000,0.000000000,0.000000000,0.008009024,0.165274826,-3.140270669,,,,,,,,
1701093137.802190,,,,,,,,,,,,,,,,,,,,,,,,,,,,,,,,,,,,,,,,,,,,,,,,,,,,,,,,,,,,,,,,,152119.000000000,1701093137.801980495,-3.099999905,15.460000038,96.879997253,0.500999987,-0.423999995,-0.248999998
1701093137.818608,,,,,,,,,,,,,,,,,,,,,,,,,,,,,,,,,,,,,,,,,,,,,,,,,,,,,,,,,,,,,,,,,152120.000000000,1701093137.818258762,-3.089999914,15.470000267,96.910003662,0.509000003,-0.425000012,-0.250000000
1701093137.834888,,,,,,,,,,,,,,,,,,,,,,,,,,,,,,,,,,,,,,,,,,,,,,,,,,,,,,,,,,,,,,,,,152121.000000000,1701093137.834559679,-3.069999933,15.420000076,96.940002441,0.507000029,-0.423999995,-0.250000000
1701093137.847064,,,,,,,,,,,,,,,,,,,,,,,,,,,,,,,,,,,,,,,,,,,,,,,,,,,,,,,,,,,,,,,,,152122.000000000,1701093137.846853733,-3.079999924,15.430000305,96.910003662,0.500999987,-0.426999986,-0.245000005
1701093137.863467,,,,,,,,,,,,,,,,,,,,,,,,,,,,,,,,,,,,,,,,,,,,,,,,,,,,,,,,,,,,,,,,,152123.000000000,1701093137.863194704,-3.039999962,15.380000114,96.919998169,0.507000029,-0.428999990,-0.248999998
1701093137.880092,,,,,,,,,,,,,,,,,,,,,,,,,,,,,,,,,,,,,,,,,,,,,,,,,,,,,,,,,,,,,,,,,152124.000000000,1701093137.879726171,-2.980000019,15.460000038,96.930000305,0.509999990,-0.428999990,-0.248999998
1701093137.896528,,,,,,,,,,,,,,,,,,,,,,,,,,,,,,,,,,,,,,,,,,,,,,,,,,,,,,,,,,,,,,,,,152125.000000000,1701093137.896327496,-3.039999962,15.500000000,96.930000305,0.504999995,-0.428999990,-0.250000000
1701093137.897085,-0.699445069,0.007527950,-0.018774746,0.002321524,-1.100375488,0.830728212,-5.873889498,0.050566218,-0.013726725,-0.160519259,0.000377992,-0.000383385,0.165945441,0.000682522,-0.000891042,-0.001444925,-0.000107013,1.000000000,1.000000000,-2.269914094,0.024786417,0.279630936,18.899624512,3.128861666,-19.169271788,34.126110502,-0.668281474,-0.722462644,-0.160519259,0.000000000,0.000000000,0.000000000,0.000000000,0.000000000,-0.015864268,0.000000000,0.000000000,0.000000000,0.000000000,0.000000000,0.000000000,0.000000000,0.000000000,0.000000000,0.000000000,0.787732840,0.000000000,0.000000000,0.000000000,0.000000000,0.000000000,0.000000000,0.000000000,0.000000000,0.000000000,32764.000000000,-0.698901169,-524315568.000000000,32764.000000000,0.000000000,0.000000000,0.008008607,0.165274708,-3.140268998,,,,,,,,
1701093137.912948,,,,,,,,,,,,,,,,,,,,,,,,,,,,,,,,,,,,,,,,,,,,,,,,,,,,,,,,,,,,,,,,,152126.000000000,1701093137.912693501,-3.029999971,15.489999771,96.900001526,0.501999974,-0.428000003,-0.247999996
1701093137.929519,,,,,,,,,,,,,,,,,,,,,,,,,,,,,,,,,,,,,,,,,,,,,,,,,,,,,,,,,,,,,,,,,152127.000000000,1701093137.929204702,-3.059999943,15.380000114,96.889999390,0.505999982,-0.428000003,-0.250000000
1701093137.946192,,,,,,,,,,,,,,,,,,,,,,,,,,,,,,,,,,,,,,,,,,,,,,,,,,,,,,,,,,,,,,,,,152128.000000000,1701093137.945750713,-3.079999924,15.449999809,96.970001221,0.505999982,-0.423000008,-0.250000000
1701093137.962339,,,,,,,,,,,,,,,,,,,,,,,,,,,,,,,,,,,,,,,,,,,,,,,,,,,,,,,,,,,,,,,,,152129.000000000,1701093137.962099791,-3.029999971,15.489999771,96.949996948,0.501999974,-0.426999986,-0.250000000
1701093137.978751,,,,,,,,,,,,,,,,,,,,,,,,,,,,,,,,,,,,,,,,,,,,,,,,,,,,,,,,,,,,,,,,,152130.000000000,1701093137.978373528,-3.210000038,15.420000076,96.930000305,0.503000021,-0.421000004,-0.248999998
1701093137.995155,,,,,,,,,,,,,,,,,,,,,,,,,,,,,,,,,,,,,,,,,,,,,,,,,,,,,,,,,,,,,,,,,152131.000000000,1701093137.994722366,-3.130000114,15.329999924,96.900001526,0.505999982,-0.425000012,-0.247999996
1701093137.997742,-0.699445069,0.007527950,-0.018778684,0.002321582,-1.128875485,0.852728143,-5.870890002,0.050966214,-0.012826725,-0.160619260,0.000377422,-0.000382945,0.165945441,0.000682582,-0.000889409,-0.001440988,-0.000107080,1.000000000,1.000000000,-2.267544301,0.026683917,0.290930934,18.871124515,3.128861666,-19.147271857,34.129109998,-0.667056480,-0.720493894,-0.160619260,0.000000000,0.000000000,0.000000000,0.000000000,0.000000000,-0.015864268,0.000000000,0.000000000,0.000000000,0.000000000,0.000000000,0.000000000,0.000000000,0.000000000,0.000000000,0.000000000,0.787732840,0.000000000,0.000000000,0.000000000,0.000000000,0.000000000,0.000000000,0.000000000,0.000000000,0.000000000,32764.000000000,-0.698902154,-524315568.000000000,32764.000000000,0.000000000,0.000000000,0.008007992,0.165274627,-3.140267366,,,,,,,,
1701093138.007246,,,,,,,,,,,,,,,,,,,,,,,,,,,,,,,,,,,,,,,,,,,,,,,,,,,,,,,,,,,,,,,,,152132.000000000,1701093138.006972075,-3.119999886,15.399999619,96.900001526,0.505999982,-0.421999991,-0.250999987
1701093138.023475,,,,,,,,,,,,,,,,,,,,,,,,,,,,,,,,,,,,,,,,,,,,,,,,,,,,,,,,,,,,,,,,,152133.000000000,1701093138.023221493,-3.089999914,15.460000038,96.879997253,0.499000013,-0.425000012,-0.250999987
1701093138.039875,,,,,,,,,,,,,,,,,,,,,,,,,,,,,,,,,,,,,,,,,,,,,,,,,,,,,,,,,,,,,,,,,152134.000000000,1701093138.039469481,-3.130000114,15.430000305,96.849998474,0.500999987,-0.421999991,-0.248999998
1701093138.056134,,,,,,,,,,,,,,,,,,,,,,,,,,,,,,,,,,,,,,,,,,,,,,,,,,,,,,,,,,,,,,,,,152135.000000000,1701093138.055732012,-3.089999914,15.359999657,96.919998169,0.509000003,-0.425000012,-0.247999996
1701093138.072440,,,,,,,,,,,,,,,,,,,,,,,,,,,,,,,,,,,,,,,,,,,,,,,,,,,,,,,,,,,,,,,,,152136.000000000,1701093138.072097063,-3.079999924,15.329999924,96.879997253,0.505999982,-0.423999995,-0.246999994
1701093138.088996,,,,,,,,,,,,,,,,,,,,,,,,,,,,,,,,,,,,,,,,,,,,,,,,,,,,,,,,,,,,,,,,,152137.000000000,1701093138.088581562,-3.089999914,15.460000038,96.860000610,0.499000013,-0.425999999,-0.247999996
1701093138.097490,-0.699445069,0.007527950,-0.018781571,0.002321509,-1.143375483,0.852228179,-5.875390582,0.050516214,-0.011926726,-0.160519259,0.000377132,-0.000382955,0.165945441,0.000682492,-0.000890034,-0.001438100,-0.000107013,1.000000000,1.000000000,-2.269812032,0.028091416,0.296830935,18.856624517,3.128861666,-19.147771821,34.124609418,-0.667525229,-0.719050145,-0.160519259,0.000000000,0.000000000,0.000000000,0.000000000,0.000000000,-0.015864268,0.000000000,0.000000000,0.000000000,0.000000000,0.000000000,0.000000000,0.000000000,0.000000000,0.000000000,0.000000000,0.787732840,0.000000000,0.000000000,0.000000000,0.000000000,0.000000000,0.000000000,0.000000000,0.000000000,0.000000000,32764.000000000,-0.698902752,-524315568.000000000,32764.000000000,0.000000000,0.000000000,0.008008067,0.165274706,-3.140267990,,,,,,,,
1701093138.105173,,,,,,,,,,,,,,,,,,,,,,,,,,,,,,,,,,,,,,,,,,,,,,,,,,,,,,,,,,,,,,,,,152138.000000000,1701093138.104964972,-2.980000019,15.390000343,96.910003662,0.505999982,-0.428999990,-0.250000000
1701093138.121753,,,,,,,,,,,,,,,,,,,,,,,,,,,,,,,,,,,,,,,,,,,,,,,,,,,,,,,,,,,,,,,,,152139.000000000,1701093138.121515274,-3.039999962,15.300000191,96.930000305,0.508000016,-0.425999999,-0.248999998
1701093138.137919,,,,,,,,,,,,,,,,,,,,,,,,,,,,,,,,,,,,,,,,,,,,,,,,,,,,,,,,,,,,,,,,,152140.000000000,1701093138.137820005,-3.019999981,15.359999657,96.940002441,0.500999987,-0.428999990,-0.247999996
1701093138.154267,,,,,,,,,,,,,,,,,,,,,,,,,,,,,,,,,,,,,,,,,,,,,,,,,,,,,,,,,,,,,,,,,152141.000000000,1701093138.154068947,-3.069999933,15.439999580,96.879997253,0.500000000,-0.428000003,-0.246000007
1701093138.170901,,,,,,,,,,,,,,,,,,,,,,,,,,,,,,,,,,,,,,,,,,,,,,,,,,,,,,,,,,,,,,,,,152142.000000000,1701093138.170616150,-3.049999952,15.399999619,96.860000610,0.507000029,-0.428999990,-0.250999987
1701093138.183002,,,,,,,,,,,,,,,,,,,,,,,,,,,,,,,,,,,,,,,,,,,,,,,,,,,,,,,,,,,,,,,,,152143.000000000,1701093138.182872772,-3.069999933,15.420000076,96.900001526,0.507000029,-0.423000008,-0.250999987
1701093138.197642,-0.699445069,0.007527950,-0.018780059,0.002321612,-1.133875492,0.833728090,-5.877890734,0.050666215,-0.012326727,-0.160669258,0.000377322,-0.000383325,0.165945441,0.000682442,-0.000890759,-0.001439613,-0.000107113,1.000000000,1.000000000,-2.271309595,0.027358916,0.292880939,18.866124508,3.128861666,-19.166271910,34.122109266,-0.668068981,-0.719806396,-0.160669258,0.000000000,0.000000000,0.000000000,0.000000000,0.000000000,-0.015864268,0.000000000,0.000000000,0.000000000,0.000000000,0.000000000,0.000000000,0.000000000,0.000000000,0.000000000,0.000000000,0.787732840,0.000000000,0.000000000,0.000000000,0.000000000,0.000000000,0.000000000,0.000000000,0.000000000,0.000000000,32764.000000000,-0.698902404,-524315568.000000000,32764.000000000,0.000000000,0.000000000,0.008008514,0.165274763,-3.140268717,,,,,,,,
1701093138.199466,,,,,,,,,,,,,,,,,,,,,,,,,,,,,,,,,,,,,,,,,,,,,,,,,,,,,,,,,,,,,,,,,152144.000000000,1701093138.199198484,-3.049999952,15.399999619,96.879997253,0.501999974,-0.426999986,-0.248999998
1701093138.215769,,,,,,,,,,,,,,,,,,,,,,,,,,,,,,,,,,,,,,,,,,,,,,,,,,,,,,,,,,,,,,,,,152145.000000000,1701093138.215545893,-3.069999933,15.470000267,96.910003662,0.503000021,-0.423999995,-0.250000000
1701093138.231956,,,,,,,,,,,,,,,,,,,,,,,,,,,,,,,,,,,,,,,,,,,,,,,,,,,,,,,,,,,,,,,,,152146.000000000,1701093138.231857538,-3.000000000,15.439999580,96.919998169,0.507000029,-0.428999990,-0.250000000
1701093138.248242,,,,,,,,,,,,,,,,,,,,,,,,,,,,,,,,,,,,,,,,,,,,,,,,,,,,,,,,,,,,,,,,,152147.000000000,1701093138.248093605,-3.119999886,15.300000191,96.910003662,0.505999982,-0.423000008,-0.250999987
1701093138.264535,,,,,,,,,,,,,,,,,,,,,,,,,,,,,,,,,,,,,,,,,,,,,,,,,,,,,,,,,,,,,,,,,152148.000000000,1701093138.264369965,-3.039999962,15.359999657,96.839996338,0.499000013,-0.426999986,-0.246999994
1701093138.281048,,,,,,,,,,,,,,,,,,,,,,,,,,,,,,,,,,,,,,,,,,,,,,,,,,,,,,,,,,,,,,,,,152149.000000000,1701093138.280907154,-3.059999943,15.359999657,96.870002747,0.500999987,-0.423999995,-0.248999998
1701093138.296982,-0.699445069,0.007527950,-0.018781509,0.002321576,-1.139875486,0.811728063,-5.889890628,0.050016221,-0.011826726,-0.160619257,0.000377202,-0.000383765,0.165945441,0.000682202,-0.000892725,-0.001438163,-0.000107080,1.000000000,1.000000000,-2.277529548,0.028068916,0.295330938,18.860124514,3.128861666,-19.188271937,34.110109372,-0.669543977,-0.719081395,-0.160619257,0.000000000,0.000000000,0.000000000,0.000000000,0.000000000,-0.015864268,0.000000000,0.000000000,0.000000000,0.000000000,0.000000000,0.000000000,0.000000000,0.000000000,0.000000000,0.000000000,0.787732840,0.000000000,0.000000000,0.000000000,0.000000000,0.000000000,0.000000000,0.000000000,0.000000000,0.000000000,32764.000000000,-0.698902684,-524315568.000000000,32764.000000000,0.000000000,0.000000000,0.008009162,0.165274999,-3.140270683,,,,,,,,
1701093138.297334,,,,,,,,,,,,,,,,,,,,,,,,,,,,,,,,,,,,,,,,,,,,,,,,,,,,,,,,,,,,,,,,,152150.000000000,1701093138.297221184,-3.049999952,15.380000114,96.839996338,0.509000003,-0.428000003,-0.252000004
1701093138.313600,,,,,,,,,,,,,,,,,,,,,,,,,,,,,,,,,,,,,,,,,,,,,,,,,,,,,,,,,,,,,,,,,152151.000000000,1701093138.313493967,-3.059999943,15.359999657,96.819999695,0.504999995,-0.423999995,-0.252000004
1701093138.330077,,,,,,,,,,,,,,,,,,,,,,,,,,,,,,,,,,,,,,,,,,,,,,,,,,,,,,,,,,,,,,,,,152152.000000000,1701093138.329794884,-3.000000000,15.470000267,96.940002441,0.500999987,-0.428000003,-0.252000004
1701093138.346235,,,,,,,,,,,,,,,,,,,,,,,,,,,,,,,,,,,,,,,,,,,,,,,,,,,,,,,,,,,,,,,,,152153.000000000,1701093138.346077681,-3.079999924,15.409999847,96.940002441,0.508000016,-0.428000003,-0.247999996
1701093138.362486,,,,,,,,,,,,,,,,,,,,,,,,,,,,,,,,,,,,,,,,,,,,,,,,,,,,,,,,,,,,,,,,,152154.000000000,1701093138.362312794,-3.140000105,15.369999886,96.889999390,0.509999990,-0.425000012,-0.250999987
1701093138.379028,,,,,,,,,,,,,,,,,,,,,,,,,,,,,,,,,,,,,,,,,,,,,,,,,,,,,,,,,,,,,,,,,152155.000000000,1701093138.378797531,-3.019999981,15.479999542,96.910003662,0.503000021,-0.430000007,-0.247999996
1701093138.391181,,,,,,,,,,,,,,,,,,,,,,,,,,,,,,,,,,,,,,,,,,,,,,,,,,,,,,,,,,,,,,,,,152156.000000000,1701093138.391061544,-2.990000010,15.460000038,96.919998169,0.497999996,-0.428000003,-0.248999998
1701093138.396181,-0.699445069,0.007527950,-0.018776897,0.002321886,-1.114375487,0.821728053,-5.889890246,0.050216223,-0.013176726,-0.161069258,0.000377712,-0.000383565,0.165945441,0.000682202,-0.000891959,-0.001442775,-0.000107380,1.000000000,1.000000000,-2.276979394,0.025826416,0.284680936,18.885624513,3.128861666,-19.178271947,34.110109754,-0.668968975,-0.721387645,-0.161069258,0.000000000,0.000000000,0.000000000,0.000000000,0.000000000,-0.015864268,0.000000000,0.000000000,0.000000000,0.000000000,0.000000000,0.000000000,0.000000000,0.000000000,0.000000000,0.000000000,0.787732840,0.000000000,0.000000000,0.000000000,0.000000000,0.000000000,0.000000000,0.000000000,0.000000000,0.000000000,32764.000000000,-0.698901684,-524315568.000000000,32764.000000000,0.000000000,0.000000000,0.008008883,0.165275018,-3.140269922,,,,,,,,
1701093138.407524,,,,,,,,,,,,,,,,,,,,,,,,,,,,,,,,,,,,,,,,,,,,,,,,,,,,,,,,,,,,,,,,,152157.000000000,1701093138.407350302,-3.059999943,15.380000114,96.889999390,0.504999995,-0.425999999,-0.250999987
1701093138.423958,,,,,,,,,,,,,,,,,,,,,,,,,,,,,,,,,,,,,,,,,,,,,,,,,,,,,,,,,,,,,,,,,152158.000000000,1701093138.423745155,-3.160000086,15.329999924,96.910003662,0.507000029,-0.423000008,-0.246999994
1701093138.440260,,,,,,,,,,,,,,,,,,,,,,,,,,,,,,,,,,,,,,,,,,,,,,,,,,,,,,,,,,,,,,,,,152159.000000000,1701093138.440112591,-3.089999914,15.380000114,96.900001526,0.503000021,-0.428000003,-0.247999996
1701093138.456515,,,,,,,,,,,,,,,,,,,,,,,,,,,,,,,,,,,,,,,,,,,,,,,,,,,,,,,,,,,,,,,,,152160.000000000,1701093138.456385851,-3.109999895,15.319999695,96.879997253,0.500999987,-0.423000008,-0.248999998
1701093138.472968,,,,,,,,,,,,,,,,,,,,,,,,,,,,,,,,,,,,,,,,,,,,,,,,,,,,,,,,,,,,,,,,,152161.000000000,1701093138.472810745,-3.069999933,15.270000458,96.910003662,0.504000008,-0.425999999,-0.252000004
1701093138.489445,,,,,,,,,,,,,,,,,,,,,,,,,,,,,,,,,,,,,,,,,,,,,,,,,,,,,,,,,,,,,,,,,152162.000000000,1701093138.489202976,-3.009999990,15.270000458,96.870002747,0.504000008,-0.425000012,-0.250000000
1701093138.496812,-0.699445069,0.007527950,-0.018779435,0.002322047,-1.126875487,0.801728120,-5.890890078,0.050366224,-0.012376729,-0.161319258,0.000377462,-0.000383965,0.165945441,0.000682182,-0.000892759,-0.001440238,-0.000107546,1.000000000,1.000000000,-2.277929323,0.027063913,0.289430937,18.873124513,3.128861666,-19.198271880,34.109109922,-0.669568972,-0.720118898,-0.161319258,0.000000000,0.000000000,0.000000000,0.000000000,0.000000000,-0.015864268,0.000000000,0.000000000,0.000000000,0.000000000,0.000000000,0.000000000,0.000000000,0.000000000,0.000000000,0.000000000,0.787732840,0.000000000,0.000000000,0.000000000,0.000000000,0.000000000,0.000000000,0.000000000,0.000000000,0.000000000,32764.000000000,-0.698902205,-524315568.000000000,32764.000000000,0.000000000,0.000000000,0.008009366,0.165275029,-3.140270726,,,,,,,,
1701093138.505567,,,,,,,,,,,,,,,,,,,,,,,,,,,,,,,,,,,,,,,,,,,,,,,,,,,,,,,,,,,,,,,,,152163.000000000,1701093138.505462408,-3.069999933,15.300000191,96.980003357,0.499000013,-0.425999999,-0.246999994
1701093138.521954,,,,,,,,,,,,,,,,,,,,,,,,,,,,,,,,,,,,,,,,,,,,,,,,,,,,,,,,,,,,,,,,,152164.000000000,1701093138.521752834,-3.029999971,15.399999619,96.919998169,0.501999974,-0.425000012,-0.248999998
1701093138.538231,,,,,,,,,,,,,,,,,,,,,,,,,,,,,,,,,,,,,,,,,,,,,,,,,,,,,,,,,,,,,,,,,152165.000000000,1701093138.538036585,-3.019999981,15.449999809,96.889999390,0.508000016,-0.428000003,-0.250000000
1701093138.554347,,,,,,,,,,,,,,,,,,,,,,,,,,,,,,,,,,,,,,,,,,,,,,,,,,,,,,,,,,,,,,,,,152166.000000000,1701093138.554287910,-3.000000000,15.399999619,96.900001526,0.505999982,-0.426999986,-0.250999987
1701093138.570726,,,,,,,,,,,,,,,,,,,,,,,,,,,,,,,,,,,,,,,,,,,,,,,,,,,,,,,,,,,,,,,,,152167.000000000,1701093138.570535183,-2.990000010,15.319999695,96.809997559,0.500999987,-0.428000003,-0.247999996
1701093138.587052,,,,,,,,,,,,,,,,,,,,,,,,,,,,,,,,,,,,,,,,,,,,,,,,,,,,,,,,,,,,,,,,,152168.000000000,1701093138.586847067,-3.009999990,15.329999924,96.879997253,0.505999982,-0.428000003,-0.250000000
1701093138.597652,-0.699445069,0.007527950,-0.018777672,0.002321951,-1.115375498,0.792228093,-5.889890246,0.050266219,-0.012826731,-0.161169259,0.000377692,-0.000384155,0.165945441,0.000682202,-0.000893367,-0.001442000,-0.000107446,1.000000000,1.000000000,-2.277961896,0.026211412,0.284980941,18.884624502,3.128861666,-19.207771907,34.110109754,-0.670025228,-0.721000149,-0.161169259,0.000000000,0.000000000,0.000000000,0.000000000,0.000000000,-0.015864268,0.000000000,0.000000000,0.000000000,0.000000000,0.000000000,0.000000000,0.000000000,0.000000000,0.000000000,0.000000000,0.787732840,0.000000000,0.000000000,0.000000000,0.000000000,0.000000000,0.000000000,0.000000000,0.000000000,0.000000000,32764.000000000,-0.698901788,-524315568.000000000,32764.000000000,0.000000000,0.000000000,0.008009622,0.165275018,-3.140271332,,,,,,,,
1701093138.599309,,,,,,,,,,,,,,,,,,,,,,,,,,,,,,,,,,,,,,,,,,,,,,,,,,,,,,,,,,,,,,,,,152169.000000000,1701093138.599062920,-2.930000067,15.439999580,96.930000305,0.512000024,-0.428000003,-0.248999998
1701093138.615432,,,,,,,,,,,,,,,,,,,,,,,,,,,,,,,,,,,,,,,,,,,,,,,,,,,,,,,,,,,,,,,,,152170.000000000,1701093138.615305662,-3.019999981,16.100000381,96.830001831,0.518999994,-0.432999998,-0.266000003
1701093138.631797,,,,,,,,,,,,,,,,,,,,,,,,,,,,,,,,,,,,,,,,,,,,,,,,,,,,,,,,,,,,,,,,,152171.000000000,1701093138.631554842,-3.170000076,16.180000305,96.910003662,0.504999995,-0.416999996,-0.277000010
1701093138.648172,,,,,,,,,,,,,,,,,,,,,,,,,,,,,,,,,,,,,,,,,,,,,,,,,,,,,,,,,,,,,,,,,152172.000000000,1701093138.647859097,-3.200000048,16.090000153,96.860000610,0.486999989,-0.430999994,-0.293000013
1701093138.664500,,,,,,,,,,,,,,,,,,,,,,,,,,,,,,,,,,,,,,,,,,,,,,,,,,,,,,,,,,,,,,,,,152173.000000000,1701093138.664337635,-3.259999990,16.000000000,96.849998474,0.465999991,-0.423000008,-0.305000007
1701093138.680814,,,,,,,,,,,,,,,,,,,,,,,,,,,,,,,,,,,,,,,,,,,,,,,,,,,,,,,,,,,,,,,,,152174.000000000,1701093138.680574417,-3.170000076,16.010000229,96.860000610,0.456000000,-0.430999994,-0.296999991
1701093138.696252,-0.699445069,0.007527950,-0.018778435,0.002328050,-1.133375516,0.965728154,-5.892890124,0.045816220,-0.013126730,-0.170319260,0.000377332,-0.000380685,0.165945441,0.000682142,-0.000890625,-0.001441250,-0.000113546,1.000000000,1.000000000,-2.277539345,0.026541413,0.283030947,18.866624484,3.128861666,-19.034271846,34.107109876,-0.667968975,-0.720625148,-0.170319260,0.000000000,0.000000000,0.000000000,0.000000000,0.000000000,-0.015864268,0.000000000,0.000000000,0.000000000,0.000000000,0.000000000,0.000000000,0.000000000,0.000000000,0.000000000,0.000000000,0.787732840,0.000000000,0.000000000,0.000000000,0.000000000,0.000000000,0.000000000,0.000000000,0.000000000,0.000000000,32764.000000000,-0.698902221,-524315568.000000000,32764.000000000,0.000000000,0.000000000,0.008005861,0.165275061,-3.140268714,,,,,,,,
1701093138.696954,,,,,,,,,,,,,,,,,,,,,,,,,,,,,,,,,,,,,,,,,,,,,,,,,,,,,,,,,,,,,,,,,152175.000000000,1701093138.696825981,-3.240000010,16.290000916,96.900001526,0.456000000,-0.435999990,-0.335000008
1701093138.713206,,,,,,,,,,,,,,,,,,,,,,,,,,,,,,,,,,,,,,,,,,,,,,,,,,,,,,,,,,,,,,,,,152176.000000000,1701093138.713055611,-3.480000019,16.540000916,96.930000305,0.453999996,-0.426999986,-0.345999986
1701093138.729684,,,,,,,,,,,,,,,,,,,,,,,,,,,,,,,,,,,,,,,,,,,,,,,,,,,,,,,,,,,,,,,,,152177.000000000,1701093138.729317904,-3.450000048,16.819999695,96.879997253,0.425999999,-0.430000007,-0.365999997
1701093138.746161,,,,,,,,,,,,,,,,,,,,,,,,,,,,,,,,,,,,,,,,,,,,,,,,,,,,,,,,,,,,,,,,,152178.000000000,1701093138.745859861,-3.289999962,16.940000534,96.910003662,0.411000013,-0.444999993,-0.358999997
1701093138.762525,,,,,,,,,,,,,,,,,,,,,,,,,,,,,,,,,,,,,,,,,,,,,,,,,,,,,,,,,,,,,,,,,152179.000000000,1701093138.762418747,-3.440000057,16.889999390,96.970001221,0.425999999,-0.428000003,-0.354999989
1701093138.779111,,,,,,,,,,,,,,,,,,,,,,,,,,,,,,,,,,,,,,,,,,,,,,,,,,,,,,,,,,,,,,,,,152180.000000000,1701093138.778889894,-3.250000000,16.750000000,97.019996643,0.451000005,-0.435000002,-0.328000009
1701093138.791575,,,,,,,,,,,,,,,,,,,,,,,,,,,,,,,,,,,,,,,,,,,,,,,,,,,,,,,,,,,,,,,,,152181.000000000,1701093138.791369200,-3.400000095,16.889999390,96.930000305,0.449000001,-0.426999986,-0.319000006
1701093138.797799,-0.699445069,0.007527950,-0.018781772,0.002350180,-1.235875538,1.440728202,-5.881890444,0.023416217,-0.015326727,-0.203519261,0.000375282,-0.000371185,0.165945441,0.000682362,-0.000896742,-0.001437963,-0.000135680,1.000000000,1.000000000,-2.278914473,0.027928917,0.290830954,18.764124462,3.128861666,-18.559271798,34.118109556,-0.672556475,-0.718981394,-0.203519261,0.000000000,0.000000000,0.000000000,0.000000000,0.000000000,-0.015864268,0.000000000,0.000000000,0.000000000,0.000000000,0.000000000,0.000000000,0.000000000,0.000000000,0.000000000,0.000000000,0.787732840,0.000000000,0.000000000,0.000000000,0.000000000,0.000000000,0.000000000,0.000000000,0.000000000,0.000000000,32764.000000000,-0.698904597,-524315568.000000000,32764.000000000,0.000000000,0.000000000,0.007997008,0.165274773,-3.140275278,,,,,,,,
1701093138.807975,,,,,,,,,,,,,,,,,,,,,,,,,,,,,,,,,,,,,,,,,,,,,,,,,,,,,,,,,,,,,,,,,152182.000000000,1701093138.807920218,-3.339999914,17.389999390,96.870002747,0.432000011,-0.430999994,-0.328999996
1701093138.824568,,,,,,,,,,,,,,,,,,,,,,,,,,,,,,,,,,,,,,,,,,,,,,,,,,,,,,,,,,,,,,,,,152183.000000000,1701093138.824408770,-3.339999914,17.469999313,96.839996338,0.439999998,-0.444000006,-0.351999998
1701093138.841060,,,,,,,,,,,,,,,,,,,,,,,,,,,,,,,,,,,,,,,,,,,,,,,,,,,,,,,,,,,,,,,,,152184.000000000,1701093138.840854168,-3.460000038,17.469999313,96.900001526,0.458999991,-0.430000007,-0.360000014
1701093138.857474,,,,,,,,,,,,,,,,,,,,,,,,,,,,,,,,,,,,,,,,,,,,,,,,,,,,,,,,,,,,,,,,,152185.000000000,1701093138.857331276,-3.259999990,17.579999924,96.930000305,0.465000004,-0.441000015,-0.344000012
1701093138.874118,,,,,,,,,,,,,,,,,,,,,,,,,,,,,,,,,,,,,,,,,,,,,,,,,,,,,,,,,,,,,,,,,152186.000000000,1701093138.873889923,-3.380000114,17.680000305,96.910003662,0.449999988,-0.428000003,-0.335000008
1701093138.890685,,,,,,,,,,,,,,,,,,,,,,,,,,,,,,,,,,,,,,,,,,,,,,,,,,,,,,,,,,,,,,,,,152187.000000000,1701093138.890400648,-3.309999943,17.989999771,96.889999390,0.435000002,-0.435000002,-0.328000009
1701093138.896909,-0.699445069,0.007527950,-0.018784200,0.002368612,-1.334375539,2.112728133,-5.883390383,0.006466218,-0.017826727,-0.231169264,0.000373312,-0.000357745,0.165945441,0.000682332,-0.000885742,-0.001435575,-0.000154113,1.000000000,1.000000000,-2.272944451,0.028876416,0.302580952,18.665624461,3.128861666,-17.887271867,34.116609617,-0.664306477,-0.717787645,-0.231169264,0.000000000,0.000000000,0.000000000,0.000000000,0.000000000,-0.015864268,0.000000000,0.000000000,0.000000000,0.000000000,0.000000000,0.000000000,0.000000000,0.000000000,0.000000000,0.000000000,0.787732840,0.000000000,0.000000000,0.000000000,0.000000000,0.000000000,0.000000000,0.000000000,0.000000000,0.000000000,32764.000000000,-0.698906789,-524315568.000000000,32764.000000000,0.000000000,0.000000000,0.007982399,0.165274727,-3.140264650,,,,,,,,
1701093138.906827,,,,,,,,,,,,,,,,,,,,,,,,,,,,,,,,,,,,,,,,,,,,,,,,,,,,,,,,,,,,,,,,,152188.000000000,1701093138.906710386,-3.359999895,17.959999084,96.849998474,0.442000002,-0.435000002,-0.338999987
1701093138.923205,,,,,,,,,,,,,,,,,,,,,,,,,,,,,,,,,,,,,,,,,,,,,,,,,,,,,,,,,,,,,,,,,152189.000000000,1701093138.922972679,-3.410000086,17.899999619,96.879997253,0.444000006,-0.432999998,-0.340999991
