__time,/plot_data/data.0,/plot_data/data.1,/plot_data/data.10,/plot_data/data.11,/plot_data/data.12,/plot_data/data.13,/plot_data/data.14,/plot_data/data.15,/plot_data/data.16,/plot_data/data.17,/plot_data/data.18,/plot_data/data.19,/plot_data/data.2,/plot_data/data.20,/plot_data/data.21,/plot_data/data.22,/plot_data/data.23,/plot_data/data.24,/plot_data/data.25,/plot_data/data.26,/plot_data/data.27,/plot_data/data.28,/plot_data/data.29,/plot_data/data.3,/plot_data/data.30,/plot_data/data.31,/plot_data/data.32,/plot_data/data.33,/plot_data/data.34,/plot_data/data.35,/plot_data/data.36,/plot_data/data.37,/plot_data/data.38,/plot_data/data.39,/plot_data/data.4,/plot_data/data.40,/plot_data/data.41,/plot_data/data.42,/plot_data/data.43,/plot_data/data.44,/plot_data/data.45,/plot_data/data.46,/plot_data/data.47,/plot_data/data.48,/plot_data/data.49,/plot_data/data.5,/plot_data/data.50,/plot_data/data.51,/plot_data/data.52,/plot_data/data.53,/plot_data/data.54,/plot_data/data.55,/plot_data/data.56,/plot_data/data.57,/plot_data/data.58,/plot_data/data.59,/plot_data/data.6,/plot_data/data.60,/plot_data/data.61,/plot_data/data.62,/plot_data/data.63,/plot_data/data.7,/plot_data/data.8,/plot_data/data.9,/robotiq_ft_wrench/header/seq,/robotiq_ft_wrench/header/stamp,/robotiq_ft_wrench/wrench/force/x,/robotiq_ft_wrench/wrench/force/y,/robotiq_ft_wrench/wrench/force/z,/robotiq_ft_wrench/wrench/torque/x,/robotiq_ft_wrench/wrench/torque/y,/robotiq_ft_wrench/wrench/torque/z
1701093187.250303,,,,,,,,,,,,,,,,,,,,,,,,,,,,,,,,,,,,,,,,,,,,,,,,,,,,,,,,,,,,,,,,,155208.000000000,1701093187.250147820,-4.369999886,14.989999771,96.650001526,0.469000012,-0.384000003,-0.174999997
1701093187.262381,,,,,,,,,,,,,,,,,,,,,,,,,,,,,,,,,,,,,,,,,,,,,,,,,,,,,,,,,,,,,,,,,155209.000000000,1701093187.262336493,-4.340000153,15.029999733,96.669998169,0.467999995,-0.384999990,-0.173999995
1701093187.278669,,,,,,,,,,,,,,,,,,,,,,,,,,,,,,,,,,,,,,,,,,,,,,,,,,,,,,,,,,,,,,,,,155210.000000000,1701093187.278570175,-4.340000153,15.060000420,96.660003662,0.467000008,-0.384999990,-0.174999997
1701093187.295077,,,,,,,,,,,,,,,,,,,,,,,,,,,,,,,,,,,,,,,,,,,,,,,,,,,,,,,,,,,,,,,,,155211.000000000,1701093187.294901371,-4.360000134,15.010000229,96.669998169,0.467000008,-0.384999990,-0.174999997
1701093187.305439,-0.699445069,0.007527950,-0.018967710,0.002271354,-2.493375519,0.459728208,-6.144390444,0.014416220,0.030573274,-0.085919259,0.000350132,-0.000390805,0.165945441,0.000677112,-0.000957792,-0.001251850,-0.000057280,1.000000000,1.000000000,-2.427249470,0.117841417,0.911430949,17.506624481,3.128861666,-19.540271792,33.855609556,-0.718343972,-0.625925144,-0.085919259,0.000000000,0.000000000,0.000000000,0.000000000,0.000000000,-0.015864268,0.000000000,0.000000000,0.000000000,0.000000000,0.000000000,0.000000000,0.000000000,0.000000000,0.000000000,0.000000000,0.787732840,0.000000000,0.000000000,0.000000000,0.000000000,0.000000000,0.000000000,0.000000000,0.000000000,0.000000000,32764.000000000,-0.698949643,-524315568.000000000,32764.000000000,0.000000000,0.000000000,0.008022981,0.165279192,-3.140334735,,,,,,,,
1701093187.311246,,,,,,,,,,,,,,,,,,,,,,,,,,,,,,,,,,,,,,,,,,,,,,,,,,,,,,,,,,,,,,,,,155212.000000000,1701093187.311180830,-4.369999886,15.000000000,96.650001526,0.467999995,-0.384000003,-0.174999997
1701093187.327465,,,,,,,,,,,,,,,,,,,,,,,,,,,,,,,,,,,,,,,,,,,,,,,,,,,,,,,,,,,,,,,,,155213.000000000,1701093187.327418327,-4.420000076,15.079999924,96.639999390,0.467999995,-0.384000003,-0.173999995
1701093187.343767,,,,,,,,,,,,,,,,,,,,,,,,,,,,,,,,,,,,,,,,,,,,,,,,,,,,,,,,,,,,,,,,,155214.000000000,1701093187.343669653,-4.420000076,14.979999542,96.599998474,0.465999991,-0.382999986,-0.173999995
1701093187.360063,,,,,,,,,,,,,,,,,,,,,,,,,,,,,,,,,,,,,,,,,,,,,,,,,,,,,,,,,,,,,,,,,155215.000000000,1701093187.359938860,-4.449999809,14.970000267,96.650001526,0.467999995,-0.382999986,-0.173999995
1701093187.376274,,,,,,,,,,,,,,,,,,,,,,,,,,,,,,,,,,,,,,,,,,,,,,,,,,,,,,,,,,,,,,,,,155216.000000000,1701093187.376197577,-4.460000038,14.939999580,96.720001221,0.469000012,-0.381000012,-0.173999995
1701093187.392606,,,,,,,,,,,,,,,,,,,,,,,,,,,,,,,,,,,,,,,,,,,,,,,,,,,,,,,,,,,,,,,,,155217.000000000,1701093187.392477274,-4.369999886,15.020000458,96.660003662,0.467999995,-0.384000003,-0.173999995
1701093187.397580,-0.699445069,0.007527950,-0.018966073,0.002271358,-2.480875495,0.441728177,-6.135890155,0.014166219,0.030223272,-0.085919258,0.000350382,-0.000391165,0.165945441,0.000677282,-0.000959025,-0.001253488,-0.000057280,1.000000000,1.000000000,-2.424729357,0.117053915,0.906430940,17.519124505,3.128861666,-19.558271823,33.864109845,-0.719268975,-0.626743897,-0.085919258,0.000000000,0.000000000,0.000000000,0.000000000,0.000000000,-0.015864268,0.000000000,0.000000000,0.000000000,0.000000000,0.000000000,0.000000000,0.000000000,0.000000000,0.000000000,0.000000000,0.787732840,0.000000000,0.000000000,0.000000000,0.000000000,0.000000000,0.000000000,0.000000000,0.000000000,0.000000000,32764.000000000,-0.698949217,-524315568.000000000,32764.000000000,0.000000000,0.000000000,0.008023474,0.165279032,-3.140335968,,,,,,,,
1701093187.409008,,,,,,,,,,,,,,,,,,,,,,,,,,,,,,,,,,,,,,,,,,,,,,,,,,,,,,,,,,,,,,,,,155218.000000000,1701093187.408769369,-4.360000134,15.069999695,96.599998474,0.467999995,-0.384000003,-0.175999999
1701093187.425090,,,,,,,,,,,,,,,,,,,,,,,,,,,,,,,,,,,,,,,,,,,,,,,,,,,,,,,,,,,,,,,,,155219.000000000,1701093187.425010204,-4.480000019,15.039999962,96.599998474,0.469999999,-0.381000012,-0.172999993
1701093187.441373,,,,,,,,,,,,,,,,,,,,,,,,,,,,,,,,,,,,,,,,,,,,,,,,,,,,,,,,,,,,,,,,,155220.000000000,1701093187.441246748,-4.480000019,14.949999809,96.610000610,0.469000012,-0.379999995,-0.172999993
1701093187.457633,,,,,,,,,,,,,,,,,,,,,,,,,,,,,,,,,,,,,,,,,,,,,,,,,,,,,,,,,,,,,,,,,155221.000000000,1701093187.457509279,-4.400000095,14.989999771,96.760002136,0.467000008,-0.384000003,-0.172000006
1701093187.473995,,,,,,,,,,,,,,,,,,,,,,,,,,,,,,,,,,,,,,,,,,,,,,,,,,,,,,,,,,,,,,,,,155222.000000000,1701093187.473773718,-4.389999866,15.010000229,96.699996948,0.465999991,-0.384000003,-0.175999999
1701093187.490292,,,,,,,,,,,,,,,,,,,,,,,,,,,,,,,,,,,,,,,,,,,,,,,,,,,,,,,,,,,,,,,,,155223.000000000,1701093187.490049362,-4.400000095,15.109999657,96.610000610,0.470999986,-0.384000003,-0.174999997
1701093187.502444,,,,,,,,,,,,,,,,,,,,,,,,,,,,,,,,,,,,,,,,,,,,,,,,,,,,,,,,,,,,,,,,,155224.000000000,1701093187.502261400,-4.440000057,15.130000114,96.620002747,0.470999986,-0.384000003,-0.173999995
1701093187.505172,-0.699445069,0.007527950,-0.018964873,0.002271361,-2.468875530,0.446728149,-6.137390094,0.014416219,0.030073273,-0.085919258,0.000350622,-0.000391065,0.165945441,0.000677252,-0.000958442,-0.001254688,-0.000057280,1.000000000,1.000000000,-2.424904334,0.116483916,0.901630954,17.531124470,3.128861666,-19.553271851,33.862609906,-0.718831476,-0.627343895,-0.085919258,0.000000000,0.000000000,0.000000000,0.000000000,0.000000000,-0.015864268,0.000000000,0.000000000,0.000000000,0.000000000,0.000000000,0.000000000,0.000000000,0.000000000,0.000000000,0.000000000,0.787732840,0.000000000,0.000000000,0.000000000,0.000000000,0.000000000,0.000000000,0.000000000,0.000000000,0.000000000,32764.000000000,-0.698948850,-524315568.000000000,32764.000000000,0.000000000,0.000000000,0.008023312,0.165279069,-3.140335385,,,,,,,,
1701093187.518765,,,,,,,,,,,,,,,,,,,,,,,,,,,,,,,,,,,,,,,,,,,,,,,,,,,,,,,,,,,,,,,,,155225.000000000,1701093187.518554449,-4.420000076,15.069999695,96.650001526,0.469000012,-0.384000003,-0.173999995
1701093187.534901,,,,,,,,,,,,,,,,,,,,,,,,,,,,,,,,,,,,,,,,,,,,,,,,,,,,,,,,,,,,,,,,,155226.000000000,1701093187.534804106,-4.349999905,15.090000153,96.660003662,0.469000012,-0.384999990,-0.175999999
1701093187.551270,,,,,,,,,,,,,,,,,,,,,,,,,,,,,,,,,,,,,,,,,,,,,,,,,,,,,,,,,,,,,,,,,155227.000000000,1701093187.551044941,-4.369999886,15.039999962,96.669998169,0.467999995,-0.384000003,-0.175999999
1701093187.567531,,,,,,,,,,,,,,,,,,,,,,,,,,,,,,,,,,,,,,,,,,,,,,,,,,,,,,,,,,,,,,,,,155228.000000000,1701093187.567313433,-4.349999905,14.960000038,96.680000305,0.467000008,-0.384000003,-0.173999995
1701093187.583807,,,,,,,,,,,,,,,,,,,,,,,,,,,,,,,,,,,,,,,,,,,,,,,,,,,,,,,,,,,,,,,,,155229.000000000,1701093187.583579063,-4.409999847,14.829999924,96.839996338,0.463999987,-0.379000008,-0.142000005
1701093187.597543,-0.699445069,0.007527950,-0.018965083,0.002270293,-2.466375521,0.437728133,-6.120890383,0.014216218,0.030273272,-0.084319259,0.000350672,-0.000391245,0.165945441,0.000677582,-0.000959159,-0.001254475,-0.000056213,1.000000000,1.000000000,-2.418819451,0.116596415,0.902230950,17.533624479,3.128861666,-19.562271867,33.879109617,-0.719368977,-0.627237646,-0.084319259,0.000000000,0.000000000,0.000000000,0.000000000,0.000000000,-0.015864268,0.000000000,0.000000000,0.000000000,0.000000000,0.000000000,0.000000000,0.000000000,0.000000000,0.000000000,0.000000000,0.787732840,0.000000000,0.000000000,0.000000000,0.000000000,0.000000000,0.000000000,0.000000000,0.000000000,0.000000000,32764.000000000,-0.698948816,-524315568.000000000,32764.000000000,0.000000000,0.000000000,0.008023569,0.165278740,-3.140336080,,,,,,,,
1701093187.600192,,,,,,,,,,,,,,,,,,,,,,,,,,,,,,,,,,,,,,,,,,,,,,,,,,,,,,,,,,,,,,,,,155230.000000000,1701093187.600017071,-4.190000057,14.520000458,96.699996948,0.446999997,-0.377000004,-0.092000000
1701093187.616777,,,,,,,,,,,,,,,,,,,,,,,,,,,,,,,,,,,,,,,,,,,,,,,,,,,,,,,,,,,,,,,,,155231.000000000,1701093187.616524696,-4.349999905,14.539999962,96.639999390,0.448000014,-0.377000004,-0.143999994
1701093187.633168,,,,,,,,,,,,,,,,,,,,,,,,,,,,,,,,,,,,,,,,,,,,,,,,,,,,,,,,,,,,,,,,,155232.000000000,1701093187.632931232,-4.320000172,14.670000076,96.839996338,0.453999996,-0.389999986,-0.142000005
1701093187.649319,,,,,,,,,,,,,,,,,,,,,,,,,,,,,,,,,,,,,,,,,,,,,,,,,,,,,,,,,,,,,,,,,155233.000000000,1701093187.649216652,-4.500000000,14.970000267,96.669998169,0.449999988,-0.370000005,-0.167999998
1701093187.665692,,,,,,,,,,,,,,,,,,,,,,,,,,,,,,,,,,,,,,,,,,,,,,,,,,,,,,,,,,,,,,,,,155234.000000000,1701093187.665465117,-4.460000038,14.880000114,96.739997864,0.472999990,-0.381000012,-0.159999996
1701093187.681909,,,,,,,,,,,,,,,,,,,,,,,,,,,,,,,,,,,,,,,,,,,,,,,,,,,,,,,,,,,,,,,,,155235.000000000,1701093187.681725979,-4.269999981,14.590000153,96.660003662,0.467999995,-0.388000011,-0.119999997
1701093187.697875,-0.699445069,0.007527950,-0.018966154,0.002262923,-2.452875522,0.341228166,-6.101890902,0.011016218,0.031323269,-0.073269259,0.000350942,-0.000393175,0.165945441,0.000677962,-0.000968250,-0.001253388,-0.000048846,1.000000000,1.000000000,-2.417797157,0.117173912,0.907880949,17.547124478,3.128861666,-19.658771834,33.898109098,-0.726187726,-0.626693899,-0.073269259,0.000000000,0.000000000,0.000000000,0.000000000,0.000000000,-0.015864268,0.000000000,0.000000000,0.000000000,0.000000000,0.000000000,0.000000000,0.000000000,0.000000000,0.000000000,0.000000000,0.787732840,0.000000000,0.000000000,0.000000000,0.000000000,0.000000000,0.000000000,0.000000000,0.000000000,0.000000000,32764.000000000,-0.698948660,-524315568.000000000,32764.000000000,0.000000000,0.000000000,0.008026464,0.165278369,-3.140345022,,,,,,,,
1701093187.698174,,,,,,,,,,,,,,,,,,,,,,,,,,,,,,,,,,,,,,,,,,,,,,,,,,,,,,,,,,,,,,,,,155236.000000000,1701093187.697992563,-4.500000000,14.489999771,96.660003662,0.470999986,-0.363000005,-0.147000000
1701093187.714481,,,,,,,,,,,,,,,,,,,,,,,,,,,,,,,,,,,,,,,,,,,,,,,,,,,,,,,,,,,,,,,,,155237.000000000,1701093187.714246750,-4.349999905,14.550000191,96.839996338,0.444000006,-0.384000003,-0.144999996
1701093187.726729,,,,,,,,,,,,,,,,,,,,,,,,,,,,,,,,,,,,,,,,,,,,,,,,,,,,,,,,,,,,,,,,,155238.000000000,1701093187.726491213,-4.519999981,14.739999771,96.790000916,0.412999988,-0.384999990,-0.207000002
1701093187.743031,,,,,,,,,,,,,,,,,,,,,,,,,,,,,,,,,,,,,,,,,,,,,,,,,,,,,,,,,,,,,,,,,155239.000000000,1701093187.742773771,-4.780000210,14.869999886,96.680000305,0.444999993,-0.377999991,-0.217999995
1701093187.759106,,,,,,,,,,,,,,,,,,,,,,,,,,,,,,,,,,,,,,,,,,,,,,,,,,,,,,,,,,,,,,,,,155240.000000000,1701093187.759013891,-4.750000000,14.649999619,96.800003052,0.462000012,-0.375000000,-0.219999999
1701093187.775447,,,,,,,,,,,,,,,,,,,,,,,,,,,,,,,,,,,,,,,,,,,,,,,,,,,,,,,,,,,,,,,,,155241.000000000,1701093187.775248051,-4.440000057,14.960000038,96.650001526,0.423999995,-0.388000011,-0.178000003
1701093187.791655,,,,,,,,,,,,,,,,,,,,,,,,,,,,,,,,,,,,,,,,,,,,,,,,,,,,,,,,,,,,,,,,,155242.000000000,1701093187.791507483,-4.539999962,15.100000381,96.540000916,0.409000009,-0.374000013,-0.158000007
1701093187.797183,-0.699445069,0.007527950,-0.018972783,0.002264742,-2.499875525,0.258228173,-6.086390643,0.000566217,0.032873270,-0.076019260,0.000350002,-0.000394835,0.165945441,0.000678272,-0.000986334,-0.001246763,-0.000050680,1.000000000,1.000000000,-2.424952054,0.120368913,0.923930949,17.500124475,3.128861666,-19.741771827,33.913609357,-0.739750227,-0.623381398,-0.076019260,0.000000000,0.000000000,0.000000000,0.000000000,0.000000000,-0.015864268,0.000000000,0.000000000,0.000000000,0.000000000,0.000000000,0.000000000,0.000000000,0.000000000,0.000000000,0.000000000,0.787732840,0.000000000,0.000000000,0.000000000,0.000000000,0.000000000,0.000000000,0.000000000,0.000000000,0.000000000,32764.000000000,-0.698950304,-524315568.000000000,32764.000000000,0.000000000,0.000000000,0.008030040,0.165278032,-3.140363143,,,,,,,,
1701093187.807860,,,,,,,,,,,,,,,,,,,,,,,,,,,,,,,,,,,,,,,,,,,,,,,,,,,,,,,,,,,,,,,,,155243.000000000,1701093187.807780027,-4.389999866,14.609999657,96.800003052,0.465000004,-0.379000008,-0.163000003
1701093187.824175,,,,,,,,,,,,,,,,,,,,,,,,,,,,,,,,,,,,,,,,,,,,,,,,,,,,,,,,,,,,,,,,,155244.000000000,1701093187.824050903,-4.400000095,14.970000267,96.620002747,0.497000009,-0.389999986,-0.181999996
1701093187.840433,,,,,,,,,,,,,,,,,,,,,,,,,,,,,,,,,,,,,,,,,,,,,,,,,,,,,,,,,,,,,,,,,155245.000000000,1701093187.840325594,-4.570000172,15.270000458,96.459999084,0.467999995,-0.372999996,-0.192000002
1701093187.856738,,,,,,,,,,,,,,,,,,,,,,,,,,,,,,,,,,,,,,,,,,,,,,,,,,,,,,,,,,,,,,,,,155246.000000000,1701093187.856580496,-4.369999886,15.260000229,96.620002747,0.432999998,-0.400999993,-0.172999993
1701093187.872976,,,,,,,,,,,,,,,,,,,,,,,,,,,,,,,,,,,,,,,,,,,,,,,,,,,,,,,,,,,,,,,,,155247.000000000,1701093187.872810125,-4.630000114,15.060000420,96.720001221,0.467000008,-0.374000013,-0.172000006
1701093187.889369,,,,,,,,,,,,,,,,,,,,,,,,,,,,,,,,,,,,,,,,,,,,,,,,,,,,,,,,,,,,,,,,,155248.000000000,1701093187.889061689,-4.289999962,14.750000000,96.790000916,0.500999987,-0.391000003,-0.163000003
1701093187.895752,-0.699445069,0.007527950,-0.018973683,0.002264607,-2.515875533,0.234228244,-6.080390505,0.001366217,0.032723270,-0.075819261,0.000349682,-0.000395315,0.165945441,0.000678392,-0.000986467,-0.001245863,-0.000050546,1.000000000,1.000000000,-2.422591997,0.120778914,0.930530952,17.484124467,3.128861666,-19.765771756,33.919609495,-0.739850224,-0.622931397,-0.075819261,0.000000000,0.000000000,0.000000000,0.000000000,0.000000000,-0.015864268,0.000000000,0.000000000,0.000000000,0.000000000,0.000000000,0.000000000,0.000000000,0.000000000,0.000000000,0.000000000,0.787732840,0.000000000,0.000000000,0.000000000,0.000000000,0.000000000,0.000000000,0.000000000,0.000000000,0.000000000,32764.000000000,-0.698950718,-524315568.000000000,32764.000000000,0.000000000,0.000000000,0.008030533,0.165277905,-3.140363273,,,,,,,,
1701093187.905601,,,,,,,,,,,,,,,,,,,,,,,,,,,,,,,,,,,,,,,,,,,,,,,,,,,,,,,,,,,,,,,,,155249.000000000,1701093187.905359030,-4.500000000,15.210000038,96.650001526,0.448000014,-0.384999990,-0.181999996
1701093187.921879,,,,,,,,,,,,,,,,,,,,,,,,,,,,,,,,,,,,,,,,,,,,,,,,,,,,,,,,,,,,,,,,,155250.000000000,1701093187.921648502,-4.380000114,15.329999924,96.440002441,0.430000007,-0.397000015,-0.184000000
1701093187.938130,,,,,,,,,,,,,,,,,,,,,,,,,,,,,,,,,,,,,,,,,,,,,,,,,,,,,,,,,,,,,,,,,155251.000000000,1701093187.937922001,-4.449999809,15.100000381,96.569999695,0.488999993,-0.379999995,-0.180000007
1701093187.954294,,,,,,,,,,,,,,,,,,,,,,,,,,,,,,,,,,,,,,,,,,,,,,,,,,,,,,,,,,,,,,,,,155252.000000000,1701093187.954172850,-4.349999905,14.909999847,96.800003052,0.505999982,-0.391999990,-0.175999999
1701093187.970647,,,,,,,,,,,,,,,,,,,,,,,,,,,,,,,,,,,,,,,,,,,,,,,,,,,,,,,,,,,,,,,,,155253.000000000,1701093187.970443010,-4.469999790,15.079999924,96.620002747,0.453999996,-0.381999999,-0.165000007
1701093187.982868,,,,,,,,,,,,,,,,,,,,,,,,,,,,,,,,,,,,,,,,,,,,,,,,,,,,,,,,,,,,,,,,,155254.000000000,1701093187.982660294,-4.500000000,15.119999886,96.629997253,0.451999992,-0.377000004,-0.173999995
1701093187.996917,-0.699445069,0.007527950,-0.018971374,0.002271713,-2.536875513,0.351228204,-6.116389422,0.003516217,0.030773271,-0.086469262,0.000349262,-0.000392975,0.165945441,0.000677672,-0.000977750,-0.001248188,-0.000057646,1.000000000,1.000000000,-2.430746564,0.119563914,0.928280943,17.463124487,3.128861666,-19.648771796,33.883610578,-0.733312725,-0.624093897,-0.086469262,0.000000000,0.000000000,0.000000000,0.000000000,0.000000000,-0.015864268,0.000000000,0.000000000,0.000000000,0.000000000,0.000000000,0.000000000,0.000000000,0.000000000,0.000000000,0.000000000,0.787732840,0.000000000,0.000000000,0.000000000,0.000000000,0.000000000,0.000000000,0.000000000,0.000000000,0.000000000,32764.000000000,-0.698950899,-524315568.000000000,32764.000000000,0.000000000,0.000000000,0.008027268,0.165278615,-3.140354700,,,,,,,,
1701093187.999115,,,,,,,,,,,,,,,,,,,,,,,,,,,,,,,,,,,,,,,,,,,,,,,,,,,,,,,,,,,,,,,,,155255.000000000,1701093187.998949289,-4.420000076,15.079999924,96.650001526,0.479000002,-0.384999990,-0.175999999
1701093188.015330,,,,,,,,,,,,,,,,,,,,,,,,,,,,,,,,,,,,,,,,,,,,,,,,,,,,,,,,,,,,,,,,,155256.000000000,1701093188.015232801,-4.590000153,15.050000191,96.559997559,0.490999997,-0.368999988,-0.181999996
1701093188.031630,,,,,,,,,,,,,,,,,,,,,,,,,,,,,,,,,,,,,,,,,,,,,,,,,,,,,,,,,,,,,,,,,155257.000000000,1701093188.031515598,-4.510000229,15.130000114,96.599998474,0.463000000,-0.379000008,-0.172000006
1701093188.047796,,,,,,,,,,,,,,,,,,,,,,,,,,,,,,,,,,,,,,,,,,,,,,,,,,,,,,,,,,,,,,,,,155258.000000000,1701093188.047753572,-4.489999771,15.140000343,96.610000610,0.451000005,-0.379000008,-0.169000000
1701093188.064158,,,,,,,,,,,,,,,,,,,,,,,,,,,,,,,,,,,,,,,,,,,,,,,,,,,,,,,,,,,,,,,,,155259.000000000,1701093188.064006805,-4.369999886,15.010000229,96.620002747,0.493999988,-0.388000011,-0.171000004
1701093188.080406,,,,,,,,,,,,,,,,,,,,,,,,,,,,,,,,,,,,,,,,,,,,,,,,,,,,,,,,,,,,,,,,,155260.000000000,1701093188.080283642,-4.519999981,15.039999962,96.690002441,0.492000014,-0.374000013,-0.172999993
1701093188.096163,-0.699445069,0.007527950,-0.018970260,0.002271249,-2.523375514,0.479228273,-6.151389651,0.011866219,0.030723270,-0.085769262,0.000349532,-0.000390415,0.165945441,0.000676972,-0.000960217,-0.001249300,-0.000057180,1.000000000,1.000000000,-2.431916652,0.119041413,0.923580943,17.476624486,3.128861666,-19.520771727,33.848610349,-0.720162721,-0.624650148,-0.085769262,0.000000000,0.000000000,0.000000000,0.000000000,0.000000000,-0.015864268,0.000000000,0.000000000,0.000000000,0.000000000,0.000000000,0.000000000,0.000000000,0.000000000,0.000000000,0.000000000,0.787732840,0.000000000,0.000000000,0.000000000,0.000000000,0.000000000,0.000000000,0.000000000,0.000000000,0.000000000,32764.000000000,-0.698950516,-524315568.000000000,32764.000000000,0.000000000,0.000000000,0.008022846,0.165279315,-3.140337157,,,,,,,,
1701093188.096579,,,,,,,,,,,,,,,,,,,,,,,,,,,,,,,,,,,,,,,,,,,,,,,,,,,,,,,,,,,,,,,,,155261.000000000,1701093188.096524000,-4.369999886,15.319999695,96.559997559,0.446000010,-0.391999990,-0.175999999
1701093188.112951,,,,,,,,,,,,,,,,,,,,,,,,,,,,,,,,,,,,,,,,,,,,,,,,,,,,,,,,,,,,,,,,,155262.000000000,1701093188.112803221,-4.579999924,15.300000191,96.510002136,0.446000010,-0.375000000,-0.172999993
1701093188.129260,,,,,,,,,,,,,,,,,,,,,,,,,,,,,,,,,,,,,,,,,,,,,,,,,,,,,,,,,,,,,,,,,155263.000000000,1701093188.129096031,-4.380000114,14.899999619,96.699996948,0.492000014,-0.388999999,-0.172999993
1701093188.145500,,,,,,,,,,,,,,,,,,,,,,,,,,,,,,,,,,,,,,,,,,,,,,,,,,,,,,,,,,,,,,,,,155264.000000000,1701093188.145379782,-4.440000057,15.010000229,96.699996948,0.474000007,-0.381999999,-0.170000002
1701093188.161703,,,,,,,,,,,,,,,,,,,,,,,,,,,,,,,,,,,,,,,,,,,,,,,,,,,,,,,,,,,,,,,,,155265.000000000,1701093188.161640644,-4.400000095,15.159999847,96.660003662,0.451999992,-0.388999999,-0.175999999
1701093188.177993,,,,,,,,,,,,,,,,,,,,,,,,,,,,,,,,,,,,,,,,,,,,,,,,,,,,,,,,,,,,,,,,,155266.000000000,1701093188.177877188,-4.409999847,15.170000076,96.610000610,0.460999995,-0.388999999,-0.174999997
1701093188.194184,,,,,,,,,,,,,,,,,,,,,,,,,,,,,,,,,,,,,,,,,,,,,,,,,,,,,,,,,,,,,,,,,155267.000000000,1701093188.194134235,-4.429999828,15.060000420,96.589996338,0.483999997,-0.388000011,-0.177000001
1701093188.195605,-0.699445069,0.007527950,-0.018966523,0.002271324,-2.506875494,0.513728204,-6.155390505,0.016466219,0.029473272,-0.085869261,0.000349862,-0.000389725,0.165945441,0.000676892,-0.000952359,-0.001253038,-0.000057246,1.000000000,1.000000000,-2.427709496,0.117213914,0.916880937,17.493124506,3.128861666,-19.486271796,33.844609495,-0.714268973,-0.626518897,-0.085869261,0.000000000,0.000000000,0.000000000,0.000000000,0.000000000,-0.015864268,0.000000000,0.000000000,0.000000000,0.000000000,0.000000000,0.000000000,0.000000000,0.000000000,0.000000000,0.000000000,0.787732840,0.000000000,0.000000000,0.000000000,0.000000000,0.000000000,0.000000000,0.000000000,0.000000000,0.000000000,32764.000000000,-0.698949787,-524315568.000000000,32764.000000000,0.000000000,0.000000000,0.008021324,0.165279406,-3.140329301,,,,,,,,
1701093188.210565,,,,,,,,,,,,,,,,,,,,,,,,,,,,,,,,,,,,,,,,,,,,,,,,,,,,,,,,,,,,,,,,,155268.000000000,1701093188.210401535,-4.420000076,14.989999771,96.629997253,0.476999998,-0.384000003,-0.170000002
1701093188.222772,,,,,,,,,,,,,,,,,,,,,,,,,,,,,,,,,,,,,,,,,,,,,,,,,,,,,,,,,,,,,,,,,155269.000000000,1701093188.222622156,-4.369999886,15.060000420,96.709999084,0.458000004,-0.388000011,-0.164000005
1701093188.239039,,,,,,,,,,,,,,,,,,,,,,,,,,,,,,,,,,,,,,,,,,,,,,,,,,,,,,,,,,,,,,,,,155270.000000000,1701093188.238913536,-4.429999828,15.090000153,96.660003662,0.460000008,-0.386000007,-0.174999997
1701093188.255335,,,,,,,,,,,,,,,,,,,,,,,,,,,,,,,,,,,,,,,,,,,,,,,,,,,,,,,,,,,,,,,,,155271.000000000,1701093188.255201101,-4.539999962,15.060000420,96.599998474,0.488999993,-0.374000013,-0.177000001
1701093188.271527,,,,,,,,,,,,,,,,,,,,,,,,,,,,,,,,,,,,,,,,,,,,,,,,,,,,,,,,,,,,,,,,,155272.000000000,1701093188.271445990,-4.449999809,15.109999657,96.650001526,0.479000002,-0.386000007,-0.175999999
1701093188.287835,,,,,,,,,,,,,,,,,,,,,,,,,,,,,,,,,,,,,,,,,,,,,,,,,,,,,,,,,,,,,,,,,155273.000000000,1701093188.287712336,-4.409999847,15.140000343,96.610000610,0.451000005,-0.379000008,-0.170000002
1701093188.297808,-0.699445069,0.007527950,-0.018970196,0.002270715,-2.515875486,0.517228236,-6.155890994,0.015766221,0.030973269,-0.084969261,0.000349682,-0.000389655,0.165945441,0.000676882,-0.000953117,-0.001249363,-0.000056646,1.000000000,1.000000000,-2.428487189,0.119028911,0.921380934,17.484124514,3.128861666,-19.482771764,33.844109006,-0.714837721,-0.624681401,-0.084969261,0.000000000,0.000000000,0.000000000,0.000000000,0.000000000,-0.015864268,0.000000000,0.000000000,0.000000000,0.000000000,0.000000000,0.000000000,0.000000000,0.000000000,0.000000000,0.000000000,0.787732840,0.000000000,0.000000000,0.000000000,0.000000000,0.000000000,0.000000000,0.000000000,0.000000000,0.000000000,32764.000000000,-0.698950357,-524315568.000000000,32764.000000000,0.000000000,0.000000000,0.008021333,0.165279405,-3.140330047,,,,,,,,
1701093188.304194,,,,,,,,,,,,,,,,,,,,,,,,,,,,,,,,,,,,,,,,,,,,,,,,,,,,,,,,,,,,,,,,,155274.000000000,1701093188.304007292,-4.380000114,15.189999580,96.599998474,0.463999987,-0.386000007,-0.174999997
1701093188.320315,,,,,,,,,,,,,,,,,,,,,,,,,,,,,,,,,,,,,,,,,,,,,,,,,,,,,,,,,,,,,,,,,155275.000000000,1701093188.320266247,-4.610000134,14.930000305,96.699996948,0.485000014,-0.372999996,-0.172000006
1701093188.336602,,,,,,,,,,,,,,,,,,,,,,,,,,,,,,,,,,,,,,,,,,,,,,,,,,,,,,,,,,,,,,,,,155276.000000000,1701093188.336473227,-4.409999847,15.159999847,96.629997253,0.465000004,-0.382999986,-0.173999995
1701093188.352913,,,,,,,,,,,,,,,,,,,,,,,,,,,,,,,,,,,,,,,,,,,,,,,,,,,,,,,,,,,,,,,,,155277.000000000,1701093188.352762222,-4.489999771,15.220000267,96.620002747,0.453999996,-0.377999991,-0.175999999
1701093188.369121,,,,,,,,,,,,,,,,,,,,,,,,,,,,,,,,,,,,,,,,,,,,,,,,,,,,,,,,,,,,,,,,,155278.000000000,1701093188.369024038,-4.460000038,15.180000305,96.620002747,0.476000011,-0.384999990,-0.177000001
1701093188.385414,,,,,,,,,,,,,,,,,,,,,,,,,,,,,,,,,,,,,,,,,,,,,,,,,,,,,,,,,,,,,,,,,155279.000000000,1701093188.385302067,-4.510000229,15.079999924,96.580001831,0.483999997,-0.375999987,-0.174999997
1701093188.398643,-0.699445069,0.007527950,-0.018969722,0.002270883,-2.514875486,0.528728214,-6.151890902,0.015666222,0.030773271,-0.085219260,0.000349702,-0.000389425,0.165945441,0.000676962,-0.000952675,-0.001249838,-0.000056813,1.000000000,1.000000000,-2.426584652,0.118793913,0.920730934,17.485124514,3.128861666,-19.471271786,33.848109098,-0.714506470,-0.624918898,-0.085219260,0.000000000,0.000000000,0.000000000,0.000000000,0.000000000,-0.015864268,0.000000000,0.000000000,0.000000000,0.000000000,0.000000000,0.000000000,0.000000000,0.000000000,0.000000000,0.000000000,0.787732840,0.000000000,0.000000000,0.000000000,0.000000000,0.000000000,0.000000000,0.000000000,0.000000000,0.000000000,32764.000000000,-0.698950285,-524315568.000000000,32764.000000000,0.000000000,0.000000000,0.008021057,0.165279326,-3.140329608,,,,,,,,
1701093188.401805,,,,,,,,,,,,,,,,,,,,,,,,,,,,,,,,,,,,,,,,,,,,,,,,,,,,,,,,,,,,,,,,,155280.000000000,1701093188.401632786,-4.429999828,15.050000191,96.709999084,0.465999991,-0.382999986,-0.167999998
1701093188.418031,,,,,,,,,,,,,,,,,,,,,,,,,,,,,,,,,,,,,,,,,,,,,,,,,,,,,,,,,,,,,,,,,155281.000000000,1701093188.417908669,-4.369999886,15.260000229,96.620002747,0.463999987,-0.386000007,-0.174999997
1701093188.434347,,,,,,,,,,,,,,,,,,,,,,,,,,,,,,,,,,,,,,,,,,,,,,,,,,,,,,,,,,,,,,,,,155282.000000000,1701093188.434192896,-4.460000038,15.170000076,96.589996338,0.470999986,-0.382999986,-0.178000003
1701093188.450635,,,,,,,,,,,,,,,,,,,,,,,,,,,,,,,,,,,,,,,,,,,,,,,,,,,,,,,,,,,,,,,,,155283.000000000,1701093188.450482845,-4.429999828,15.100000381,96.620002747,0.476999998,-0.384999990,-0.173999995
1701093188.462770,,,,,,,,,,,,,,,,,,,,,,,,,,,,,,,,,,,,,,,,,,,,,,,,,,,,,,,,,,,,,,,,,155284.000000000,1701093188.462693930,-4.369999886,15.140000343,96.660003662,0.469999999,-0.384000003,-0.167999998
1701093188.478998,,,,,,,,,,,,,,,,,,,,,,,,,,,,,,,,,,,,,,,,,,,,,,,,,,,,,,,,,,,,,,,,,155285.000000000,1701093188.478930950,-4.460000038,15.020000458,96.669998169,0.463000000,-0.381999999,-0.172000006
1701093188.495330,,,,,,,,,,,,,,,,,,,,,,,,,,,,,,,,,,,,,,,,,,,,,,,,,,,,,,,,,,,,,,,,,155286.000000000,1701093188.495200634,-4.500000000,15.050000191,96.629997253,0.476000011,-0.379999995,-0.175999999
1701093188.497442,-0.699445069,0.007527950,-0.018970121,0.002270716,-2.510875466,0.523228326,-6.148390917,0.016866218,0.031123273,-0.084969261,0.000349782,-0.000389535,0.165945441,0.000677032,-0.000951350,-0.001249438,-0.000056646,1.000000000,1.000000000,-2.424177157,0.119003914,0.919380925,17.489124534,3.128861666,-19.476771674,33.851609083,-0.713512719,-0.624718897,-0.084969261,0.000000000,0.000000000,0.000000000,0.000000000,0.000000000,-0.015864268,0.000000000,0.000000000,0.000000000,0.000000000,0.000000000,0.000000000,0.000000000,0.000000000,0.000000000,0.000000000,0.787732840,0.000000000,0.000000000,0.000000000,0.000000000,0.000000000,0.000000000,0.000000000,0.000000000,0.000000000,32764.000000000,-0.698950246,-524315568.000000000,32764.000000000,0.000000000,0.000000000,0.008021026,0.165279257,-3.140328280,,,,,,,,
1701093188.511586,,,,,,,,,,,,,,,,,,,,,,,,,,,,,,,,,,,,,,,,,,,,,,,,,,,,,,,,,,,,,,,,,155287.000000000,1701093188.511472464,-4.480000019,15.100000381,96.580001831,0.476000011,-0.382999986,-0.175999999
1701093188.527928,,,,,,,,,,,,,,,,,,,,,,,,,,,,,,,,,,,,,,,,,,,,,,,,,,,,,,,,,,,,,,,,,155288.000000000,1701093188.527744055,-4.440000057,15.079999924,96.610000610,0.462000012,-0.379999995,-0.173999995
1701093188.544164,,,,,,,,,,,,,,,,,,,,,,,,,,,,,,,,,,,,,,,,,,,,,,,,,,,,,,,,,,,,,,,,,155289.000000000,1701093188.544025183,-4.409999847,15.039999962,96.660003662,0.463000000,-0.384000003,-0.170000002
1701093188.560328,,,,,,,,,,,,,,,,,,,,,,,,,,,,,,,,,,,,,,,,,,,,,,,,,,,,,,,,,,,,,,,,,155290.000000000,1701093188.560275555,-4.460000038,15.010000229,96.680000305,0.474999994,-0.379999995,-0.175999999
1701093188.576576,,,,,,,,,,,,,,,,,,,,,,,,,,,,,,,,,,,,,,,,,,,,,,,,,,,,,,,,,,,,,,,,,155291.000000000,1701093188.576470852,-4.400000095,15.100000381,96.699996948,0.469999999,-0.384000003,-0.171000004
1701093188.592864,,,,,,,,,,,,,,,,,,,,,,,,,,,,,,,,,,,,,,,,,,,,,,,,,,,,,,,,,,,,,,,,,155292.000000000,1701093188.592743158,-4.429999828,15.109999657,96.680000305,0.465000004,-0.381000012,-0.172999993
1701093188.597480,-0.699445069,0.007527950,-0.018971446,0.002270746,-2.509875491,0.526728311,-6.144890551,0.015066219,0.031823276,-0.085019261,0.000349802,-0.000389465,0.165945441,0.000677102,-0.000953575,-0.001248113,-0.000056680,1.000000000,1.000000000,-2.424454511,0.119668918,0.918930936,17.490124509,3.128861666,-19.473271689,33.855109449,-0.715181469,-0.624056393,-0.085019261,0.000000000,0.000000000,0.000000000,0.000000000,0.000000000,-0.015864268,0.000000000,0.000000000,0.000000000,0.000000000,0.000000000,0.000000000,0.000000000,0.000000000,0.000000000,0.000000000,0.787732840,0.000000000,0.000000000,0.000000000,0.000000000,0.000000000,0.000000000,0.000000000,0.000000000,0.000000000,32764.000000000,-0.698950365,-524315568.000000000,32764.000000000,0.000000000,0.000000000,0.008021192,0.165279185,-3.140330506,,,,,,,,
1701093188.609289,,,,,,,,,,,,,,,,,,,,,,,,,,,,,,,,,,,,,,,,,,,,,,,,,,,,,,,,,,,,,,,,,155293.000000000,1701093188.609054804,-4.400000095,15.079999924,96.639999390,0.467999995,-0.384000003,-0.174999997
1701093188.625425,,,,,,,,,,,,,,,,,,,,,,,,,,,,,,,,,,,,,,,,,,,,,,,,,,,,,,,,,,,,,,,,,155294.000000000,1701093188.625301361,-4.420000076,15.079999924,96.620002747,0.474000007,-0.379999995,-0.177000001
1701093188.641815,,,,,,,,,,,,,,,,,,,,,,,,,,,,,,,,,,,,,,,,,,,,,,,,,,,,,,,,,,,,,,,,,155295.000000000,1701093188.641561508,-4.449999809,14.970000267,96.639999390,0.467000008,-0.382999986,-0.170000002
1701093188.658105,,,,,,,,,,,,,,,,,,,,,,,,,,,,,,,,,,,,,,,,,,,,,,,,,,,,,,,,,,,,,,,,,155296.000000000,1701093188.657848835,-4.429999828,15.029999733,96.669998169,0.467000008,-0.381999999,-0.172000006
1701093188.674305,,,,,,,,,,,,,,,,,,,,,,,,,,,,,,,,,,,,,,,,,,,,,,,,,,,,,,,,,,,,,,,,,155297.000000000,1701093188.674109221,-4.400000095,15.020000458,96.639999390,0.470999986,-0.384999990,-0.172999993
1701093188.690624,,,,,,,,,,,,,,,,,,,,,,,,,,,,,,,,,,,,,,,,,,,,,,,,,,,,,,,,,,,,,,,,,155298.000000000,1701093188.690378904,-4.489999771,15.130000114,96.580001831,0.472999990,-0.382999986,-0.175999999
1701093188.706928,,,,,,,,,,,,,,,,,,,,,,,,,,,,,,,,,,,,,,,,,,,,,,,,,,,,,,,,,,,,,,,,,155299.000000000,1701093188.706655741,-4.469999790,15.140000343,96.589996338,0.469000012,-0.382999986,-0.173999995
1701093188.719141,,,,,,,,,,,,,,,,,,,,,,,,,,,,,,,,,,,,,,,,,,,,,,,,,,,,,,,,,,,,,,,,,155300.000000000,1701093188.718875408,-4.440000057,15.079999924,96.629997253,0.467000008,-0.382999986,-0.172000006
1701093188.735316,,,,,,,,,,,,,,,,,,,,,,,,,,,,,,,,,,,,,,,,,,,,,,,,,,,,,,,,,,,,,,,,,155301.000000000,1701093188.735131264,-4.380000114,15.039999962,96.680000305,0.474999994,-0.384000003,-0.172999993
1701093188.735891,-0.699445069,0.007527950,-0.018968934,0.002270752,-2.500375488,0.494728294,-6.144890933,0.016166220,0.030923277,-0.085019261,0.000349992,-0.000390105,0.165945441,0.000677102,-0.000953709,-0.001250625,-0.000056680,1.000000000,1.000000000,-2.424474663,0.118436419,0.915130935,17.499624512,3.128861666,-19.505271706,33.855109067,-0.715281469,-0.625312642,-0.085019261,0.000000000,0.000000000,0.000000000,0.000000000,0.000000000,-0.015864268,0.000000000,0.000000000,0.000000000,0.000000000,0.000000000,0.000000000,0.000000000,0.000000000,0.000000000,0.000000000,0.787732840,0.000000000,0.000000000,0.000000000,0.000000000,0.000000000,0.000000000,0.000000000,0.000000000,0.000000000,32764.000000000,-0.698949910,-524315568.000000000,32764.000000000,0.000000000,0.000000000,0.008021847,0.165279195,-3.140330639,,,,,,,,
1701093188.751660,,,,,,,,,,,,,,,,,,,,,,,,,,,,,,,,,,,,,,,,,,,,,,,,,,,,,,,,,,,,,,,,,155302.000000000,1701093188.751397848,-4.400000095,15.060000420,96.669998169,0.472000003,-0.382999986,-0.172999993
1701093188.767962,,,,,,,,,,,,,,,,,,,,,,,,,,,,,,,,,,,,,,,,,,,,,,,,,,,,,,,,,,,,,,,,,155303.000000000,1701093188.767678499,-4.460000038,15.109999657,96.610000610,0.463999987,-0.381000012,-0.173999995
1701093188.784054,,,,,,,,,,,,,,,,,,,,,,,,,,,,,,,,,,,,,,,,,,,,,,,,,,,,,,,,,,,,,,,,,155304.000000000,1701093188.783921480,-4.460000038,15.119999886,96.580001831,0.465999991,-0.382999986,-0.172999993
1701093188.797453,-0.699445069,0.007527950,-0.018969659,0.002270750,-2.503375509,0.488728252,-6.145391040,0.015366220,0.031173277,-0.085019260,0.000349932,-0.000390225,0.165945441,0.000677092,-0.000955075,-0.001249900,-0.000056680,1.000000000,1.000000000,-2.425684707,0.118791419,0.916330944,17.496624491,3.128861666,-19.511271748,33.854608960,-0.716306471,-0.624950142,-0.085019260,0.000000000,0.000000000,0.000000000,0.000000000,0.000000000,-0.015864268,0.000000000,0.000000000,0.000000000,0.000000000,0.000000000,0.000000000,0.000000000,0.000000000,0.000000000,0.000000000,0.787732840,0.000000000,0.000000000,0.000000000,0.000000000,0.000000000,0.000000000,0.000000000,0.000000000,0.000000000,32764.000000000,-0.698950048,-524315568.000000000,32764.000000000,0.000000000,0.000000000,0.008022112,0.165279203,-3.140332006,,,,,,,,
1701093188.800394,,,,,,,,,,,,,,,,,,,,,,,,,,,,,,,,,,,,,,,,,,,,,,,,,,,,,,,,,,,,,,,,,155305.000000000,1701093188.800173283,-4.530000210,15.010000229,96.610000610,0.474000007,-0.377999991,-0.175999999
1701093188.816720,,,,,,,,,,,,,,,,,,,,,,,,,,,,,,,,,,,,,,,,,,,,,,,,,,,,,,,,,,,,,,,,,155306.000000000,1701093188.816465855,-4.369999886,15.069999695,96.680000305,0.467000008,-0.384999990,-0.170000002
1701093188.833023,,,,,,,,,,,,,,,,,,,,,,,,,,,,,,,,,,,,,,,,,,,,,,,,,,,,,,,,,,,,,,,,,155307.000000000,1701093188.832738638,-4.460000038,15.100000381,96.660003662,0.465999991,-0.381000012,-0.171000004
1701093188.849128,,,,,,,,,,,,,,,,,,,,,,,,,,,,,,,,,,,,,,,,,,,,,,,,,,,,,,,,,,,,,,,,,155308.000000000,1701093188.848980904,-4.400000095,14.979999542,96.610000610,0.469999999,-0.384000003,-0.173999995
1701093188.865381,,,,,,,,,,,,,,,,,,,,,,,,,,,,,,,,,,,,,,,,,,,,,,,,,,,,,,,,,,,,,,,,,155309.000000000,1701093188.865207195,-4.389999866,15.029999733,96.610000610,0.474999994,-0.381999999,-0.175999999
1701093188.881736,,,,,,,,,,,,,,,,,,,,,,,,,,,,,,,,,,,,,,,,,,,,,,,,,,,,,,,,,,,,,,,,,155310.000000000,1701093188.881472826,-4.389999866,15.069999695,96.629997253,0.467000008,-0.386000007,-0.174999997
1701093188.897886,-0.699445069,0.007527950,-0.018968171,0.002270687,-2.492875507,0.486728158,-6.146890979,0.015566219,0.030823275,-0.084919260,0.000350142,-0.000390265,0.165945441,0.000677062,-0.000954909,-0.001251388,-0.000056613,1.000000000,1.000000000,-2.426154687,0.118073918,0.912230943,17.507124493,3.128861666,-19.513271842,33.853109021,-0.716181475,-0.625693893,-0.084919260,0.000000000,0.000000000,0.000000000,0.000000000,0.000000000,-0.015864268,0.000000000,0.000000000,0.000000000,0.000000000,0.000000000,0.000000000,0.000000000,0.000000000,0.000000000,0.000000000,0.787732840,0.000000000,0.000000000,0.000000000,0.000000000,0.000000000,0.000000000,0.000000000,0.000000000,0.000000000,32764.000000000,-0.698949681,-524315568.000000000,32764.000000000,0.000000000,0.000000000,0.008022135,0.165279240,-3.140331838,,,,,,,,
1701093188.898190,,,,,,,,,,,,,,,,,,,,,,,,,,,,,,,,,,,,,,,,,,,,,,,,,,,,,,,,,,,,,,,,,155311.000000000,1701093188.897748709,-4.420000076,15.060000420,96.660003662,0.465000004,-0.382999986,-0.171000004
1701093188.914271,,,,,,,,,,,,,,,,,,,,,,,,,,,,,,,,,,,,,,,,,,,,,,,,,,,,,,,,,,,,,,,,,155312.000000000,1701093188.914002180,-4.389999866,15.060000420,96.660003662,0.472000003,-0.386000007,-0.171000004
1701093188.930599,,,,,,,,,,,,,,,,,,,,,,,,,,,,,,,,,,,,,,,,,,,,,,,,,,,,,,,,,,,,,,,,,155313.000000000,1701093188.930272102,-4.429999828,15.119999886,96.650001526,0.474000007,-0.382999986,-0.173999995
1701093188.946795,,,,,,,,,,,,,,,,,,,,,,,,,,,,,,,,,,,,,,,,,,,,,,,,,,,,,,,,,,,,,,,,,155314.000000000,1701093188.946548223,-4.389999866,15.159999847,96.620002747,0.467999995,-0.384999990,-0.174999997
1701093188.963007,,,,,,,,,,,,,,,,,,,,,,,,,,,,,,,,,,,,,,,,,,,,,,,,,,,,,,,,,,,,,,,,,155315.000000000,1701093188.962792873,-4.440000057,15.100000381,96.639999390,0.463999987,-0.381999999,-0.173999995
1701093188.975188,,,,,,,,,,,,,,,,,,,,,,,,,,,,,,,,,,,,,,,,,,,,,,,,,,,,,,,,,,,,,,,,,155316.000000000,1701093188.974964857,-4.480000019,15.020000458,96.669998169,0.476000011,-0.379000008,-0.172999993
1701093188.991559,,,,,,,,,,,,,,,,,,,,,,,,,,,,,,,,,,,,,,,,,,,,,,,,,,,,,,,,,,,,,,,,,155317.000000000,1701093188.991216898,-4.469999790,15.010000229,96.650001526,0.476000011,-0.381000012,-0.172999993
1701093189.007257,-0.699445069,0.007527950,-0.018968509,0.002270686,-2.497375491,0.493728223,-6.148890261,0.016216219,0.030823275,-0.084919259,0.000350052,-0.000390125,0.165945441,0.000677022,-0.000953692,-0.001251050,-0.000056613,1.000000000,1.000000000,-2.426059398,0.118231417,0.914030937,17.502624509,3.128861666,-19.506271777,33.851109739,-0.715268972,-0.625525144,-0.084919259,0.000000000,0.000000000,0.000000000,0.000000000,0.000000000,-0.015864268,0.000000000,0.000000000,0.000000000,0.000000000,0.000000000,0.000000000,0.000000000,0.000000000,0.000000000,0.000000000,0.787732840,0.000000000,0.000000000,0.000000000,0.000000000,0.000000000,0.000000000,0.000000000,0.000000000,0.000000000,32764.000000000,-0.698949807,-524315568.000000000,32764.000000000,0.000000000,0.000000000,0.008021866,0.165279277,-3.140330621,,,,,,,,
1701093189.007840,,,,,,,,,,,,,,,,,,,,,,,,,,,,,,,,,,,,,,,,,,,,,,,,,,,,,,,,,,,,,,,,,155318.000000000,1701093189.007606030,-4.489999771,15.020000458,96.650001526,0.465000004,-0.381000012,-0.172999993
1701093189.024060,,,,,,,,,,,,,,,,,,,,,,,,,,,,,,,,,,,,,,,,,,,,,,,,,,,,,,,,,,,,,,,,,155319.000000000,1701093189.023898363,-4.429999828,15.069999695,96.610000610,0.465000004,-0.384000003,-0.173999995
1701093189.040328,,,,,,,,,,,,,,,,,,,,,,,,,,,,,,,,,,,,,,,,,,,,,,,,,,,,,,,,,,,,,,,,,155320.000000000,1701093189.040138006,-4.449999809,15.010000229,96.639999390,0.474000007,-0.381000012,-0.174999997
1701093189.056628,,,,,,,,,,,,,,,,,,,,,,,,,,,,,,,,,,,,,,,,,,,,,,,,,,,,,,,,,,,,,,,,,155321.000000000,1701093189.056412458,-4.420000076,15.039999962,96.639999390,0.469999999,-0.384999990,-0.172000006
1701093189.073020,,,,,,,,,,,,,,,,,,,,,,,,,,,,,,,,,,,,,,,,,,,,,,,,,,,,,,,,,,,,,,,,,155322.000000000,1701093189.072674274,-4.530000210,15.130000114,96.629997253,0.465000004,-0.377999991,-0.171000004
1701093189.089151,,,,,,,,,,,,,,,,,,,,,,,,,,,,,,,,,,,,,,,,,,,,,,,,,,,,,,,,,,,,,,,,,155323.000000000,1701093189.088935852,-4.409999847,15.050000191,96.629997253,0.469999999,-0.384000003,-0.172000006
1701093189.105470,,,,,,,,,,,,,,,,,,,,,,,,,,,,,,,,,,,,,,,,,,,,,,,,,,,,,,,,,,,,,,,,,155324.000000000,1701093189.105224609,-4.400000095,15.060000420,96.639999390,0.474000007,-0.381999999,-0.173999995
1701093189.110031,-0.699445069,0.007527950,-0.018969121,0.002270551,-2.498875478,0.478728261,-6.143890338,0.016066221,0.031073272,-0.084719260,0.000350022,-0.000390425,0.165945441,0.000677122,-0.000954642,-0.001250438,-0.000056480,1.000000000,1.000000000,-2.424734425,0.118533914,0.914830931,17.501124522,3.128861666,-19.521271739,33.856109662,-0.715981469,-0.625218898,-0.084719260,0.000000000,0.000000000,0.000000000,0.000000000,0.000000000,-0.015864268,0.000000000,0.000000000,0.000000000,0.000000000,0.000000000,0.000000000,0.000000000,0.000000000,0.000000000,0.000000000,0.787732840,0.000000000,0.000000000,0.000000000,0.000000000,0.000000000,0.000000000,0.000000000,0.000000000,0.000000000,32764.000000000,-0.698949901,-524315568.000000000,32764.000000000,0.000000000,0.000000000,0.008022267,0.165279176,-3.140331568,,,,,,,,
1701093189.121940,,,,,,,,,,,,,,,,,,,,,,,,,,,,,,,,,,,,,,,,,,,,,,,,,,,,,,,,,,,,,,,,,155325.000000000,1701093189.121542931,-4.340000153,15.069999695,96.639999390,0.467999995,-0.384999990,-0.173999995
1701093189.138052,,,,,,,,,,,,,,,,,,,,,,,,,,,,,,,,,,,,,,,,,,,,,,,,,,,,,,,,,,,,,,,,,155326.000000000,1701093189.137816668,-4.469999790,15.060000420,96.680000305,0.465999991,-0.379999995,-0.170000002
1701093189.154212,,,,,,,,,,,,,,,,,,,,,,,,,,,,,,,,,,,,,,,,,,,,,,,,,,,,,,,,,,,,,,,,,155327.000000000,1701093189.154053211,-4.480000019,15.090000153,96.650001526,0.469999999,-0.381999999,-0.169000000
1701093189.170622,,,,,,,,,,,,,,,,,,,,,,,,,,,,,,,,,,,,,,,,,,,,,,,,,,,,,,,,,,,,,,,,,155328.000000000,1701093189.170306683,-4.489999771,15.119999886,96.620002747,0.474000007,-0.381000012,-0.171000004
1701093189.186867,,,,,,,,,,,,,,,,,,,,,,,,,,,,,,,,,,,,,,,,,,,,,,,,,,,,,,,,,,,,,,,,,155329.000000000,1701093189.186568499,-4.429999828,15.170000076,96.620002747,0.472000003,-0.384000003,-0.172000006
1701093189.203089,,,,,,,,,,,,,,,,,,,,,,,,,,,,,,,,,,,,,,,,,,,,,,,,,,,,,,,,,,,,,,,,,155330.000000000,1701093189.202844620,-4.469999790,15.039999962,96.639999390,0.463999987,-0.382999986,-0.172999993
1701093189.205971,-0.699445069,0.007527950,-0.018969745,0.002270116,-2.505875447,0.493228307,-6.141390185,0.015816220,0.031123273,-0.084069260,0.000349882,-0.000390135,0.165945441,0.000677172,-0.000954250,-0.001249813,-0.000056046,1.000000000,1.000000000,-2.423476863,0.118828913,0.918280919,17.494124553,3.128861666,-19.506771693,33.858609815,-0.715687719,-0.624906398,-0.084069260,0.000000000,0.000000000,0.000000000,0.000000000,0.000000000,-0.015864268,0.000000000,0.000000000,0.000000000,0.000000000,0.000000000,0.000000000,0.000000000,0.000000000,0.000000000,0.000000000,0.787732840,0.000000000,0.000000000,0.000000000,0.000000000,0.000000000,0.000000000,0.000000000,0.000000000,0.000000000,32764.000000000,-0.698950105,-524315568.000000000,32764.000000000,0.000000000,0.000000000,0.008021935,0.165279121,-3.140331168,,,,,,,,
1701093189.215265,,,,,,,,,,,,,,,,,,,,,,,,,,,,,,,,,,,,,,,,,,,,,,,,,,,,,,,,,,,,,,,,,155331.000000000,1701093189.215060711,-4.480000019,15.060000420,96.639999390,0.472999990,-0.381000012,-0.174999997
1701093189.231551,,,,,,,,,,,,,,,,,,,,,,,,,,,,,,,,,,,,,,,,,,,,,,,,,,,,,,,,,,,,,,,,,155332.000000000,1701093189.231352329,-4.429999828,15.020000458,96.669998169,0.472000003,-0.382999986,-0.173999995
1701093189.247909,,,,,,,,,,,,,,,,,,,,,,,,,,,,,,,,,,,,,,,,,,,,,,,,,,,,,,,,,,,,,,,,,155333.000000000,1701093189.247650146,-4.449999809,15.119999886,96.639999390,0.465000004,-0.382999986,-0.170000002
1701093189.264029,,,,,,,,,,,,,,,,,,,,,,,,,,,,,,,,,,,,,,,,,,,,,,,,,,,,,,,,,,,,,,,,,155334.000000000,1701093189.263899803,-4.429999828,15.130000114,96.589996338,0.463999987,-0.384000003,-0.171000004
1701093189.280350,,,,,,,,,,,,,,,,,,,,,,,,,,,,,,,,,,,,,,,,,,,,,,,,,,,,,,,,,,,,,,,,,155335.000000000,1701093189.280143976,-4.440000057,15.109999657,96.650001526,0.474000007,-0.381999999,-0.173999995
1701093189.296818,,,,,,,,,,,,,,,,,,,,,,,,,,,,,,,,,,,,,,,,,,,,,,,,,,,,,,,,,,,,,,,,,155336.000000000,1701093189.296546936,-4.409999847,15.029999733,96.690002441,0.469999999,-0.384000003,-0.174999997
1701093189.297628,-0.699445069,0.007527950,-0.018970183,0.002270149,-2.510375431,0.490728250,-6.142390780,0.015766219,0.031173272,-0.084119260,0.000349792,-0.000390185,0.165945441,0.000677152,-0.000954442,-0.001249375,-0.000056080,1.000000000,1.000000000,-2.424014604,0.119036412,0.920030912,17.489624569,3.128861666,-19.509271750,33.857609220,-0.715831472,-0.624687649,-0.084119260,0.000000000,0.000000000,0.000000000,0.000000000,0.000000000,-0.015864268,0.000000000,0.000000000,0.000000000,0.000000000,0.000000000,0.000000000,0.000000000,0.000000000,0.000000000,0.000000000,0.787732840,0.000000000,0.000000000,0.000000000,0.000000000,0.000000000,0.000000000,0.000000000,0.000000000,0.000000000,32764.000000000,-0.698950242,-524315568.000000000,32764.000000000,0.000000000,0.000000000,0.008022005,0.165279139,-3.140331360,,,,,,,,
1701093189.313139,,,,,,,,,,,,,,,,,,,,,,,,,,,,,,,,,,,,,,,,,,,,,,,,,,,,,,,,,,,,,,,,,155337.000000000,1701093189.312940359,-4.389999866,15.000000000,96.660003662,0.463999987,-0.381999999,-0.172000006
1701093189.329419,,,,,,,,,,,,,,,,,,,,,,,,,,,,,,,,,,,,,,,,,,,,,,,,,,,,,,,,,,,,,,,,,155338.000000000,1701093189.329327345,-4.400000095,15.069999695,96.680000305,0.469999999,-0.386000007,-0.173999995
1701093189.345712,,,,,,,,,,,,,,,,,,,,,,,,,,,,,,,,,,,,,,,,,,,,,,,,,,,,,,,,,,,,,,,,,155339.000000000,1701093189.345586538,-4.409999847,15.100000381,96.629997253,0.474000007,-0.382999986,-0.174999997
1701093189.361959,,,,,,,,,,,,,,,,,,,,,,,,,,,,,,,,,,,,,,,,,,,,,,,,,,,,,,,,,,,,,,,,,155340.000000000,1701093189.361854076,-4.449999809,15.090000153,96.559997559,0.469999999,-0.382999986,-0.173999995
1701093189.378174,,,,,,,,,,,,,,,,,,,,,,,,,,,,,,,,,,,,,,,,,,,,,,,,,,,,,,,,,,,,,,,,,155341.000000000,1701093189.378106833,-4.519999981,15.109999657,96.610000610,0.465000004,-0.381999999,-0.175999999
1701093189.394527,,,,,,,,,,,,,,,,,,,,,,,,,,,,,,,,,,,,,,,,,,,,,,,,,,,,,,,,,,,,,,,,,155342.000000000,1701093189.394361973,-4.469999790,15.039999962,96.620002747,0.467000008,-0.384000003,-0.174999997
1701093189.397590,-0.699445069,0.007527950,-0.018968621,0.002270419,-2.502875426,0.497228208,-6.145390658,0.015516218,0.030673274,-0.084519260,0.000349942,-0.000390055,0.165945441,0.000677092,-0.000954450,-0.001250938,-0.000056346,1.000000000,1.000000000,-2.425237058,0.118273914,0.916630910,17.497124574,3.128861666,-19.502771792,33.854609342,-0.715837724,-0.625468897,-0.084519260,0.000000000,0.000000000,0.000000000,0.000000000,0.000000000,-0.015864268,0.000000000,0.000000000,0.000000000,0.000000000,0.000000000,0.000000000,0.000000000,0.000000000,0.000000000,0.000000000,0.787732840,0.000000000,0.000000000,0.000000000,0.000000000,0.000000000,0.000000000,0.000000000,0.000000000,0.000000000,32764.000000000,-0.698949927,-524315568.000000000,32764.000000000,0.000000000,0.000000000,0.008021876,0.165279205,-3.140331374,,,,,,,,
1701093189.410862,,,,,,,,,,,,,,,,,,,,,,,,,,,,,,,,,,,,,,,,,,,,,,,,,,,,,,,,,,,,,,,,,155343.000000000,1701093189.410657167,-4.519999981,15.029999733,96.650001526,0.472999990,-0.379999995,-0.173999995
1701093189.427122,,,,,,,,,,,,,,,,,,,,,,,,,,,,,,,,,,,,,,,,,,,,,,,,,,,,,,,,,,,,,,,,,155344.000000000,1701093189.426944494,-4.460000038,15.079999924,96.650001526,0.469999999,-0.384000003,-0.172000006
1701093189.443244,,,,,,,,,,,,,,,,,,,,,,,,,,,,,,,,,,,,,,,,,,,,,,,,,,,,,,,,,,,,,,,,,155345.000000000,1701093189.443178177,-4.400000095,15.140000343,96.620002747,0.465000004,-0.382999986,-0.174999997
1701093189.455441,,,,,,,,,,,,,,,,,,,,,,,,,,,,,,,,,,,,,,,,,,,,,,,,,,,,,,,,,,,,,,,,,155346.000000000,1701093189.455357075,-4.449999809,15.119999886,96.599998474,0.472000003,-0.379999995,-0.173999995
1701093189.471707,,,,,,,,,,,,,,,,,,,,,,,,,,,,,,,,,,,,,,,,,,,,,,,,,,,,,,,,,,,,,,,,,155347.000000000,1701093189.471615314,-4.360000134,15.010000229,96.639999390,0.472999990,-0.381999999,-0.174999997
1701093189.488057,,,,,,,,,,,,,,,,,,,,,,,,,,,,,,,,,,,,,,,,,,,,,,,,,,,,,,,,,,,,,,,,,155348.000000000,1701093189.487892151,-4.469999790,15.050000191,96.599998474,0.467999995,-0.379999995,-0.172000006
1701093189.504312,,,,,,,,,,,,,,,,,,,,,,,,,,,,,,,,,,,,,,,,,,,,,,,,,,,,,,,,,,,,,,,,,155349.000000000,1701093189.504160166,-4.440000057,15.079999924,96.660003662,0.465999991,-0.381999999,-0.172000006
1701093189.520609,,,,,,,,,,,,,,,,,,,,,,,,,,,,,,,,,,,,,,,,,,,,,,,,,,,,,,,,,,,,,,,,,155350.000000000,1701093189.520441532,-4.380000114,15.090000153,96.610000610,0.470999986,-0.384000003,-0.174999997
1701093189.536877,,,,,,,,,,,,,,,,,,,,,,,,,,,,,,,,,,,,,,,,,,,,,,,,,,,,,,,,,,,,,,,,,155351.000000000,1701093189.536733627,-4.349999905,15.069999695,96.660003662,0.472999990,-0.386000007,-0.172999993
1701093189.543032,-0.699445069,0.007527950,-0.018968197,0.002270820,-2.495875457,0.494728151,-6.148890261,0.015516216,0.030723275,-0.085119260,0.000350082,-0.000390105,0.165945441,0.000677022,-0.000954575,-0.001251363,-0.000056746,1.000000000,1.000000000,-2.426724403,0.118078916,0.913230923,17.504124543,3.128861666,-19.505271849,33.851109739,-0.715931478,-0.625681395,-0.085119260,0.000000000,0.000000000,0.000000000,0.000000000,0.000000000,-0.015864268,0.000000000,0.000000000,0.000000000,0.000000000,0.000000000,0.000000000,0.000000000,0.000000000,0.000000000,0.000000000,0.787732840,0.000000000,0.000000000,0.000000000,0.000000000,0.000000000,0.000000000,0.000000000,0.000000000,0.000000000,32764.000000000,-0.698949744,-524315568.000000000,32764.000000000,0.000000000,0.000000000,0.008021940,0.165279278,-3.140331507,,,,,,,,
1701093189.553130,,,,,,,,,,,,,,,,,,,,,,,,,,,,,,,,,,,,,,,,,,,,,,,,,,,,,,,,,,,,,,,,,155352.000000000,1701093189.553012848,-4.360000134,15.050000191,96.660003662,0.469000012,-0.382999986,-0.172999993
1701093189.569401,,,,,,,,,,,,,,,,,,,,,,,,,,,,,,,,,,,,,,,,,,,,,,,,,,,,,,,,,,,,,,,,,155353.000000000,1701093189.569287539,-4.349999905,15.000000000,96.629997253,0.467000008,-0.386999995,-0.172000006
1701093189.585850,,,,,,,,,,,,,,,,,,,,,,,,,,,,,,,,,,,,,,,,,,,,,,,,,,,,,,,,,,,,,,,,,155354.000000000,1701093189.585566998,-4.380000114,14.989999771,96.610000610,0.469000012,-0.384000003,-0.172999993
1701093189.601932,,,,,,,,,,,,,,,,,,,,,,,,,,,,,,,,,,,,,,,,,,,,,,,,,,,,,,,,,,,,,,,,,155355.000000000,1701093189.601844072,-4.429999828,15.029999733,96.660003662,0.469999999,-0.382999986,-0.172999993
1701093189.603310,-0.699445069,0.007527950,-0.018966834,0.002270890,-2.484375480,0.479228130,-6.148389773,0.015516218,0.030473275,-0.085219260,0.000350312,-0.000390415,0.165945441,0.000677032,-0.000955350,-0.001252725,-0.000056813,1.000000000,1.000000000,-2.427066707,0.117426417,0.908530932,17.515624520,3.128861666,-19.520771870,33.851610227,-0.716512727,-0.626362644,-0.085219260,0.000000000,0.000000000,0.000000000,0.000000000,0.000000000,-0.015864268,0.000000000,0.000000000,0.000000000,0.000000000,0.000000000,0.000000000,0.000000000,0.000000000,0.000000000,0.000000000,0.787732840,0.000000000,0.000000000,0.000000000,0.000000000,0.000000000,0.000000000,0.000000000,0.000000000,0.000000000,32764.000000000,-0.698949370,-524315568.000000000,32764.000000000,0.000000000,0.000000000,0.008022333,0.165279277,-3.140332283,,,,,,,,
1701093189.618212,,,,,,,,,,,,,,,,,,,,,,,,,,,,,,,,,,,,,,,,,,,,,,,,,,,,,,,,,,,,,,,,,155356.000000000,1701093189.618091822,-4.429999828,15.079999924,96.620002747,0.467000008,-0.384000003,-0.174999997
1701093189.634552,,,,,,,,,,,,,,,,,,,,,,,,,,,,,,,,,,,,,,,,,,,,,,,,,,,,,,,,,,,,,,,,,155357.000000000,1701093189.634355307,-4.349999905,15.010000229,96.650001526,0.467000008,-0.386999995,-0.175999999
1701093189.650851,,,,,,,,,,,,,,,,,,,,,,,,,,,,,,,,,,,,,,,,,,,,,,,,,,,,,,,,,,,,,,,,,155358.000000000,1701093189.650629044,-4.480000019,14.949999809,96.650001526,0.470999986,-0.381000012,-0.175999999
1701093189.666896,,,,,,,,,,,,,,,,,,,,,,,,,,,,,,,,,,,,,,,,,,,,,,,,,,,,,,,,,,,,,,,,,155359.000000000,1701093189.666859150,-4.400000095,15.039999962,96.620002747,0.472999990,-0.382999986,-0.172999993
1701093189.683307,,,,,,,,,,,,,,,,,,,,,,,,,,,,,,,,,,,,,,,,,,,,,,,,,,,,,,,,,,,,,,,,,155360.000000000,1701093189.683088541,-4.440000057,15.069999695,96.660003662,0.467999995,-0.381999999,-0.172999993
1701093189.697917,-0.699445069,0.007527950,-0.018967084,0.002270989,-2.486375502,0.472228112,-6.149389224,0.015416218,0.030523274,-0.085369259,0.000350272,-0.000390555,0.165945441,0.000677012,-0.000955834,-0.001252475,-0.000056913,1.000000000,1.000000000,-2.427811488,0.117546417,0.909180941,17.513624498,3.128861666,-19.527771888,33.850610776,-0.716875228,-0.626237644,-0.085369259,0.000000000,0.000000000,0.000000000,0.000000000,0.000000000,-0.015864268,0.000000000,0.000000000,0.000000000,0.000000000,0.000000000,0.000000000,0.000000000,0.000000000,0.000000000,0.000000000,0.787732840,0.000000000,0.000000000,0.000000000,0.000000000,0.000000000,0.000000000,0.000000000,0.000000000,0.000000000,32764.000000000,-0.698949437,-524315568.000000000,32764.000000000,0.000000000,0.000000000,0.008022524,0.165279296,-3.140332769,,,,,,,,
1701093189.699577,,,,,,,,,,,,,,,,,,,,,,,,,,,,,,,,,,,,,,,,,,,,,,,,,,,,,,,,,,,,,,,,,155361.000000000,1701093189.699361086,-4.380000114,15.100000381,96.669998169,0.470999986,-0.384000003,-0.175999999
1701093189.711722,,,,,,,,,,,,,,,,,,,,,,,,,,,,,,,,,,,,,,,,,,,,,,,,,,,,,,,,,,,,,,,,,155362.000000000,1701093189.711565256,-4.389999866,15.109999657,96.650001526,0.470999986,-0.384000003,-0.175999999
1701093189.728096,,,,,,,,,,,,,,,,,,,,,,,,,,,,,,,,,,,,,,,,,,,,,,,,,,,,,,,,,,,,,,,,,155363.000000000,1701093189.727833509,-4.260000229,15.039999962,96.669998169,0.469000012,-0.386000007,-0.172999993
1701093189.744349,,,,,,,,,,,,,,,,,,,,,,,,,,,,,,,,,,,,,,,,,,,,,,,,,,,,,,,,,,,,,,,,,155364.000000000,1701093189.744110346,-4.280000210,14.989999771,96.669998169,0.467000008,-0.386000007,-0.172999993
1701093189.760597,,,,,,,,,,,,,,,,,,,,,,,,,,,,,,,,,,,,,,,,,,,,,,,,,,,,,,,,,,,,,,,,,155365.000000000,1701093189.760370731,-4.400000095,15.109999657,96.620002747,0.472000003,-0.382999986,-0.175999999
1701093189.776665,,,,,,,,,,,,,,,,,,,,,,,,,,,,,,,,,,,,,,,,,,,,,,,,,,,,,,,,,,,,,,,,,155366.000000000,1701093189.776564360,-4.440000057,15.079999924,96.650001526,0.469999999,-0.384000003,-0.172999993
1701093189.793009,,,,,,,,,,,,,,,,,,,,,,,,,,,,,,,,,,,,,,,,,,,,,,,,,,,,,,,,,,,,,,,,,155367.000000000,1701093189.792806149,-4.449999809,15.069999695,96.650001526,0.467999995,-0.381999999,-0.173999995
1701093189.797874,-0.699445069,0.007527950,-0.018963509,0.002270997,-2.457375529,0.470728078,-6.139889483,0.015566217,0.029823273,-0.085369258,0.000350852,-0.000390585,0.165945441,0.000677202,-0.000955709,-0.001256050,-0.000056913,1.000000000,1.000000000,-2.423914093,0.115831417,0.897580953,17.542624471,3.128861666,-19.529271922,33.860110517,-0.716781480,-0.628025145,-0.085369258,0.000000000,0.000000000,0.000000000,0.000000000,0.000000000,-0.015864268,0.000000000,0.000000000,0.000000000,0.000000000,0.000000000,0.000000000,0.000000000,0.000000000,0.000000000,0.000000000,0.787732840,0.000000000,0.000000000,0.000000000,0.000000000,0.000000000,0.000000000,0.000000000,0.000000000,0.000000000,32764.000000000,-0.698948474,-524315568.000000000,32764.000000000,0.000000000,0.000000000,0.008022543,0.165279125,-3.140332644,,,,,,,,
1701093189.809509,,,,,,,,,,,,,,,,,,,,,,,,,,,,,,,,,,,,,,,,,,,,,,,,,,,,,,,,,,,,,,,,,155368.000000000,1701093189.809128523,-4.389999866,15.100000381,96.580001831,0.470999986,-0.384000003,-0.172999993
1701093189.825569,,,,,,,,,,,,,,,,,,,,,,,,,,,,,,,,,,,,,,,,,,,,,,,,,,,,,,,,,,,,,,,,,155369.000000000,1701093189.825384617,-4.449999809,15.039999962,96.620002747,0.470999986,-0.381999999,-0.172999993
1701093189.841773,,,,,,,,,,,,,,,,,,,,,,,,,,,,,,,,,,,,,,,,,,,,,,,,,,,,,,,,,,,,,,,,,155370.000000000,1701093189.841614485,-4.380000114,15.000000000,96.620002747,0.469000012,-0.384999990,-0.173999995
1701093189.858138,,,,,,,,,,,,,,,,,,,,,,,,,,,,,,,,,,,,,,,,,,,,,,,,,,,,,,,,,,,,,,,,,155371.000000000,1701093189.857864857,-4.400000095,15.020000458,96.650001526,0.465000004,-0.382999986,-0.172999993
1701093189.874585,,,,,,,,,,,,,,,,,,,,,,,,,,,,,,,,,,,,,,,,,,,,,,,,,,,,,,,,,,,,,,,,,155372.000000000,1701093189.874129057,-4.369999886,15.000000000,96.660003662,0.465000004,-0.384999990,-0.173999995
1701093189.890731,,,,,,,,,,,,,,,,,,,,,,,,,,,,,,,,,,,,,,,,,,,,,,,,,,,,,,,,,,,,,,,,,155373.000000000,1701093189.890385151,-4.489999771,15.090000153,96.620002747,0.469999999,-0.381000012,-0.170000002
1701093189.896393,-0.699445069,0.007527950,-0.018964197,0.002270995,-2.463875511,0.466228118,-6.143389086,0.015416218,0.029923273,-0.085369257,0.000350722,-0.000390675,0.165945441,0.000677132,-0.000956134,-0.001255363,-0.000056913,1.000000000,1.000000000,-2.425621433,0.116158916,0.900180948,17.536124489,3.128861666,-19.533771882,33.856610914,-0.717100228,-0.627681395,-0.085369257,0.000000000,0.000000000,0.000000000,0.000000000,0.000000000,-0.015864268,0.000000000,0.000000000,0.000000000,0.000000000,0.000000000,0.000000000,0.000000000,0.000000000,0.000000000,0.000000000,0.787732840,0.000000000,0.000000000,0.000000000,0.000000000,0.000000000,0.000000000,0.000000000,0.000000000,0.000000000,32764.000000000,-0.698948679,-524315568.000000000,32764.000000000,0.000000000,0.000000000,0.008022678,0.165279191,-3.140333069,,,,,,,,
1701093189.906937,,,,,,,,,,,,,,,,,,,,,,,,,,,,,,,,,,,,,,,,,,,,,,,,,,,,,,,,,,,,,,,,,155374.000000000,1701093189.906638145,-4.480000019,15.130000114,96.599998474,0.469000012,-0.382999986,-0.172000006
1701093189.923177,,,,,,,,,,,,,,,,,,,,,,,,,,,,,,,,,,,,,,,,,,,,,,,,,,,,,,,,,,,,,,,,,155375.000000000,1701093189.922899246,-4.360000134,15.069999695,96.680000305,0.467000008,-0.384000003,-0.170000002
1701093189.939452,,,,,,,,,,,,,,,,,,,,,,,,,,,,,,,,,,,,,,,,,,,,,,,,,,,,,,,,,,,,,,,,,155376.000000000,1701093189.939177990,-4.469999790,15.079999924,96.599998474,0.472000003,-0.381000012,-0.172999993
1701093189.955515,,,,,,,,,,,,,,,,,,,,,,,,,,,,,,,,,,,,,,,,,,,,,,,,,,,,,,,,,,,,,,,,,155377.000000000,1701093189.955412388,-4.460000038,15.039999962,96.639999390,0.472000003,-0.381000012,-0.174999997
1701093189.967801,,,,,,,,,,,,,,,,,,,,,,,,,,,,,,,,,,,,,,,,,,,,,,,,,,,,,,,,,,,,,,,,,155378.000000000,1701093189.967615843,-4.440000057,15.069999695,96.650001526,0.467999995,-0.381999999,-0.174999997
1701093189.984175,,,,,,,,,,,,,,,,,,,,,,,,,,,,,,,,,,,,,,,,,,,,,,,,,,,,,,,,,,,,,,,,,155379.000000000,1701093189.983898878,-4.469999790,15.010000229,96.650001526,0.467000008,-0.381999999,-0.172999993
1701093190.000254,,,,,,,,,,,,,,,,,,,,,,,,,,,,,,,,,,,,,,,,,,,,,,,,,,,,,,,,,,,,,,,,,155380.000000000,1701093190.000146627,-4.460000038,15.039999962,96.610000610,0.470999986,-0.381000012,-0.172000006
1701093190.005053,-0.699445069,0.007527950,-0.018966059,0.002270691,-2.475375512,0.479728141,-6.145389895,0.015466218,0.030423271,-0.084919258,0.000350492,-0.000390405,0.165945441,0.000677092,-0.000955392,-0.001253500,-0.000056613,1.000000000,1.000000000,-2.425899255,0.117061414,0.905230947,17.524624488,3.128861666,-19.520271859,33.854610105,-0.716543976,-0.626750147,-0.084919258,0.000000000,0.000000000,0.000000000,0.000000000,0.000000000,-0.015864268,0.000000000,0.000000000,0.000000000,0.000000000,0.000000000,0.000000000,0.000000000,0.000000000,0.000000000,0.000000000,0.787732840,0.000000000,0.000000000,0.000000000,0.000000000,0.000000000,0.000000000,0.000000000,0.000000000,0.000000000,32764.000000000,-0.698949107,-524315568.000000000,32764.000000000,0.000000000,0.000000000,0.008022328,0.165279222,-3.140332321,,,,,,,,
1701093190.016544,,,,,,,,,,,,,,,,,,,,,,,,,,,,,,,,,,,,,,,,,,,,,,,,,,,,,,,,,,,,,,,,,155381.000000000,1701093190.016403437,-4.389999866,15.090000153,96.639999390,0.472000003,-0.382999986,-0.174999997
1701093190.032886,,,,,,,,,,,,,,,,,,,,,,,,,,,,,,,,,,,,,,,,,,,,,,,,,,,,,,,,,,,,,,,,,155382.000000000,1701093190.032670975,-4.469999790,15.170000076,96.639999390,0.469999999,-0.379000008,-0.175999999
1701093190.048996,,,,,,,,,,,,,,,,,,,,,,,,,,,,,,,,,,,,,,,,,,,,,,,,,,,,,,,,,,,,,,,,,155383.000000000,1701093190.048903942,-4.420000076,15.069999695,96.629997253,0.469000012,-0.384000003,-0.173999995
1701093190.065326,,,,,,,,,,,,,,,,,,,,,,,,,,,,,,,,,,,,,,,,,,,,,,,,,,,,,,,,,,,,,,,,,155384.000000000,1701093190.065148592,-4.449999809,15.050000191,96.650001526,0.472000003,-0.381000012,-0.174999997
1701093190.081723,,,,,,,,,,,,,,,,,,,,,,,,,,,,,,,,,,,,,,,,,,,,,,,,,,,,,,,,,,,,,,,,,155385.000000000,1701093190.081410646,-4.369999886,15.100000381,96.620002747,0.472999990,-0.386000007,-0.172999993
