__time,/plot_data/data.0,/plot_data/data.1,/plot_data/data.10,/plot_data/data.11,/plot_data/data.12,/plot_data/data.13,/plot_data/data.14,/plot_data/data.15,/plot_data/data.16,/plot_data/data.17,/plot_data/data.18,/plot_data/data.19,/plot_data/data.2,/plot_data/data.20,/plot_data/data.21,/plot_data/data.22,/plot_data/data.23,/plot_data/data.24,/plot_data/data.25,/plot_data/data.26,/plot_data/data.27,/plot_data/data.28,/plot_data/data.29,/plot_data/data.3,/plot_data/data.30,/plot_data/data.31,/plot_data/data.32,/plot_data/data.33,/plot_data/data.34,/plot_data/data.35,/plot_data/data.36,/plot_data/data.37,/plot_data/data.38,/plot_data/data.39,/plot_data/data.4,/plot_data/data.40,/plot_data/data.41,/plot_data/data.42,/plot_data/data.43,/plot_data/data.44,/plot_data/data.45,/plot_data/data.46,/plot_data/data.47,/plot_data/data.48,/plot_data/data.49,/plot_data/data.5,/plot_data/data.50,/plot_data/data.51,/plot_data/data.52,/plot_data/data.53,/plot_data/data.54,/plot_data/data.55,/plot_data/data.56,/plot_data/data.57,/plot_data/data.58,/plot_data/data.59,/plot_data/data.6,/plot_data/data.60,/plot_data/data.61,/plot_data/data.62,/plot_data/data.63,/plot_data/data.7,/plot_data/data.8,/plot_data/data.9,/robotiq_ft_wrench/header/seq,/robotiq_ft_wrench/header/stamp,/robotiq_ft_wrench/wrench/force/x,/robotiq_ft_wrench/wrench/force/y,/robotiq_ft_wrench/wrench/force/z,/robotiq_ft_wrench/wrench/torque/x,/robotiq_ft_wrench/wrench/torque/y,/robotiq_ft_wrench/wrench/torque/z
1701093254.096832,,,,,,,,,,,,,,,,,,,,,,,,,,,,,,,,,,,,,,,,,,,,,,,,,,,,,,,,,,,,,,,,,159384.000000000,1701093254.096702099,-0.050000001,16.000000000,98.410003662,0.560000002,-0.419999987,-0.005000000
1701093254.113186,,,,,,,,,,,,,,,,,,,,,,,,,,,,,,,,,,,,,,,,,,,,,,,,,,,,,,,,,,,,,,,,,159385.000000000,1701093254.112962723,-0.029999999,16.180000305,98.419998169,0.555999994,-0.423000008,-0.021000000
1701093254.129451,,,,,,,,,,,,,,,,,,,,,,,,,,,,,,,,,,,,,,,,,,,,,,,,,,,,,,,,,,,,,,,,,159386.000000000,1701093254.129233122,-0.050000001,16.329999924,98.379997253,0.549000025,-0.421999991,-0.028000001
1701093254.145620,,,,,,,,,,,,,,,,,,,,,,,,,,,,,,,,,,,,,,,,,,,,,,,,,,,,,,,,,,,,,,,,,159387.000000000,1701093254.145489454,-0.100000001,16.239999771,98.430000305,0.547999978,-0.421999991,-0.013000000
1701093254.161880,,,,,,,,,,,,,,,,,,,,,,,,,,,,,,,,,,,,,,,,,,,,,,,,,,,,,,,,,,,,,,,,,159388.000000000,1701093254.161721230,-0.150000006,16.079999924,98.510002136,0.568000019,-0.414000005,-0.008000000
1701093254.178212,,,,,,,,,,,,,,,,,,,,,,,,,,,,,,,,,,,,,,,,,,,,,,,,,,,,,,,,,,,,,,,,,159389.000000000,1701093254.177997589,-0.020000000,16.149999619,98.480003357,0.564999998,-0.423999995,-0.017000001
1701093254.194365,,,,,,,,,,,,,,,,,,,,,,,,,,,,,,,,,,,,,,,,,,,,,,,,,,,,,,,,,,,,,,,,,159390.000000000,1701093254.194239378,-0.109999999,16.250000000,98.440002441,0.541999996,-0.419999987,-0.023000000
1701093254.195819,-0.699445069,0.007527950,-0.018569727,0.002166751,1.836624476,1.581728139,-4.339390139,0.101516216,-0.005926727,0.072280738,0.000436732,-0.000368365,0.165945441,0.000713212,-0.000785559,-0.001649600,0.000048187,1.000000000,1.000000000,-1.578879355,-0.070208584,-0.662369052,21.836624476,3.128861666,-18.418271861,35.660609861,-0.589168979,-0.824800145,0.072280738,0.000000000,0.000000000,0.000000000,0.000000000,0.000000000,-0.015864268,0.000000000,0.000000000,0.000000000,0.000000000,0.000000000,0.000000000,0.000000000,0.000000000,0.000000000,0.000000000,0.787732840,0.000000000,0.000000000,0.000000000,0.000000000,0.000000000,0.000000000,0.000000000,0.000000000,0.000000000,32764.000000000,-0.698820036,-524315568.000000000,32764.000000000,0.000000000,0.000000000,0.007982618,0.165245569,-3.140160385,,,,,,,,
1701093254.210762,,,,,,,,,,,,,,,,,,,,,,,,,,,,,,,,,,,,,,,,,,,,,,,,,,,,,,,,,,,,,,,,,159391.000000000,1701093254.210486174,-0.020000000,16.200000763,98.389999390,0.538999975,-0.428999990,-0.017000001
1701093254.226946,,,,,,,,,,,,,,,,,,,,,,,,,,,,,,,,,,,,,,,,,,,,,,,,,,,,,,,,,,,,,,,,,159392.000000000,1701093254.226746798,-0.150000006,16.000000000,98.430000305,0.568000019,-0.414999992,-0.009000000
1701093254.243083,,,,,,,,,,,,,,,,,,,,,,,,,,,,,,,,,,,,,,,,,,,,,,,,,,,,,,,,,,,,,,,,,159393.000000000,1701093254.242974997,-0.180000007,16.219999313,98.440002441,0.560999990,-0.412000000,-0.022000000
1701093254.259407,,,,,,,,,,,,,,,,,,,,,,,,,,,,,,,,,,,,,,,,,,,,,,,,,,,,,,,,,,,,,,,,,159394.000000000,1701093254.259214163,-0.200000003,16.280000687,98.470001221,0.541999996,-0.416999996,-0.024000000
1701093254.275701,,,,,,,,,,,,,,,,,,,,,,,,,,,,,,,,,,,,,,,,,,,,,,,,,,,,,,,,,,,,,,,,,159395.000000000,1701093254.275490761,-0.239999995,16.170000076,98.459999084,0.545000017,-0.411000013,-0.011000000
1701093254.288046,,,,,,,,,,,,,,,,,,,,,,,,,,,,,,,,,,,,,,,,,,,,,,,,,,,,,,,,,,,,,,,,,159396.000000000,1701093254.287697315,-0.129999995,16.030000687,98.500000000,0.568000019,-0.418000013,-0.009000000
1701093254.296321,-0.699445069,0.007527950,-0.018570677,0.002166649,1.826624476,1.596728196,-4.342890124,0.100666221,-0.005826725,0.072430738,0.000436532,-0.000368065,0.165945441,0.000713142,-0.000785942,-0.001648650,0.000048287,1.000000000,1.000000000,-1.580604341,-0.069758582,-0.658219052,21.826624476,3.128861666,-18.403271804,35.657109876,-0.589456471,-0.824325143,0.072430738,0.000000000,0.000000000,0.000000000,0.000000000,0.000000000,-0.015864268,0.000000000,0.000000000,0.000000000,0.000000000,0.000000000,0.000000000,0.000000000,0.000000000,0.000000000,0.000000000,0.787732840,0.000000000,0.000000000,0.000000000,0.000000000,0.000000000,0.000000000,0.000000000,0.000000000,0.000000000,32764.000000000,-0.698820337,-524315568.000000000,32764.000000000,0.000000000,0.000000000,0.007982358,0.165245632,-3.140160766,,,,,,,,
1701093254.304107,,,,,,,,,,,,,,,,,,,,,,,,,,,,,,,,,,,,,,,,,,,,,,,,,,,,,,,,,,,,,,,,,159397.000000000,1701093254.303942919,-0.239999995,16.100000381,98.419998169,0.568000019,-0.409999996,-0.020000000
1701093254.320503,,,,,,,,,,,,,,,,,,,,,,,,,,,,,,,,,,,,,,,,,,,,,,,,,,,,,,,,,,,,,,,,,159398.000000000,1701093254.320199251,-0.039999999,16.309999466,98.410003662,0.528999984,-0.428000003,-0.020000000
1701093254.336784,,,,,,,,,,,,,,,,,,,,,,,,,,,,,,,,,,,,,,,,,,,,,,,,,,,,,,,,,,,,,,,,,159399.000000000,1701093254.336502314,-0.219999999,16.149999619,98.440002441,0.536000013,-0.409999996,-0.012000000
1701093254.352865,,,,,,,,,,,,,,,,,,,,,,,,,,,,,,,,,,,,,,,,,,,,,,,,,,,,,,,,,,,,,,,,,159400.000000000,1701093254.352745533,-0.059999999,15.939999580,98.440002441,0.578999996,-0.423999995,-0.012000000
1701093254.369111,,,,,,,,,,,,,,,,,,,,,,,,,,,,,,,,,,,,,,,,,,,,,,,,,,,,,,,,,,,,,,,,,159401.000000000,1701093254.368977308,-0.280000001,16.030000687,98.430000305,0.574000001,-0.405000001,-0.017999999
1701093254.385450,,,,,,,,,,,,,,,,,,,,,,,,,,,,,,,,,,,,,,,,,,,,,,,,,,,,,,,,,,,,,,,,,159402.000000000,1701093254.385243177,-0.039999999,16.340000153,98.400001526,0.527999997,-0.428999990,-0.021000000
1701093254.397523,-0.699445069,0.007527950,-0.018573177,0.002166510,1.814624477,1.574228206,-4.346389727,0.100366222,-0.005026725,0.072630738,0.000436292,-0.000368515,0.165945441,0.000713072,-0.000787467,-0.001646150,0.000048420,1.000000000,1.000000000,-1.583091682,-0.068538582,-0.653219052,21.814624477,3.128861666,-18.425771794,35.653610273,-0.590600220,-0.823075143,0.072630738,0.000000000,0.000000000,0.000000000,0.000000000,0.000000000,-0.015864268,0.000000000,0.000000000,0.000000000,0.000000000,0.000000000,0.000000000,0.000000000,0.000000000,0.000000000,0.000000000,0.787732840,0.000000000,0.000000000,0.000000000,0.000000000,0.000000000,0.000000000,0.000000000,0.000000000,0.000000000,32764.000000000,-0.698820845,-524315568.000000000,32764.000000000,0.000000000,0.000000000,0.007982969,0.165245693,-3.140162289,,,,,,,,
1701093254.401810,,,,,,,,,,,,,,,,,,,,,,,,,,,,,,,,,,,,,,,,,,,,,,,,,,,,,,,,,,,,,,,,,159403.000000000,1701093254.401520252,-0.200000003,16.290000916,98.419998169,0.527999997,-0.412000000,-0.017999999
1701093254.417815,,,,,,,,,,,,,,,,,,,,,,,,,,,,,,,,,,,,,,,,,,,,,,,,,,,,,,,,,,,,,,,,,159404.000000000,1701093254.417750597,0.000000000,15.930000305,98.470001221,0.574000001,-0.425000012,-0.013000000
1701093254.434020,,,,,,,,,,,,,,,,,,,,,,,,,,,,,,,,,,,,,,,,,,,,,,,,,,,,,,,,,,,,,,,,,159405.000000000,1701093254.433978319,-0.159999996,16.120000839,98.470001221,0.560000002,-0.419999987,-0.017999999
1701093254.450481,,,,,,,,,,,,,,,,,,,,,,,,,,,,,,,,,,,,,,,,,,,,,,,,,,,,,,,,,,,,,,,,,159406.000000000,1701093254.450229168,-0.100000001,16.239999771,98.449996948,0.532999992,-0.425999999,-0.020000000
1701093254.466677,,,,,,,,,,,,,,,,,,,,,,,,,,,,,,,,,,,,,,,,,,,,,,,,,,,,,,,,,,,,,,,,,159407.000000000,1701093254.466472387,-0.070000000,16.229999542,98.480003357,0.546000004,-0.423000008,-0.016000001
1701093254.483004,,,,,,,,,,,,,,,,,,,,,,,,,,,,,,,,,,,,,,,,,,,,,,,,,,,,,,,,,,,,,,,,,159408.000000000,1701093254.482758045,-0.090000004,16.069999695,98.440002441,0.573000014,-0.423000008,-0.014000000
1701093254.497459,-0.699445069,0.007527950,-0.018572766,0.002167078,1.808124477,1.572728267,-4.339389758,0.099116220,-0.005476727,0.071780739,0.000436162,-0.000368545,0.165945441,0.000713212,-0.000789209,-0.001646563,0.000047854,1.000000000,1.000000000,-1.581594193,-0.068761084,-0.651469052,21.808124477,3.128861666,-18.427271733,35.660610242,-0.591906470,-0.823281395,0.071780739,0.000000000,0.000000000,0.000000000,0.000000000,0.000000000,-0.015864268,0.000000000,0.000000000,0.000000000,0.000000000,0.000000000,0.000000000,0.000000000,0.000000000,0.000000000,0.000000000,0.787732840,0.000000000,0.000000000,0.000000000,0.000000000,0.000000000,0.000000000,0.000000000,0.000000000,0.000000000,32764.000000000,-0.698820929,-524315568.000000000,32764.000000000,0.000000000,0.000000000,0.007983184,0.165245552,-3.140164042,,,,,,,,
1701093254.499160,,,,,,,,,,,,,,,,,,,,,,,,,,,,,,,,,,,,,,,,,,,,,,,,,,,,,,,,,,,,,,,,,159409.000000000,1701093254.499037743,-0.100000001,16.010000229,98.419998169,0.565999985,-0.423000008,-0.015000000
1701093254.515426,,,,,,,,,,,,,,,,,,,,,,,,,,,,,,,,,,,,,,,,,,,,,,,,,,,,,,,,,,,,,,,,,159410.000000000,1701093254.515303850,-0.250000000,16.280000687,98.400001526,0.523999989,-0.411000013,-0.017000001
1701093254.531665,,,,,,,,,,,,,,,,,,,,,,,,,,,,,,,,,,,,,,,,,,,,,,,,,,,,,,,,,,,,,,,,,159411.000000000,1701093254.531561136,-0.070000000,16.219999313,98.400001526,0.537000000,-0.425000012,-0.017000001
1701093254.544072,,,,,,,,,,,,,,,,,,,,,,,,,,,,,,,,,,,,,,,,,,,,,,,,,,,,,,,,,,,,,,,,,159412.000000000,1701093254.543769360,-0.239999995,15.989999771,98.470001221,0.583999991,-0.405999988,-0.014000000
1701093254.560421,,,,,,,,,,,,,,,,,,,,,,,,,,,,,,,,,,,,,,,,,,,,,,,,,,,,,,,,,,,,,,,,,159413.000000000,1701093254.560078144,-0.090000004,16.059999466,98.459999084,0.573000014,-0.423000008,-0.015000000
1701093254.576773,,,,,,,,,,,,,,,,,,,,,,,,,,,,,,,,,,,,,,,,,,,,,,,,,,,,,,,,,,,,,,,,,159414.000000000,1701093254.576351643,-0.209999993,16.270000458,98.389999390,0.527000010,-0.412000000,-0.017999999
1701093254.592996,,,,,,,,,,,,,,,,,,,,,,,,,,,,,,,,,,,,,,,,,,,,,,,,,,,,,,,,,,,,,,,,,159415.000000000,1701093254.592603922,-0.119999997,16.120000839,98.459999084,0.559000015,-0.419000000,-0.016000001
1701093254.597740,-0.699445069,0.007527950,-0.018574265,0.002166708,1.800124478,1.556728282,-4.344890170,0.099516221,-0.005026730,0.072330739,0.000436002,-0.000368865,0.165945441,0.000713102,-0.000789475,-0.001645063,0.000048220,1.000000000,1.000000000,-1.583954357,-0.068031086,-0.647719053,21.800124478,3.128861666,-18.443271718,35.655109830,-0.592106468,-0.822531398,0.072330739,0.000000000,0.000000000,0.000000000,0.000000000,0.000000000,-0.015864268,0.000000000,0.000000000,0.000000000,0.000000000,0.000000000,0.000000000,0.000000000,0.000000000,0.000000000,0.000000000,0.787732840,0.000000000,0.000000000,0.000000000,0.000000000,0.000000000,0.000000000,0.000000000,0.000000000,0.000000000,32764.000000000,-0.698821251,-524315568.000000000,32764.000000000,0.000000000,0.000000000,0.007983531,0.165245657,-3.140164301,,,,,,,,
1701093254.609239,,,,,,,,,,,,,,,,,,,,,,,,,,,,,,,,,,,,,,,,,,,,,,,,,,,,,,,,,,,,,,,,,159416.000000000,1701093254.608891726,-0.230000004,16.010000229,98.489997864,0.582000017,-0.407000005,-0.014000000
1701093254.625535,,,,,,,,,,,,,,,,,,,,,,,,,,,,,,,,,,,,,,,,,,,,,,,,,,,,,,,,,,,,,,,,,159417.000000000,1701093254.625187159,-0.109999999,16.170000076,98.510002136,0.554000020,-0.419000000,-0.015000000
1701093254.641580,,,,,,,,,,,,,,,,,,,,,,,,,,,,,,,,,,,,,,,,,,,,,,,,,,,,,,,,,,,,,,,,,159418.000000000,1701093254.641424894,-0.200000003,16.270000458,98.459999084,0.531000018,-0.412000000,-0.016000001
1701093254.658097,,,,,,,,,,,,,,,,,,,,,,,,,,,,,,,,,,,,,,,,,,,,,,,,,,,,,,,,,,,,,,,,,159419.000000000,1701093254.657675028,-0.079999998,16.120000839,98.410003662,0.551999986,-0.419000000,-0.017000001
1701093254.674346,,,,,,,,,,,,,,,,,,,,,,,,,,,,,,,,,,,,,,,,,,,,,,,,,,,,,,,,,,,,,,,,,159420.000000000,1701093254.673948765,-0.010000000,16.010000229,98.459999084,0.577000022,-0.425000012,-0.014000000
1701093254.690405,,,,,,,,,,,,,,,,,,,,,,,,,,,,,,,,,,,,,,,,,,,,,,,,,,,,,,,,,,,,,,,,,159421.000000000,1701093254.690204859,-0.100000001,16.059999466,98.489997864,0.558000028,-0.416999996,-0.013000000
1701093254.697169,-0.699445069,0.007527950,-0.018572965,0.002166644,1.812124477,1.560728326,-4.335890536,0.099516224,-0.005226730,0.072430738,0.000436242,-0.000368785,0.165945441,0.000713282,-0.000789275,-0.001646363,0.000048287,1.000000000,1.000000000,-1.580214499,-0.068651087,-0.652419053,21.812124477,3.128861666,-18.439271674,35.664109464,-0.591956464,-0.823181398,0.072430738,0.000000000,0.000000000,0.000000000,0.000000000,0.000000000,-0.015864268,0.000000000,0.000000000,0.000000000,0.000000000,0.000000000,0.000000000,0.000000000,0.000000000,0.000000000,0.000000000,0.787732840,0.000000000,0.000000000,0.000000000,0.000000000,0.000000000,0.000000000,0.000000000,0.000000000,0.000000000,32764.000000000,-0.698820869,-524315568.000000000,32764.000000000,0.000000000,0.000000000,0.007983431,0.165245484,-3.140164100,,,,,,,,
1701093254.706784,,,,,,,,,,,,,,,,,,,,,,,,,,,,,,,,,,,,,,,,,,,,,,,,,,,,,,,,,,,,,,,,,159422.000000000,1701093254.706466675,-0.039999999,16.200000763,98.470001221,0.528999984,-0.428000003,-0.018999999
1701093254.723061,,,,,,,,,,,,,,,,,,,,,,,,,,,,,,,,,,,,,,,,,,,,,,,,,,,,,,,,,,,,,,,,,159423.000000000,1701093254.722732306,-0.170000002,16.159999847,98.470001221,0.546999991,-0.416999996,-0.020000000
1701093254.739337,,,,,,,,,,,,,,,,,,,,,,,,,,,,,,,,,,,,,,,,,,,,,,,,,,,,,,,,,,,,,,,,,159424.000000000,1701093254.739027977,-0.050000001,16.030000687,98.440002441,0.574000001,-0.425000012,-0.015000000
1701093254.755582,,,,,,,,,,,,,,,,,,,,,,,,,,,,,,,,,,,,,,,,,,,,,,,,,,,,,,,,,,,,,,,,,159425.000000000,1701093254.755300760,-0.200000003,16.180000305,98.449996948,0.541000009,-0.414000005,-0.014000000
1701093254.771703,,,,,,,,,,,,,,,,,,,,,,,,,,,,,,,,,,,,,,,,,,,,,,,,,,,,,,,,,,,,,,,,,159426.000000000,1701093254.771536589,-0.100000001,16.170000076,98.459999084,0.533999979,-0.425000012,-0.016000001
1701093254.788004,,,,,,,,,,,,,,,,,,,,,,,,,,,,,,,,,,,,,,,,,,,,,,,,,,,,,,,,,,,,,,,,,159427.000000000,1701093254.787778616,-0.140000001,16.139999390,98.510002136,0.564999998,-0.414000005,-0.017999999
1701093254.797979,-0.699445069,0.007527950,-0.018574652,0.002166507,1.805624477,1.547228303,-4.330390505,0.100566223,-0.004626732,0.072630738,0.000436112,-0.000369055,0.165945441,0.000713392,-0.000788550,-0.001644675,0.000048420,1.000000000,1.000000000,-1.577436989,-0.067823589,-0.649619052,21.805624477,3.128861666,-18.452771697,35.669609495,-0.591412716,-0.822337650,0.072630738,0.000000000,0.000000000,0.000000000,0.000000000,0.000000000,-0.015864268,0.000000000,0.000000000,0.000000000,0.000000000,0.000000000,0.000000000,0.000000000,0.000000000,0.000000000,0.000000000,0.787732840,0.000000000,0.000000000,0.000000000,0.000000000,0.000000000,0.000000000,0.000000000,0.000000000,0.000000000,32764.000000000,-0.698821177,-524315568.000000000,32764.000000000,0.000000000,0.000000000,0.007983623,0.165245368,-3.140163372,,,,,,,,
1701093254.800344,,,,,,,,,,,,,,,,,,,,,,,,,,,,,,,,,,,,,,,,,,,,,,,,,,,,,,,,,,,,,,,,,159428.000000000,1701093254.799992085,-0.100000001,16.090000153,98.529998779,0.573000014,-0.423000008,-0.016000001
1701093254.816614,,,,,,,,,,,,,,,,,,,,,,,,,,,,,,,,,,,,,,,,,,,,,,,,,,,,,,,,,,,,,,,,,159429.000000000,1701093254.816263676,-0.209999993,16.219999313,98.480003357,0.546000004,-0.416999996,-0.013000000
1701093254.832723,,,,,,,,,,,,,,,,,,,,,,,,,,,,,,,,,,,,,,,,,,,,,,,,,,,,,,,,,,,,,,,,,159430.000000000,1701093254.832456112,-0.200000003,16.250000000,98.480003357,0.546000004,-0.416999996,-0.020000000
1701093254.849104,,,,,,,,,,,,,,,,,,,,,,,,,,,,,,,,,,,,,,,,,,,,,,,,,,,,,,,,,,,,,,,,,159431.000000000,1701093254.848704338,-0.159999996,16.139999390,98.480003357,0.560999990,-0.416000009,-0.017999999
1701093254.865357,,,,,,,,,,,,,,,,,,,,,,,,,,,,,,,,,,,,,,,,,,,,,,,,,,,,,,,,,,,,,,,,,159432.000000000,1701093254.864965916,-0.070000000,16.129999161,98.449996948,0.564999998,-0.419000000,-0.016000001
1701093254.881517,,,,,,,,,,,,,,,,,,,,,,,,,,,,,,,,,,,,,,,,,,,,,,,,,,,,,,,,,,,,,,,,,159433.000000000,1701093254.881244659,-0.119999997,16.180000305,98.440002441,0.552999973,-0.416999996,-0.016000001
1701093254.896889,-0.699445069,0.007527950,-0.018574927,0.002166740,1.804624478,1.566228261,-4.316890292,0.099916222,-0.004526730,0.072280738,0.000436092,-0.000368675,0.165945441,0.000713662,-0.000788467,-0.001644400,0.000048187,1.000000000,1.000000000,-1.572021906,-0.067688587,-0.649569053,21.804624478,3.128861666,-18.433771739,35.683109708,-0.591350218,-0.822200148,0.072280738,0.000000000,0.000000000,0.000000000,0.000000000,0.000000000,-0.015864268,0.000000000,0.000000000,0.000000000,0.000000000,0.000000000,0.000000000,0.000000000,0.000000000,0.000000000,0.000000000,0.787732840,0.000000000,0.000000000,0.000000000,0.000000000,0.000000000,0.000000000,0.000000000,0.000000000,0.000000000,32764.000000000,-0.698821220,-524315568.000000000,32764.000000000,0.000000000,0.000000000,0.007983235,0.165245097,-3.140163293,,,,,,,,
1701093254.897752,,,,,,,,,,,,,,,,,,,,,,,,,,,,,,,,,,,,,,,,,,,,,,,,,,,,,,,,,,,,,,,,,159434.000000000,1701093254.897502422,-0.119999997,16.159999847,98.459999084,0.541999996,-0.418000013,-0.017999999
1701093254.914059,,,,,,,,,,,,,,,,,,,,,,,,,,,,,,,,,,,,,,,,,,,,,,,,,,,,,,,,,,,,,,,,,159435.000000000,1701093254.913761854,-0.050000001,16.059999466,98.500000000,0.564999998,-0.423000008,-0.017999999
1701093254.930335,,,,,,,,,,,,,,,,,,,,,,,,,,,,,,,,,,,,,,,,,,,,,,,,,,,,,,,,,,,,,,,,,159436.000000000,1701093254.930023193,-0.140000001,16.069999695,98.470001221,0.564000010,-0.416000009,-0.016000001
1701093254.946456,,,,,,,,,,,,,,,,,,,,,,,,,,,,,,,,,,,,,,,,,,,,,,,,,,,,,,,,,,,,,,,,,159437.000000000,1701093254.946286917,-0.100000001,16.219999313,98.440002441,0.542999983,-0.423999995,-0.015000000
1701093254.962827,,,,,,,,,,,,,,,,,,,,,,,,,,,,,,,,,,,,,,,,,,,,,,,,,,,,,,,,,,,,,,,,,159438.000000000,1701093254.962548971,-0.150000006,16.209999084,98.459999084,0.544000030,-0.419000000,-0.016000001
1701093254.979116,,,,,,,,,,,,,,,,,,,,,,,,,,,,,,,,,,,,,,,,,,,,,,,,,,,,,,,,,,,,,,,,,159439.000000000,1701093254.978817225,-0.100000001,16.129999161,98.470001221,0.564000010,-0.423000008,-0.016000001
1701093254.995243,,,,,,,,,,,,,,,,,,,,,,,,,,,,,,,,,,,,,,,,,,,,,,,,,,,,,,,,,,,,,,,,,159440.000000000,1701093254.995064497,-0.119999997,16.090000153,98.440002441,0.554000020,-0.416999996,-0.015000000
1701093254.996244,-0.699445069,0.007527950,-0.018571553,0.002166881,1.813624477,1.564727941,-4.313890032,0.099616220,-0.005876731,0.072080738,0.000436272,-0.000368705,0.165945441,0.000713722,-0.000788942,-0.001647775,0.000048054,1.000000000,1.000000000,-1.571174315,-0.069353587,-0.653369052,21.813624477,3.128861666,-18.435272059,35.686109968,-0.591706482,-0.823887649,0.072080738,0.000000000,0.000000000,0.000000000,0.000000000,0.000000000,-0.015864268,0.000000000,0.000000000,0.000000000,0.000000000,0.000000000,0.000000000,0.000000000,0.000000000,0.000000000,0.000000000,0.787732840,0.000000000,0.000000000,0.000000000,0.000000000,0.000000000,0.000000000,0.000000000,0.000000000,0.000000000,32764.000000000,-0.698820680,-524315568.000000000,32764.000000000,0.000000000,0.000000000,0.007983317,0.165245047,-3.140163771,,,,,,,,
1701093255.011663,,,,,,,,,,,,,,,,,,,,,,,,,,,,,,,,,,,,,,,,,,,,,,,,,,,,,,,,,,,,,,,,,159441.000000000,1701093255.011331320,-0.079999998,16.149999619,98.419998169,0.545000017,-0.423999995,-0.016000001
1701093255.027906,,,,,,,,,,,,,,,,,,,,,,,,,,,,,,,,,,,,,,,,,,,,,,,,,,,,,,,,,,,,,,,,,159442.000000000,1701093255.027600050,-0.119999997,16.180000305,98.410003662,0.552999973,-0.419000000,-0.017999999
1701093255.044100,,,,,,,,,,,,,,,,,,,,,,,,,,,,,,,,,,,,,,,,,,,,,,,,,,,,,,,,,,,,,,,,,159443.000000000,1701093255.043868780,-0.050000001,16.129999161,98.419998169,0.561999977,-0.423000008,-0.016000001
1701093255.056103,,,,,,,,,,,,,,,,,,,,,,,,,,,,,,,,,,,,,,,,,,,,,,,,,,,,,,,,,,,,,,,,,159444.000000000,1701093255.056045055,-0.129999995,16.159999847,98.400001526,0.556999981,-0.416999996,-0.014000000
1701093255.072444,,,,,,,,,,,,,,,,,,,,,,,,,,,,,,,,,,,,,,,,,,,,,,,,,,,,,,,,,,,,,,,,,159445.000000000,1701093255.072281599,-0.170000002,16.219999313,98.410003662,0.544000030,-0.416000009,-0.016000001
1701093255.088699,,,,,,,,,,,,,,,,,,,,,,,,,,,,,,,,,,,,,,,,,,,,,,,,,,,,,,,,,,,,,,,,,159446.000000000,1701093255.088541985,-0.140000001,16.209999084,98.389999390,0.551999986,-0.416999996,-0.018999999
1701093255.097701,-0.699445069,0.007527950,-0.018572665,0.002166945,1.812124478,1.577227750,-4.330389743,0.101116218,-0.005376730,0.071980738,0.000436242,-0.000368455,0.165945441,0.000713392,-0.000786317,-0.001646663,0.000047987,1.000000000,1.000000000,-1.575836707,-0.068801086,-0.652869053,21.812124478,3.128861666,-18.422772250,35.669610257,-0.589737741,-0.823331398,0.071980738,0.000000000,0.000000000,0.000000000,0.000000000,0.000000000,-0.015864268,0.000000000,0.000000000,0.000000000,0.000000000,0.000000000,0.000000000,0.000000000,0.000000000,0.000000000,0.000000000,0.787732840,0.000000000,0.000000000,0.000000000,0.000000000,0.000000000,0.000000000,0.000000000,0.000000000,0.000000000,32764.000000000,-0.698820834,-524315568.000000000,32764.000000000,0.000000000,0.000000000,0.007982787,0.165245373,-3.140161147,,,,,,,,
1701093255.104920,,,,,,,,,,,,,,,,,,,,,,,,,,,,,,,,,,,,,,,,,,,,,,,,,,,,,,,,,,,,,,,,,159447.000000000,1701093255.104839563,-0.150000006,16.100000381,98.449996948,0.563000023,-0.416000009,-0.016000001
1701093255.121351,,,,,,,,,,,,,,,,,,,,,,,,,,,,,,,,,,,,,,,,,,,,,,,,,,,,,,,,,,,,,,,,,159448.000000000,1701093255.121099472,-0.150000006,16.110000610,98.449996948,0.556999981,-0.416999996,-0.015000000
1701093255.137660,,,,,,,,,,,,,,,,,,,,,,,,,,,,,,,,,,,,,,,,,,,,,,,,,,,,,,,,,,,,,,,,,159449.000000000,1701093255.137389421,-0.129999995,16.090000153,98.449996948,0.546000004,-0.416999996,-0.016000001
1701093255.153804,,,,,,,,,,,,,,,,,,,,,,,,,,,,,,,,,,,,,,,,,,,,,,,,,,,,,,,,,,,,,,,,,159450.000000000,1701093255.153647423,-0.140000001,16.159999847,98.459999084,0.559000015,-0.421000004,-0.017000001
1701093255.170124,,,,,,,,,,,,,,,,,,,,,,,,,,,,,,,,,,,,,,,,,,,,,,,,,,,,,,,,,,,,,,,,,159451.000000000,1701093255.169888735,-0.159999996,16.159999847,98.449996948,0.561999977,-0.416999996,-0.017999999
1701093255.186533,,,,,,,,,,,,,,,,,,,,,,,,,,,,,,,,,,,,,,,,,,,,,,,,,,,,,,,,,,,,,,,,,159452.000000000,1701093255.186170578,-0.079999998,16.180000305,98.500000000,0.550000012,-0.421999991,-0.014000000
1701093255.196936,-0.699445069,0.007527950,-0.018572003,0.002166780,1.815624477,1.568727937,-4.338890795,0.100166219,-0.005576729,0.072230738,0.000436312,-0.000368625,0.165945441,0.000713222,-0.000788009,-0.001647325,0.000048154,1.000000000,1.000000000,-1.580484622,-0.069123585,-0.654019053,21.815624477,3.128861666,-18.431272063,35.661109205,-0.591006484,-0.823662647,0.072230738,0.000000000,0.000000000,0.000000000,0.000000000,0.000000000,-0.015864268,0.000000000,0.000000000,0.000000000,0.000000000,0.000000000,0.000000000,0.000000000,0.000000000,0.000000000,0.000000000,0.787732840,0.000000000,0.000000000,0.000000000,0.000000000,0.000000000,0.000000000,0.000000000,0.000000000,0.000000000,32764.000000000,-0.698820698,-524315568.000000000,32764.000000000,0.000000000,0.000000000,0.007983137,0.165245547,-3.140162836,,,,,,,,
1701093255.202782,,,,,,,,,,,,,,,,,,,,,,,,,,,,,,,,,,,,,,,,,,,,,,,,,,,,,,,,,,,,,,,,,159453.000000000,1701093255.202454805,-0.119999997,16.159999847,98.510002136,0.547999978,-0.416999996,-0.014000000
1701093255.218878,,,,,,,,,,,,,,,,,,,,,,,,,,,,,,,,,,,,,,,,,,,,,,,,,,,,,,,,,,,,,,,,,159454.000000000,1701093255.218698978,-0.109999999,16.100000381,98.430000305,0.560000002,-0.421000004,-0.016000001
1701093255.235207,,,,,,,,,,,,,,,,,,,,,,,,,,,,,,,,,,,,,,,,,,,,,,,,,,,,,,,,,,,,,,,,,159455.000000000,1701093255.234928846,-0.119999997,16.069999695,98.440002441,0.555000007,-0.419000000,-0.017000001
1701093255.251555,,,,,,,,,,,,,,,,,,,,,,,,,,,,,,,,,,,,,,,,,,,,,,,,,,,,,,,,,,,,,,,,,159456.000000000,1701093255.251199484,-0.039999999,16.170000076,98.489997864,0.547999978,-0.423999995,-0.015000000
1701093255.267821,,,,,,,,,,,,,,,,,,,,,,,,,,,,,,,,,,,,,,,,,,,,,,,,,,,,,,,,,,,,,,,,,159457.000000000,1701093255.267469406,-0.119999997,16.159999847,98.410003662,0.552999973,-0.418000013,-0.015000000
1701093255.284019,,,,,,,,,,,,,,,,,,,,,,,,,,,,,,,,,,,,,,,,,,,,,,,,,,,,,,,,,,,,,,,,,159458.000000000,1701093255.283733368,-0.079999998,16.149999619,98.419998169,0.560000002,-0.421000004,-0.017000001
1701093255.297283,-0.699445069,0.007527950,-0.018571365,0.002166614,1.820124478,1.564228025,-4.342390780,0.100816216,-0.005726728,0.072480738,0.000436402,-0.000368715,0.165945441,0.000713152,-0.000787367,-0.001647963,0.000048320,1.000000000,1.000000000,-1.581392115,-0.069431085,-0.655569053,21.820124478,3.128861666,-18.435771975,35.657609220,-0.590525233,-0.823981396,0.072480738,0.000000000,0.000000000,0.000000000,0.000000000,0.000000000,-0.015864268,0.000000000,0.000000000,0.000000000,0.000000000,0.000000000,0.000000000,0.000000000,0.000000000,0.000000000,0.000000000,0.787732840,0.000000000,0.000000000,0.000000000,0.000000000,0.000000000,0.000000000,0.000000000,0.000000000,0.000000000,32764.000000000,-0.698820542,-524315568.000000000,32764.000000000,0.000000000,0.000000000,0.007983159,0.165245620,-3.140162191,,,,,,,,
1701093255.300368,,,,,,,,,,,,,,,,,,,,,,,,,,,,,,,,,,,,,,,,,,,,,,,,,,,,,,,,,,,,,,,,,159459.000000000,1701093255.300011396,-0.150000006,16.239999771,98.379997253,0.559000015,-0.418000013,-0.017000001
1701093255.312586,,,,,,,,,,,,,,,,,,,,,,,,,,,,,,,,,,,,,,,,,,,,,,,,,,,,,,,,,,,,,,,,,159460.000000000,1701093255.312224865,-0.090000004,16.170000076,98.480003357,0.547999978,-0.418000013,-0.016000001
1701093255.328831,,,,,,,,,,,,,,,,,,,,,,,,,,,,,,,,,,,,,,,,,,,,,,,,,,,,,,,,,,,,,,,,,159461.000000000,1701093255.328477144,-0.100000001,16.139999390,98.489997864,0.550999999,-0.416999996,-0.017000001
1701093255.344865,,,,,,,,,,,,,,,,,,,,,,,,,,,,,,,,,,,,,,,,,,,,,,,,,,,,,,,,,,,,,,,,,159462.000000000,1701093255.344745398,-0.140000001,16.090000153,98.500000000,0.560999990,-0.416999996,-0.017000001
1701093255.361349,,,,,,,,,,,,,,,,,,,,,,,,,,,,,,,,,,,,,,,,,,,,,,,,,,,,,,,,,,,,,,,,,159463.000000000,1701093255.360991240,-0.189999998,16.159999847,98.430000305,0.558000028,-0.414000005,-0.015000000
1701093255.377608,,,,,,,,,,,,,,,,,,,,,,,,,,,,,,,,,,,,,,,,,,,,,,,,,,,,,,,,,,,,,,,,,159464.000000000,1701093255.377255678,-0.090000004,16.149999619,98.470001221,0.550000012,-0.419000000,-0.016000001
1701093255.393888,,,,,,,,,,,,,,,,,,,,,,,,,,,,,,,,,,,,,,,,,,,,,,,,,,,,,,,,,,,,,,,,,159465.000000000,1701093255.393538713,-0.150000006,16.180000305,98.410003662,0.559000015,-0.419000000,-0.017000001
1701093255.397020,-0.699445069,0.007527950,-0.018573590,0.002166743,1.813124477,1.567728105,-4.332891040,0.101166218,-0.004876729,0.072280738,0.000436262,-0.000368645,0.165945441,0.000713342,-0.000786725,-0.001645738,0.000048187,1.000000000,1.000000000,-1.577119714,-0.068336085,-0.652969053,21.813124477,3.128861666,-18.432271895,35.667108960,-0.590043978,-0.822868897,0.072280738,0.000000000,0.000000000,0.000000000,0.000000000,0.000000000,-0.015864268,0.000000000,0.000000000,0.000000000,0.000000000,0.000000000,0.000000000,0.000000000,0.000000000,0.000000000,0.000000000,0.787732840,0.000000000,0.000000000,0.000000000,0.000000000,0.000000000,0.000000000,0.000000000,0.000000000,0.000000000,32764.000000000,-0.698820914,-524315568.000000000,32764.000000000,0.000000000,0.000000000,0.007983020,0.165245422,-3.140161552,,,,,,,,
1701093255.410083,,,,,,,,,,,,,,,,,,,,,,,,,,,,,,,,,,,,,,,,,,,,,,,,,,,,,,,,,,,,,,,,,159466.000000000,1701093255.409809828,-0.189999998,16.120000839,98.430000305,0.558000028,-0.416999996,-0.017000001
1701093255.426349,,,,,,,,,,,,,,,,,,,,,,,,,,,,,,,,,,,,,,,,,,,,,,,,,,,,,,,,,,,,,,,,,159467.000000000,1701093255.426079035,-0.079999998,16.129999161,98.440002441,0.550000012,-0.421000004,-0.011000000
1701093255.442634,,,,,,,,,,,,,,,,,,,,,,,,,,,,,,,,,,,,,,,,,,,,,,,,,,,,,,,,,,,,,,,,,159468.000000000,1701093255.442356110,-0.159999996,16.229999542,98.459999084,0.551999986,-0.419000000,-0.011000000
1701093255.458759,,,,,,,,,,,,,,,,,,,,,,,,,,,,,,,,,,,,,,,,,,,,,,,,,,,,,,,,,,,,,,,,,159469.000000000,1701093255.458597422,-0.189999998,16.280000687,98.430000305,0.560000002,-0.419000000,-0.017999999
1701093255.475075,,,,,,,,,,,,,,,,,,,,,,,,,,,,,,,,,,,,,,,,,,,,,,,,,,,,,,,,,,,,,,,,,159470.000000000,1701093255.474828243,-0.129999995,16.180000305,98.440002441,0.554000020,-0.416999996,-0.025000000
1701093255.491339,,,,,,,,,,,,,,,,,,,,,,,,,,,,,,,,,,,,,,,,,,,,,,,,,,,,,,,,,,,,,,,,,159471.000000000,1701093255.491086483,-0.079999998,16.159999847,98.470001221,0.550000012,-0.421000004,-0.018999999
1701093255.496743,-0.699445069,0.007527950,-0.018572540,0.002166745,1.815124478,1.581228128,-4.331890063,0.100416221,-0.005326729,0.072280738,0.000436302,-0.000368375,0.165945441,0.000713362,-0.000787050,-0.001646788,0.000048187,1.000000000,1.000000000,-1.576996819,-0.068856086,-0.653769053,21.815124478,3.128861666,-18.418771872,35.668109937,-0.590287724,-0.823393897,0.072280738,0.000000000,0.000000000,0.000000000,0.000000000,0.000000000,-0.015864268,0.000000000,0.000000000,0.000000000,0.000000000,0.000000000,0.000000000,0.000000000,0.000000000,0.000000000,0.000000000,0.787732840,0.000000000,0.000000000,0.000000000,0.000000000,0.000000000,0.000000000,0.000000000,0.000000000,0.000000000,32764.000000000,-0.698820761,-524315568.000000000,32764.000000000,0.000000000,0.000000000,0.007982785,0.165245405,-3.140161877,,,,,,,,
1701093255.507544,,,,,,,,,,,,,,,,,,,,,,,,,,,,,,,,,,,,,,,,,,,,,,,,,,,,,,,,,,,,,,,,,159472.000000000,1701093255.507326126,-0.150000006,16.040000916,98.449996948,0.552999973,-0.416000009,-0.011000000
1701093255.523866,,,,,,,,,,,,,,,,,,,,,,,,,,,,,,,,,,,,,,,,,,,,,,,,,,,,,,,,,,,,,,,,,159473.000000000,1701093255.523585081,-0.100000001,16.010000229,98.419998169,0.558000028,-0.421000004,-0.010000000
1701093255.540351,,,,,,,,,,,,,,,,,,,,,,,,,,,,,,,,,,,,,,,,,,,,,,,,,,,,,,,,,,,,,,,,,159474.000000000,1701093255.539956093,-0.209999993,16.159999847,98.440002441,0.556999981,-0.416000009,-0.016000001
1701093255.556403,,,,,,,,,,,,,,,,,,,,,,,,,,,,,,,,,,,,,,,,,,,,,,,,,,,,,,,,,,,,,,,,,159475.000000000,1701093255.556212664,-0.150000006,16.379999161,98.440002441,0.550999999,-0.418000013,-0.026000001
1701093255.568646,,,,,,,,,,,,,,,,,,,,,,,,,,,,,,,,,,,,,,,,,,,,,,,,,,,,,,,,,,,,,,,,,159476.000000000,1701093255.568389654,-0.119999997,16.319999695,98.449996948,0.550999999,-0.419000000,-0.021000000
1701093255.585001,,,,,,,,,,,,,,,,,,,,,,,,,,,,,,,,,,,,,,,,,,,,,,,,,,,,,,,,,,,,,,,,,159477.000000000,1701093255.584648848,-0.140000001,16.010000229,98.500000000,0.559000015,-0.416000009,-0.013000000
1701093255.597160,-0.699445069,0.007527950,-0.018575090,0.002166939,1.801124477,1.585228124,-4.335890536,0.101166224,-0.004576731,0.071980738,0.000436022,-0.000368295,0.165945441,0.000713282,-0.000785850,-0.001644238,0.000047987,1.000000000,1.000000000,-1.577707006,-0.067616088,-0.648469053,21.801124477,3.128861666,-18.414771876,35.664109464,-0.589387722,-0.822118899,0.071980738,0.000000000,0.000000000,0.000000000,0.000000000,0.000000000,-0.015864268,0.000000000,0.000000000,0.000000000,0.000000000,0.000000000,0.000000000,0.000000000,0.000000000,0.000000000,0.000000000,0.787732840,0.000000000,0.000000000,0.000000000,0.000000000,0.000000000,0.000000000,0.000000000,0.000000000,0.000000000,32764.000000000,-0.698821313,-524315568.000000000,32764.000000000,0.000000000,0.000000000,0.007982577,0.165245474,-3.140160681,,,,,,,,
1701093255.601157,,,,,,,,,,,,,,,,,,,,,,,,,,,,,,,,,,,,,,,,,,,,,,,,,,,,,,,,,,,,,,,,,159478.000000000,1701093255.600907803,-0.129999995,16.030000687,98.419998169,0.559000015,-0.418000013,-0.009000000
1701093255.617631,,,,,,,,,,,,,,,,,,,,,,,,,,,,,,,,,,,,,,,,,,,,,,,,,,,,,,,,,,,,,,,,,159479.000000000,1701093255.617174625,-0.180000007,16.129999161,98.379997253,0.550000012,-0.416000009,-0.015000000
1701093255.633880,,,,,,,,,,,,,,,,,,,,,,,,,,,,,,,,,,,,,,,,,,,,,,,,,,,,,,,,,,,,,,,,,159480.000000000,1701093255.633440971,-0.140000001,16.250000000,98.379997253,0.550999999,-0.419000000,-0.021000000
1701093255.649884,,,,,,,,,,,,,,,,,,,,,,,,,,,,,,,,,,,,,,,,,,,,,,,,,,,,,,,,,,,,,,,,,159481.000000000,1701093255.649670124,-0.189999998,16.219999313,98.430000305,0.556999981,-0.414999992,-0.022000000
1701093255.666225,,,,,,,,,,,,,,,,,,,,,,,,,,,,,,,,,,,,,,,,,,,,,,,,,,,,,,,,,,,,,,,,,159482.000000000,1701093255.665905237,-0.109999999,16.159999847,98.550003052,0.558000028,-0.421000004,-0.016000001
1701093255.682624,,,,,,,,,,,,,,,,,,,,,,,,,,,,,,,,,,,,,,,,,,,,,,,,,,,,,,,,,,,,,,,,,159483.000000000,1701093255.682172775,-0.090000004,16.090000153,98.540000916,0.550999999,-0.418000013,-0.013000000
1701093255.696158,-0.699445069,0.007527950,-0.018575228,0.002166839,1.796624477,1.581728139,-4.335890536,0.100616225,-0.004676731,0.072130738,0.000435932,-0.000368365,0.165945441,0.000713282,-0.000786759,-0.001644100,0.000048087,1.000000000,1.000000000,-1.578379505,-0.067558588,-0.646519053,21.796624477,3.128861666,-18.418271861,35.664109464,-0.590068970,-0.822050149,0.072130738,0.000000000,0.000000000,0.000000000,0.000000000,0.000000000,-0.015864268,0.000000000,0.000000000,0.000000000,0.000000000,0.000000000,0.000000000,0.000000000,0.000000000,0.000000000,0.000000000,0.787732840,0.000000000,0.000000000,0.000000000,0.000000000,0.000000000,0.000000000,0.000000000,0.000000000,0.000000000,32764.000000000,-0.698821418,-524315568.000000000,32764.000000000,0.000000000,0.000000000,0.007982743,0.165245472,-3.140161587,,,,,,,,
1701093255.698535,,,,,,,,,,,,,,,,,,,,,,,,,,,,,,,,,,,,,,,,,,,,,,,,,,,,,,,,,,,,,,,,,159484.000000000,1701093255.698411465,-0.100000001,16.049999237,98.489997864,0.552999973,-0.421000004,-0.013000000
1701093255.714960,,,,,,,,,,,,,,,,,,,,,,,,,,,,,,,,,,,,,,,,,,,,,,,,,,,,,,,,,,,,,,,,,159485.000000000,1701093255.714650631,-0.159999996,16.190000534,98.339996338,0.560000002,-0.418000013,-0.017000001
1701093255.731363,,,,,,,,,,,,,,,,,,,,,,,,,,,,,,,,,,,,,,,,,,,,,,,,,,,,,,,,,,,,,,,,,159486.000000000,1701093255.730916739,-0.140000001,16.260000229,98.339996338,0.556999981,-0.419999987,-0.024000000
1701093255.747633,,,,,,,,,,,,,,,,,,,,,,,,,,,,,,,,,,,,,,,,,,,,,,,,,,,,,,,,,,,,,,,,,159487.000000000,1701093255.747190237,-0.150000006,16.209999084,98.500000000,0.547999978,-0.421000004,-0.018999999
1701093255.763611,,,,,,,,,,,,,,,,,,,,,,,,,,,,,,,,,,,,,,,,,,,,,,,,,,,,,,,,,,,,,,,,,159488.000000000,1701093255.763430595,-0.029999999,16.059999466,98.550003052,0.550000012,-0.423999995,-0.016000001
1701093255.779962,,,,,,,,,,,,,,,,,,,,,,,,,,,,,,,,,,,,,,,,,,,,,,,,,,,,,,,,,,,,,,,,,159489.000000000,1701093255.779659748,-0.090000004,16.040000916,98.470001221,0.559000015,-0.419000000,-0.010000000
1701093255.796038,,,,,,,,,,,,,,,,,,,,,,,,,,,,,,,,,,,,,,,,,,,,,,,,,,,,,,,,,,,,,,,,,159490.000000000,1701093255.795948744,-0.189999998,16.100000381,98.389999390,0.552999973,-0.416000009,-0.013000000
1701093255.796057,-0.699445069,0.007527950,-0.018573616,0.002167143,1.806124477,1.567728105,-4.333391146,0.100516220,-0.005126731,0.071680738,0.000436122,-0.000368645,0.165945441,0.000713332,-0.000787592,-0.001645713,0.000047787,1.000000000,1.000000000,-1.577969755,-0.068341088,-0.650769052,21.806124477,3.128861666,-18.432271895,35.666608854,-0.590693976,-0.822856399,0.071680738,0.000000000,0.000000000,0.000000000,0.000000000,0.000000000,-0.015864268,0.000000000,0.000000000,0.000000000,0.000000000,0.000000000,0.000000000,0.000000000,0.000000000,0.000000000,0.000000000,0.787732840,0.000000000,0.000000000,0.000000000,0.000000000,0.000000000,0.000000000,0.000000000,0.000000000,0.000000000,32764.000000000,-0.698821057,-524315568.000000000,32764.000000000,0.000000000,0.000000000,0.007983112,0.165245430,-3.140162426,,,,,,,,
1701093255.812623,,,,,,,,,,,,,,,,,,,,,,,,,,,,,,,,,,,,,,,,,,,,,,,,,,,,,,,,,,,,,,,,,159491.000000000,1701093255.812381029,-0.119999997,16.180000305,98.360000610,0.547999978,-0.421999991,-0.017999999
1701093255.825008,,,,,,,,,,,,,,,,,,,,,,,,,,,,,,,,,,,,,,,,,,,,,,,,,,,,,,,,,,,,,,,,,159492.000000000,1701093255.824728966,-0.180000007,16.209999084,98.430000305,0.551999986,-0.414999992,-0.020000000
1701093255.841442,,,,,,,,,,,,,,,,,,,,,,,,,,,,,,,,,,,,,,,,,,,,,,,,,,,,,,,,,,,,,,,,,159493.000000000,1701093255.841114283,-0.070000000,16.139999390,98.500000000,0.559000015,-0.421999991,-0.021000000
1701093255.857537,,,,,,,,,,,,,,,,,,,,,,,,,,,,,,,,,,,,,,,,,,,,,,,,,,,,,,,,,,,,,,,,,159494.000000000,1701093255.857374191,-0.180000007,16.139999390,98.540000916,0.559000015,-0.414000005,-0.013000000
1701093255.873797,,,,,,,,,,,,,,,,,,,,,,,,,,,,,,,,,,,,,,,,,,,,,,,,,,,,,,,,,,,,,,,,,159495.000000000,1701093255.873604536,-0.150000006,16.159999847,98.419998169,0.550000012,-0.419000000,-0.016000001
1701093255.890126,,,,,,,,,,,,,,,,,,,,,,,,,,,,,,,,,,,,,,,,,,,,,,,,,,,,,,,,,,,,,,,,,159496.000000000,1701093255.889860868,-0.189999998,16.129999161,98.300003052,0.551999986,-0.416000009,-0.016000001
1701093255.897937,-0.699445069,0.007527950,-0.018574540,0.002166774,1.799124476,1.558227983,-4.341891055,0.100466218,-0.004926730,0.072230738,0.000435982,-0.000368835,0.165945441,0.000713162,-0.000788134,-0.001644788,0.000048154,1.000000000,1.000000000,-1.581752225,-0.067896086,-0.647419052,21.799124476,3.128861666,-18.441772017,35.658108945,-0.591100233,-0.822393897,0.072230738,0.000000000,0.000000000,0.000000000,0.000000000,0.000000000,-0.015864268,0.000000000,0.000000000,0.000000000,0.000000000,0.000000000,0.000000000,0.000000000,0.000000000,0.000000000,0.000000000,0.787732840,0.000000000,0.000000000,0.000000000,0.000000000,0.000000000,0.000000000,0.000000000,0.000000000,0.000000000,32764.000000000,-0.698821299,-524315568.000000000,32764.000000000,0.000000000,0.000000000,0.007983359,0.165245595,-3.140162961,,,,,,,,
1701093255.906365,,,,,,,,,,,,,,,,,,,,,,,,,,,,,,,,,,,,,,,,,,,,,,,,,,,,,,,,,,,,,,,,,159497.000000000,1701093255.906157255,-0.050000001,16.170000076,98.370002747,0.559000015,-0.421000004,-0.017999999
1701093255.922491,,,,,,,,,,,,,,,,,,,,,,,,,,,,,,,,,,,,,,,,,,,,,,,,,,,,,,,,,,,,,,,,,159498.000000000,1701093255.922395945,-0.100000001,16.209999084,98.430000305,0.556999981,-0.416999996,-0.018999999
1701093255.938900,,,,,,,,,,,,,,,,,,,,,,,,,,,,,,,,,,,,,,,,,,,,,,,,,,,,,,,,,,,,,,,,,159499.000000000,1701093255.938656569,-0.159999996,16.159999847,98.500000000,0.550999999,-0.419999987,-0.013000000
1701093255.955383,,,,,,,,,,,,,,,,,,,,,,,,,,,,,,,,,,,,,,,,,,,,,,,,,,,,,,,,,,,,,,,,,159500.000000000,1701093255.954943419,-0.129999995,16.030000687,98.500000000,0.558000028,-0.418000013,-0.017999999
1701093255.971557,,,,,,,,,,,,,,,,,,,,,,,,,,,,,,,,,,,,,,,,,,,,,,,,,,,,,,,,,,,,,,,,,159501.000000000,1701093255.971198320,-0.079999998,16.059999466,98.449996948,0.558000028,-0.419000000,-0.016000001
1701093255.987914,,,,,,,,,,,,,,,,,,,,,,,,,,,,,,,,,,,,,,,,,,,,,,,,,,,,,,,,,,,,,,,,,159502.000000000,1701093255.987460136,-0.170000002,16.120000839,98.339996338,0.547999978,-0.419999987,-0.018999999
1701093255.998208,-0.699445069,0.007527950,-0.018572791,0.002167011,1.809124476,1.555728021,-4.345391040,0.100316217,-0.005426728,0.071880738,0.000436182,-0.000368885,0.165945441,0.000713092,-0.000788459,-0.001646538,0.000047920,1.000000000,1.000000000,-1.583389718,-0.068746084,-0.651769052,21.809124476,3.128861666,-18.444271979,35.654608960,-0.591343982,-0.823268895,0.071880738,0.000000000,0.000000000,0.000000000,0.000000000,0.000000000,-0.015864268,0.000000000,0.000000000,0.000000000,0.000000000,0.000000000,0.000000000,0.000000000,0.000000000,0.000000000,0.000000000,0.787732840,0.000000000,0.000000000,0.000000000,0.000000000,0.000000000,0.000000000,0.000000000,0.000000000,0.000000000,32764.000000000,-0.698820915,-524315568.000000000,32764.000000000,0.000000000,0.000000000,0.007983444,0.165245673,-3.140163290,,,,,,,,
1701093256.004093,,,,,,,,,,,,,,,,,,,,,,,,,,,,,,,,,,,,,,,,,,,,,,,,,,,,,,,,,,,,,,,,,159503.000000000,1701093256.003722191,-0.150000006,16.100000381,98.290000916,0.545000017,-0.419999987,-0.017000001
1701093256.020215,,,,,,,,,,,,,,,,,,,,,,,,,,,,,,,,,,,,,,,,,,,,,,,,,,,,,,,,,,,,,,,,,159504.000000000,1701093256.019972801,-0.129999995,16.079999924,98.529998779,0.559000015,-0.421000004,-0.017000001
1701093256.036473,,,,,,,,,,,,,,,,,,,,,,,,,,,,,,,,,,,,,,,,,,,,,,,,,,,,,,,,,,,,,,,,,159505.000000000,1701093256.036199093,-0.170000002,16.030000687,98.620002747,0.558000028,-0.414999992,-0.015000000
1701093256.052922,,,,,,,,,,,,,,,,,,,,,,,,,,,,,,,,,,,,,,,,,,,,,,,,,,,,,,,,,,,,,,,,,159506.000000000,1701093256.052463531,-0.059999999,16.110000610,98.500000000,0.554000020,-0.421999991,-0.013000000
1701093256.064950,,,,,,,,,,,,,,,,,,,,,,,,,,,,,,,,,,,,,,,,,,,,,,,,,,,,,,,,,,,,,,,,,159507.000000000,1701093256.064652443,-0.119999997,16.200000763,98.349998474,0.551999986,-0.418000013,-0.021000000
1701093256.081348,,,,,,,,,,,,,,,,,,,,,,,,,,,,,,,,,,,,,,,,,,,,,,,,,,,,,,,,,,,,,,,,,159508.000000000,1701093256.080910921,-0.140000001,16.260000229,98.279998779,0.555000007,-0.419999987,-0.021000000
1701093256.097593,,,,,,,,,,,,,,,,,,,,,,,,,,,,,,,,,,,,,,,,,,,,,,,,,,,,,,,,,,,,,,,,,159509.000000000,1701093256.097193480,-0.079999998,16.170000076,98.440002441,0.556999981,-0.416999996,-0.016000001
1701093256.098174,-0.699445069,0.007527950,-0.018573766,0.002167076,1.804124477,1.551728215,-4.354890780,0.100516223,-0.005126725,0.071780738,0.000436082,-0.000368965,0.165945441,0.000712902,-0.000788392,-0.001645563,0.000047854,1.000000000,1.000000000,-1.587129601,-0.068271082,-0.649869052,21.804124477,3.128861666,-18.448271785,35.645109220,-0.591293969,-0.822781393,0.071780738,0.000000000,0.000000000,0.000000000,0.000000000,0.000000000,-0.015864268,0.000000000,0.000000000,0.000000000,0.000000000,0.000000000,0.000000000,0.000000000,0.000000000,0.000000000,0.000000000,0.787732840,0.000000000,0.000000000,0.000000000,0.000000000,0.000000000,0.000000000,0.000000000,0.000000000,0.000000000,32764.000000000,-0.698821122,-524315568.000000000,32764.000000000,0.000000000,0.000000000,0.007983516,0.165245859,-3.140163225,,,,,,,,
1701093256.113817,,,,,,,,,,,,,,,,,,,,,,,,,,,,,,,,,,,,,,,,,,,,,,,,,,,,,,,,,,,,,,,,,159510.000000000,1701093256.113465071,-0.029999999,16.129999161,98.580001831,0.555000007,-0.421000004,-0.013000000
1701093256.130144,,,,,,,,,,,,,,,,,,,,,,,,,,,,,,,,,,,,,,,,,,,,,,,,,,,,,,,,,,,,,,,,,159511.000000000,1701093256.129924297,-0.109999999,16.059999466,98.519996643,0.555000007,-0.418000013,-0.018999999
1701093256.146692,,,,,,,,,,,,,,,,,,,,,,,,,,,,,,,,,,,,,,,,,,,,,,,,,,,,,,,,,,,,,,,,,159512.000000000,1701093256.146357775,-0.140000001,16.200000763,98.419998169,0.555999994,-0.419000000,-0.016000001
1701093256.163250,,,,,,,,,,,,,,,,,,,,,,,,,,,,,,,,,,,,,,,,,,,,,,,,,,,,,,,,,,,,,,,,,159513.000000000,1701093256.162899494,-0.150000006,16.200000763,98.379997253,0.554000020,-0.418000013,-0.017000001
1701093256.179855,,,,,,,,,,,,,,,,,,,,,,,,,,,,,,,,,,,,,,,,,,,,,,,,,,,,,,,,,,,,,,,,,159514.000000000,1701093256.179519892,-0.100000001,16.129999161,98.379997253,0.551999986,-0.419000000,-0.015000000
1701093256.196387,,,,,,,,,,,,,,,,,,,,,,,,,,,,,,,,,,,,,,,,,,,,,,,,,,,,,,,,,,,,,,,,,159515.000000000,1701093256.196053743,-0.050000001,16.090000153,98.580001831,0.555999994,-0.421000004,-0.018999999
1701093256.198050,-0.699445069,0.007527950,-0.018571966,0.002167213,1.820124477,1.552228227,-4.345391040,0.100766223,-0.005426728,0.071580738,0.000436402,-0.000368955,0.165945441,0.000713092,-0.000788034,-0.001647363,0.000047720,1.000000000,1.000000000,-1.583062205,-0.069131084,-0.656469053,21.820124477,3.128861666,-18.447771773,35.654608960,-0.591025219,-0.823681395,0.071580738,0.000000000,0.000000000,0.000000000,0.000000000,0.000000000,-0.015864268,0.000000000,0.000000000,0.000000000,0.000000000,0.000000000,0.000000000,0.000000000,0.000000000,0.000000000,0.000000000,0.787732840,0.000000000,0.000000000,0.000000000,0.000000000,0.000000000,0.000000000,0.000000000,0.000000000,0.000000000,32764.000000000,-0.698820607,-524315568.000000000,32764.000000000,0.000000000,0.000000000,0.007983469,0.165245679,-3.140162869,,,,,,,,
1701093256.212560,,,,,,,,,,,,,,,,,,,,,,,,,,,,,,,,,,,,,,,,,,,,,,,,,,,,,,,,,,,,,,,,,159516.000000000,1701093256.212337971,-0.100000001,16.040000916,98.610000610,0.555999994,-0.419000000,-0.020000000
1701093256.228849,,,,,,,,,,,,,,,,,,,,,,,,,,,,,,,,,,,,,,,,,,,,,,,,,,,,,,,,,,,,,,,,,159517.000000000,1701093256.228600502,-0.029999999,16.049999237,98.470001221,0.552999973,-0.421000004,-0.014000000
1701093256.240873,,,,,,,,,,,,,,,,,,,,,,,,,,,,,,,,,,,,,,,,,,,,,,,,,,,,,,,,,,,,,,,,,159518.000000000,1701093256.240771532,-0.140000001,16.200000763,98.449996948,0.555999994,-0.419000000,-0.016000001
1701093256.257274,,,,,,,,,,,,,,,,,,,,,,,,,,,,,,,,,,,,,,,,,,,,,,,,,,,,,,,,,,,,,,,,,159519.000000000,1701093256.257011890,-0.059999999,16.100000381,98.389999390,0.552999973,-0.421000004,-0.017999999
1701093256.273575,,,,,,,,,,,,,,,,,,,,,,,,,,,,,,,,,,,,,,,,,,,,,,,,,,,,,,,,,,,,,,,,,159520.000000000,1701093256.273277283,-0.119999997,16.180000305,98.440002441,0.555000007,-0.419000000,-0.014000000
1701093256.289807,,,,,,,,,,,,,,,,,,,,,,,,,,,,,,,,,,,,,,,,,,,,,,,,,,,,,,,,,,,,,,,,,159521.000000000,1701093256.289536953,-0.129999995,16.170000076,98.519996643,0.555000007,-0.419000000,-0.012000000
1701093256.296616,-0.699445069,0.007527950,-0.018570778,0.002167016,1.826624477,1.551228395,-4.328891329,0.100416218,-0.005776728,0.071880738,0.000436532,-0.000368975,0.165945441,0.000713422,-0.000788550,-0.001648550,0.000047920,1.000000000,1.000000000,-1.576847319,-0.069708584,-0.658769053,21.826624477,3.128861666,-18.448771605,35.671108671,-0.591412717,-0.824275145,0.071880738,0.000000000,0.000000000,0.000000000,0.000000000,0.000000000,-0.015864268,0.000000000,0.000000000,0.000000000,0.000000000,0.000000000,0.000000000,0.000000000,0.000000000,0.000000000,0.000000000,0.787732840,0.000000000,0.000000000,0.000000000,0.000000000,0.000000000,0.000000000,0.000000000,0.000000000,0.000000000,32764.000000000,-0.698820345,-524315568.000000000,32764.000000000,0.000000000,0.000000000,0.007983545,0.165245354,-3.140163382,,,,,,,,
1701093256.306046,,,,,,,,,,,,,,,,,,,,,,,,,,,,,,,,,,,,,,,,,,,,,,,,,,,,,,,,,,,,,,,,,159522.000000000,1701093256.305806637,-0.119999997,16.219999313,98.500000000,0.560000002,-0.418000013,-0.016000001
1701093256.322301,,,,,,,,,,,,,,,,,,,,,,,,,,,,,,,,,,,,,,,,,,,,,,,,,,,,,,,,,,,,,,,,,159523.000000000,1701093256.322073936,-0.100000001,16.170000076,98.500000000,0.559000015,-0.416999996,-0.020000000
1701093256.338528,,,,,,,,,,,,,,,,,,,,,,,,,,,,,,,,,,,,,,,,,,,,,,,,,,,,,,,,,,,,,,,,,159524.000000000,1701093256.338345051,-0.070000000,16.270000458,98.410003662,0.550999999,-0.419999987,-0.018999999
1701093256.354699,,,,,,,,,,,,,,,,,,,,,,,,,,,,,,,,,,,,,,,,,,,,,,,,,,,,,,,,,,,,,,,,,159525.000000000,1701093256.354575157,-0.090000004,16.090000153,98.319999695,0.551999986,-0.421999991,-0.012000000
1701093256.370976,,,,,,,,,,,,,,,,,,,,,,,,,,,,,,,,,,,,,,,,,,,,,,,,,,,,,,,,,,,,,,,,,159526.000000000,1701093256.370822906,-0.079999998,16.120000839,98.449996948,0.559000015,-0.418000013,-0.011000000
1701093256.387305,,,,,,,,,,,,,,,,,,,,,,,,,,,,,,,,,,,,,,,,,,,,,,,,,,,,,,,,,,,,,,,,,159527.000000000,1701093256.387085199,0.000000000,16.079999924,98.540000916,0.556999981,-0.423999995,-0.017999999
1701093256.397666,-0.699445069,0.007527950,-0.018569203,0.002166819,1.843624477,1.566728273,-4.324391131,0.101516216,-0.005926729,0.072180738,0.000436872,-0.000368665,0.165945441,0.000713512,-0.000786309,-0.001650125,0.000048120,1.000000000,1.000000000,-1.573404747,-0.070453585,-0.665269052,21.843624477,3.128861666,-18.433271727,35.675608869,-0.589731474,-0.825062646,0.072180738,0.000000000,0.000000000,0.000000000,0.000000000,0.000000000,-0.015864268,0.000000000,0.000000000,0.000000000,0.000000000,0.000000000,0.000000000,0.000000000,0.000000000,0.000000000,0.000000000,0.787732840,0.000000000,0.000000000,0.000000000,0.000000000,0.000000000,0.000000000,0.000000000,0.000000000,0.000000000,32764.000000000,-0.698819835,-524315568.000000000,32764.000000000,0.000000000,0.000000000,0.007982999,0.165245273,-3.140161136,,,,,,,,
1701093256.403527,,,,,,,,,,,,,,,,,,,,,,,,,,,,,,,,,,,,,,,,,,,,,,,,,,,,,,,,,,,,,,,,,159528.000000000,1701093256.403366566,-0.180000007,16.219999313,98.540000916,0.552999973,-0.414999992,-0.021000000
1701093256.419823,,,,,,,,,,,,,,,,,,,,,,,,,,,,,,,,,,,,,,,,,,,,,,,,,,,,,,,,,,,,,,,,,159529.000000000,1701093256.419610262,-0.039999999,16.190000534,98.449996948,0.549000025,-0.423000008,-0.017999999
1701093256.436221,,,,,,,,,,,,,,,,,,,,,,,,,,,,,,,,,,,,,,,,,,,,,,,,,,,,,,,,,,,,,,,,,159530.000000000,1701093256.435874701,-0.090000004,16.059999466,98.400001526,0.559000015,-0.419000000,-0.013000000
1701093256.452435,,,,,,,,,,,,,,,,,,,,,,,,,,,,,,,,,,,,,,,,,,,,,,,,,,,,,,,,,,,,,,,,,159531.000000000,1701093256.452133894,-0.050000001,16.079999924,98.419998169,0.558000028,-0.421000004,-0.013000000
1701093256.468597,,,,,,,,,,,,,,,,,,,,,,,,,,,,,,,,,,,,,,,,,,,,,,,,,,,,,,,,,,,,,,,,,159532.000000000,1701093256.468357325,-0.100000001,16.200000763,98.489997864,0.550000012,-0.419999987,-0.018999999
1701093256.484793,,,,,,,,,,,,,,,,,,,,,,,,,,,,,,,,,,,,,,,,,,,,,,,,,,,,,,,,,,,,,,,,,159533.000000000,1701093256.484589577,-0.050000001,16.159999847,98.489997864,0.549000025,-0.421999991,-0.017999999
1701093256.497130,,,,,,,,,,,,,,,,,,,,,,,,,,,,,,,,,,,,,,,,,,,,,,,,,,,,,,,,,,,,,,,,,159534.000000000,1701093256.496840715,-0.140000001,16.069999695,98.489997864,0.559000015,-0.419999987,-0.016000001
1701093256.498265,-0.699445069,0.007527950,-0.018568028,0.002166855,1.848624477,1.558228269,-4.310391192,0.101166221,-0.006326726,0.072130739,0.000436972,-0.000368835,0.165945441,0.000713792,-0.000787200,-0.001651300,0.000048087,1.000000000,1.000000000,-1.568452267,-0.071028583,-0.667319052,21.848624477,3.128861666,-18.441771731,35.689608808,-0.590400219,-0.825650144,0.072130739,0.000000000,0.000000000,0.000000000,0.000000000,0.000000000,-0.015864268,0.000000000,0.000000000,0.000000000,0.000000000,0.000000000,0.000000000,0.000000000,0.000000000,0.000000000,0.000000000,0.787732840,0.000000000,0.000000000,0.000000000,0.000000000,0.000000000,0.000000000,0.000000000,0.000000000,0.000000000,32764.000000000,-0.698819605,-524315568.000000000,32764.000000000,0.000000000,0.000000000,0.007983265,0.165244998,-3.140162029,,,,,,,,
1701093256.513353,,,,,,,,,,,,,,,,,,,,,,,,,,,,,,,,,,,,,,,,,,,,,,,,,,,,,,,,,,,,,,,,,159535.000000000,1701093256.513087749,-0.159999996,16.129999161,98.430000305,0.556999981,-0.414999992,-0.017000001
1701093256.529634,,,,,,,,,,,,,,,,,,,,,,,,,,,,,,,,,,,,,,,,,,,,,,,,,,,,,,,,,,,,,,,,,159536.000000000,1701093256.529309988,-0.129999995,16.129999161,98.440002441,0.550000012,-0.421000004,-0.016000001
1701093256.546003,,,,,,,,,,,,,,,,,,,,,,,,,,,,,,,,,,,,,,,,,,,,,,,,,,,,,,,,,,,,,,,,,159537.000000000,1701093256.545581579,-0.180000007,16.069999695,98.480003357,0.550000012,-0.412999988,-0.017000001
1701093256.562187,,,,,,,,,,,,,,,,,,,,,,,,,,,,,,,,,,,,,,,,,,,,,,,,,,,,,,,,,,,,,,,,,159538.000000000,1701093256.561842680,-0.090000004,16.030000687,98.449996948,0.556999981,-0.421000004,-0.015000000
1701093256.578487,,,,,,,,,,,,,,,,,,,,,,,,,,,,,,,,,,,,,,,,,,,,,,,,,,,,,,,,,,,,,,,,,159539.000000000,1701093256.578104019,-0.180000007,16.079999924,98.480003357,0.556999981,-0.416999996,-0.016000001
1701093256.594759,,,,,,,,,,,,,,,,,,,,,,,,,,,,,,,,,,,,,,,,,,,,,,,,,,,,,,,,,,,,,,,,,159540.000000000,1701093256.594373941,-0.129999995,16.260000229,98.430000305,0.550000012,-0.421000004,-0.020000000
1701093256.597953,-0.699445069,0.007527950,-0.018570615,0.002166849,1.830124477,1.560228124,-4.321890979,0.100766223,-0.005726725,0.072130738,0.000436602,-0.000368795,0.165945441,0.000713562,-0.000787634,-0.001648713,0.000048087,1.000000000,1.000000000,-1.573382184,-0.069781082,-0.659919052,21.830124477,3.128861666,-18.439771876,35.678109021,-0.590725222,-0.824356393,0.072130738,0.000000000,0.000000000,0.000000000,0.000000000,0.000000000,-0.015864268,0.000000000,0.000000000,0.000000000,0.000000000,0.000000000,0.000000000,0.000000000,0.000000000,0.000000000,0.000000000,0.787732840,0.000000000,0.000000000,0.000000000,0.000000000,0.000000000,0.000000000,0.000000000,0.000000000,0.000000000,32764.000000000,-0.698820254,-524315568.000000000,32764.000000000,0.000000000,0.000000000,0.007983269,0.165245216,-3.140162462,,,,,,,,
1701093256.611075,,,,,,,,,,,,,,,,,,,,,,,,,,,,,,,,,,,,,,,,,,,,,,,,,,,,,,,,,,,,,,,,,159541.000000000,1701093256.610680103,-0.200000003,16.229999542,98.400001526,0.552999973,-0.414999992,-0.017999999
1701093256.627375,,,,,,,,,,,,,,,,,,,,,,,,,,,,,,,,,,,,,,,,,,,,,,,,,,,,,,,,,,,,,,,,,159542.000000000,1701093256.626956940,-0.070000000,16.110000610,98.459999084,0.560000002,-0.419000000,-0.015000000
1701093256.643524,,,,,,,,,,,,,,,,,,,,,,,,,,,,,,,,,,,,,,,,,,,,,,,,,,,,,,,,,,,,,,,,,159543.000000000,1701093256.643197298,-0.090000004,16.129999161,98.459999084,0.560000002,-0.416000009,-0.015000000
1701093256.659854,,,,,,,,,,,,,,,,,,,,,,,,,,,,,,,,,,,,,,,,,,,,,,,,,,,,,,,,,,,,,,,,,159544.000000000,1701093256.659450769,-0.039999999,16.110000610,98.459999084,0.546999991,-0.421000004,-0.017000001
1701093256.676078,,,,,,,,,,,,,,,,,,,,,,,,,,,,,,,,,,,,,,,,,,,,,,,,,,,,,,,,,,,,,,,,,159545.000000000,1701093256.675716877,-0.070000000,16.149999619,98.449996948,0.555000007,-0.421999991,-0.018999999
1701093256.692226,,,,,,,,,,,,,,,,,,,,,,,,,,,,,,,,,,,,,,,,,,,,,,,,,,,,,,,,,,,,,,,,,159546.000000000,1701093256.691956758,-0.129999995,16.110000610,98.489997864,0.559000015,-0.416999996,-0.017000001
1701093256.696954,-0.699445069,0.007527950,-0.018571053,0.002167215,1.829624476,1.550228086,-4.320891146,0.100666221,-0.005526725,0.071580738,0.000436592,-0.000368995,0.165945441,0.000713582,-0.000788267,-0.001648275,0.000047720,1.000000000,1.000000000,-1.573432254,-0.069563581,-0.660269052,21.829624476,3.128861666,-18.449771914,35.679108854,-0.591200226,-0.824137643,0.071580738,0.000000000,0.000000000,0.000000000,0.000000000,0.000000000,-0.015864268,0.000000000,0.000000000,0.000000000,0.000000000,0.000000000,0.000000000,0.000000000,0.000000000,0.000000000,0.000000000,0.787732840,0.000000000,0.000000000,0.000000000,0.000000000,0.000000000,0.000000000,0.000000000,0.000000000,0.000000000,32764.000000000,-0.698820311,-524315568.000000000,32764.000000000,0.000000000,0.000000000,0.007983536,0.165245195,-3.140163103,,,,,,,,
1701093256.708609,,,,,,,,,,,,,,,,,,,,,,,,,,,,,,,,,,,,,,,,,,,,,,,,,,,,,,,,,,,,,,,,,159547.000000000,1701093256.708245039,-0.039999999,16.120000839,98.430000305,0.552999973,-0.423000008,-0.014000000
1701093256.724912,,,,,,,,,,,,,,,,,,,,,,,,,,,,,,,,,,,,,,,,,,,,,,,,,,,,,,,,,,,,,,,,,159548.000000000,1701093256.724478483,-0.079999998,16.159999847,98.419998169,0.549000025,-0.419999987,-0.012000000
1701093256.740930,,,,,,,,,,,,,,,,,,,,,,,,,,,,,,,,,,,,,,,,,,,,,,,,,,,,,,,,,,,,,,,,,159549.000000000,1701093256.740720034,-0.119999997,16.069999695,98.440002441,0.555000007,-0.421000004,-0.015000000
1701093256.757263,,,,,,,,,,,,,,,,,,,,,,,,,,,,,,,,,,,,,,,,,,,,,,,,,,,,,,,,,,,,,,,,,159550.000000000,1701093256.756950617,-0.150000006,16.120000839,98.459999084,0.558000028,-0.414999992,-0.017000001
1701093256.769535,,,,,,,,,,,,,,,,,,,,,,,,,,,,,,,,,,,,,,,,,,,,,,,,,,,,,,,,,,,,,,,,,159551.000000000,1701093256.769146442,-0.100000001,16.170000076,98.449996948,0.554000020,-0.419999987,-0.018999999
1701093256.785742,,,,,,,,,,,,,,,,,,,,,,,,,,,,,,,,,,,,,,,,,,,,,,,,,,,,,,,,,,,,,,,,,159552.000000000,1701093256.785407543,-0.209999993,16.170000076,98.440002441,0.551999986,-0.416000009,-0.015000000
1701093256.795608,-0.699445069,0.007527950,-0.018572653,0.002166878,1.817624477,1.549228158,-4.330890994,0.100416221,-0.005176725,0.072080738,0.000436352,-0.000369015,0.165945441,0.000713382,-0.000788650,-0.001646675,0.000048054,1.000000000,1.000000000,-1.577717190,-0.068793582,-0.654969053,21.817624477,3.128861666,-18.450771842,35.669109006,-0.591487723,-0.823337643,0.072080738,0.000000000,0.000000000,0.000000000,0.000000000,0.000000000,-0.015864268,0.000000000,0.000000000,0.000000000,0.000000000,0.000000000,0.000000000,0.000000000,0.000000000,0.000000000,0.000000000,0.787732840,0.000000000,0.000000000,0.000000000,0.000000000,0.000000000,0.000000000,0.000000000,0.000000000,0.000000000,32764.000000000,-0.698820725,-524315568.000000000,32764.000000000,0.000000000,0.000000000,0.007983595,0.165245387,-3.140163479,,,,,,,,
1701093256.801814,,,,,,,,,,,,,,,,,,,,,,,,,,,,,,,,,,,,,,,,,,,,,,,,,,,,,,,,,,,,,,,,,159553.000000000,1701093256.801643848,-0.100000001,16.049999237,98.419998169,0.554000020,-0.421000004,-0.014000000
1701093256.818199,,,,,,,,,,,,,,,,,,,,,,,,,,,,,,,,,,,,,,,,,,,,,,,,,,,,,,,,,,,,,,,,,159554.000000000,1701093256.817898989,-0.150000006,16.079999924,98.489997864,0.559000015,-0.414999992,-0.015000000
1701093256.834614,,,,,,,,,,,,,,,,,,,,,,,,,,,,,,,,,,,,,,,,,,,,,,,,,,,,,,,,,,,,,,,,,159555.000000000,1701093256.834163666,-0.119999997,16.170000076,98.419998169,0.550999999,-0.418000013,-0.017999999
1701093256.850597,,,,,,,,,,,,,,,,,,,,,,,,,,,,,,,,,,,,,,,,,,,,,,,,,,,,,,,,,,,,,,,,,159556.000000000,1701093256.850403070,-0.159999996,16.149999619,98.389999390,0.550000012,-0.416999996,-0.020000000
1701093256.866831,,,,,,,,,,,,,,,,,,,,,,,,,,,,,,,,,,,,,,,,,,,,,,,,,,,,,,,,,,,,,,,,,159557.000000000,1701093256.866620779,-0.200000003,16.079999924,98.430000305,0.555999994,-0.414999992,-0.016000001
1701093256.883136,,,,,,,,,,,,,,,,,,,,,,,,,,,,,,,,,,,,,,,,,,,,,,,,,,,,,,,,,,,,,,,,,159558.000000000,1701093256.882850170,-0.180000007,16.059999466,98.430000305,0.559000015,-0.416999996,-0.015000000
1701093256.896571,-0.699445069,0.007527950,-0.018574153,0.002166842,1.809624477,1.549228158,-4.340891223,0.100766223,-0.004726726,0.072130739,0.000436192,-0.000369015,0.165945441,0.000713182,-0.000788184,-0.001645175,0.000048087,1.000000000,1.000000000,-1.581367281,-0.068063583,-0.651719052,21.809624477,3.128861666,-18.450771842,35.659108777,-0.591137721,-0.822587644,0.072130739,0.000000000,0.000000000,0.000000000,0.000000000,0.000000000,-0.015864268,0.000000000,0.000000000,0.000000000,0.000000000,0.000000000,0.000000000,0.000000000,0.000000000,0.000000000,0.000000000,0.787732840,0.000000000,0.000000000,0.000000000,0.000000000,0.000000000,0.000000000,0.000000000,0.000000000,0.000000000,32764.000000000,-0.698821048,-524315568.000000000,32764.000000000,0.000000000,0.000000000,0.007983544,0.165245581,-3.140163012,,,,,,,,
1701093256.899391,,,,,,,,,,,,,,,,,,,,,,,,,,,,,,,,,,,,,,,,,,,,,,,,,,,,,,,,,,,,,,,,,159559.000000000,1701093256.899210453,-0.109999999,16.110000610,98.480003357,0.551999986,-0.416999996,-0.015000000
1701093256.915871,,,,,,,,,,,,,,,,,,,,,,,,,,,,,,,,,,,,,,,,,,,,,,,,,,,,,,,,,,,,,,,,,159560.000000000,1701093256.915616989,-0.029999999,16.149999619,98.419998169,0.549000025,-0.423000008,-0.018999999
1701093256.932161,,,,,,,,,,,,,,,,,,,,,,,,,,,,,,,,,,,,,,,,,,,,,,,,,,,,,,,,,,,,,,,,,159561.000000000,1701093256.931929588,-0.070000000,16.149999619,98.430000305,0.555000007,-0.416999996,-0.017999999
1701093256.948475,,,,,,,,,,,,,,,,,,,,,,,,,,,,,,,,,,,,,,,,,,,,,,,,,,,,,,,,,,,,,,,,,159562.000000000,1701093256.948214769,-0.140000001,16.110000610,98.449996948,0.558000028,-0.419000000,-0.016000001
