__time,/plot_data/data.0,/plot_data/data.1,/plot_data/data.10,/plot_data/data.11,/plot_data/data.12,/plot_data/data.13,/plot_data/data.14,/plot_data/data.15,/plot_data/data.16,/plot_data/data.17,/plot_data/data.18,/plot_data/data.19,/plot_data/data.2,/plot_data/data.20,/plot_data/data.21,/plot_data/data.22,/plot_data/data.23,/plot_data/data.24,/plot_data/data.25,/plot_data/data.26,/plot_data/data.27,/plot_data/data.28,/plot_data/data.29,/plot_data/data.3,/plot_data/data.30,/plot_data/data.31,/plot_data/data.32,/plot_data/data.33,/plot_data/data.34,/plot_data/data.35,/plot_data/data.36,/plot_data/data.37,/plot_data/data.38,/plot_data/data.39,/plot_data/data.4,/plot_data/data.40,/plot_data/data.41,/plot_data/data.42,/plot_data/data.43,/plot_data/data.44,/plot_data/data.45,/plot_data/data.46,/plot_data/data.47,/plot_data/data.48,/plot_data/data.49,/plot_data/data.5,/plot_data/data.50,/plot_data/data.51,/plot_data/data.52,/plot_data/data.53,/plot_data/data.54,/plot_data/data.55,/plot_data/data.56,/plot_data/data.57,/plot_data/data.58,/plot_data/data.59,/plot_data/data.6,/plot_data/data.60,/plot_data/data.61,/plot_data/data.62,/plot_data/data.63,/plot_data/data.7,/plot_data/data.8,/plot_data/data.9,/robotiq_ft_wrench/header/seq,/robotiq_ft_wrench/header/stamp,/robotiq_ft_wrench/wrench/force/x,/robotiq_ft_wrench/wrench/force/y,/robotiq_ft_wrench/wrench/force/z,/robotiq_ft_wrench/wrench/torque/x,/robotiq_ft_wrench/wrench/torque/y,/robotiq_ft_wrench/wrench/torque/z
1705305321.881871,,,,,,,,,,,,,,,,,,,,,,,,,,,,,,,,,,,,,,,,,,,,,,,,,,,,,,,,,,,,,,,,,11823.000000000,1705305321.881606817,-8.729999542,-14.229999542,161.229995728,3.562000036,-0.470999986,1.458999991
1705305321.897945,,,,,,,,,,,,,,,,,,,,,,,,,,,,,,,,,,,,,,,,,,,,,,,,,,,,,,,,,,,,,,,,,11824.000000000,1705305321.897849083,-8.800000191,-14.279999733,161.220001221,3.561000109,-0.472000003,1.447000027
1705305321.914220,,,,,,,,,,,,,,,,,,,,,,,,,,,,,,,,,,,,,,,,,,,,,,,,,,,,,,,,,,,,,,,,,11825.000000000,1705305321.914103031,-8.760000229,-14.289999962,161.190002441,3.559999943,-0.474999994,1.434999943
1705305321.930624,,,,,,,,,,,,,,,,,,,,,,,,,,,,,,,,,,,,,,,,,,,,,,,,,,,,,,,,,,,,,,,,,11826.000000000,1705305321.930400610,-8.850000381,-14.449999809,161.210006714,3.555000067,-0.472999990,1.429999948
1705305321.946754,,,,,,,,,,,,,,,,,,,,,,,,,,,,,,,,,,,,,,,,,,,,,,,,,,,,,,,,,,,,,,,,,11827.000000000,1705305321.946673393,-8.840000153,-14.800000191,161.309997559,3.558000088,-0.477999985,1.412999988
1705305321.956461,2.000000000,1.000000000,-0.343429355,0.186151137,0.420828307,22.912246728,-5.178234839,3.377671158,0.223007902,0.870363903,0.000000000,0.000746111,-0.677242637,-0.000046858,0.000000000,0.000000000,0.000000000,0.000000000,0.000000000,0.000000000,2.912246728,-0.178234839,0.000000000,0.059127387,0.000000000,0.000000000,0.000000000,-0.000721955,0.000091990,0.000000000,0.000000000,0.000000000,0.000000000,0.000000000,0.243245736,0.000000000,0.000000000,0.000000000,0.000000000,0.000000000,0.000000000,0.000000000,0.000000000,0.000000000,0.000000000,0.000000000,0.000000000,0.000000000,0.000000000,0.000000000,0.000000000,0.000000000,0.000000000,0.000000000,0.000000000,0.000818306,-0.677239336,-0.000056058,0.000000000,0.000000000,0.000000000,0.059057743,0.243272711,2.811045668,,,,,,,,
1705305321.963087,,,,,,,,,,,,,,,,,,,,,,,,,,,,,,,,,,,,,,,,,,,,,,,,,,,,,,,,,,,,,,,,,11828.000000000,1705305321.962940454,-8.819999695,-15.039999962,161.259994507,3.553999901,-0.477999985,1.396999955
1705305321.979397,,,,,,,,,,,,,,,,,,,,,,,,,,,,,,,,,,,,,,,,,,,,,,,,,,,,,,,,,,,,,,,,,11829.000000000,1705305321.979222775,-8.869999886,-15.180000305,161.190002441,3.546999931,-0.479000002,1.386999965
1705305321.995578,,,,,,,,,,,,,,,,,,,,,,,,,,,,,,,,,,,,,,,,,,,,,,,,,,,,,,,,,,,,,,,,,11830.000000000,1705305321.995487690,-8.899999619,-15.239999771,161.309997559,3.545000076,-0.479999989,1.376000047
1705305322.011768,,,,,,,,,,,,,,,,,,,,,,,,,,,,,,,,,,,,,,,,,,,,,,,,,,,,,,,,,,,,,,,,,11831.000000000,1705305322.011717796,-8.970000267,-15.159999847,161.330001831,3.549000025,-0.479999989,1.368000031
1705305322.028034,,,,,,,,,,,,,,,,,,,,,,,,,,,,,,,,,,,,,,,,,,,,,,,,,,,,,,,,,,,,,,,,,11832.000000000,1705305322.027949810,-9.029999733,-15.260000229,161.240005493,3.542000055,-0.477999985,1.355999947
1705305322.044437,,,,,,,,,,,,,,,,,,,,,,,,,,,,,,,,,,,,,,,,,,,,,,,,,,,,,,,,,,,,,,,,,11833.000000000,1705305322.044243813,-8.960000038,-15.590000153,161.300003052,3.539000034,-0.483000010,1.340999961
1705305322.046603,2.000000000,1.000000000,-0.343429355,0.186151137,0.231828320,22.309746671,-5.132733893,3.368071162,0.216507904,0.782163906,0.000000000,0.000611171,-0.677242577,-0.000035918,0.000000000,0.000000000,0.000000000,0.000000000,0.000000000,0.000000000,2.309746671,-0.132733893,0.000000000,0.059126370,0.000000000,0.000000000,0.000000000,-0.001349391,0.000109400,0.000000000,0.000000000,0.000000000,0.000000000,0.000000000,0.243246123,0.000000000,0.000000000,0.000000000,0.000000000,0.000000000,0.000000000,0.000000000,0.000000000,0.000000000,0.000000000,0.000000000,0.000000000,0.000000000,0.000000000,0.000000000,0.000000000,0.000000000,0.000000000,0.000000000,0.000000000,0.000746111,-0.677239782,-0.000046858,0.000000000,0.000000000,0.000000000,0.059069258,0.243268000,2.811045668,,,,,,,,
1705305322.060650,,,,,,,,,,,,,,,,,,,,,,,,,,,,,,,,,,,,,,,,,,,,,,,,,,,,,,,,,,,,,,,,,11834.000000000,1705305322.060508490,-8.979999542,-15.640000343,161.289993286,3.542000055,-0.479000002,1.338999987
1705305322.076897,,,,,,,,,,,,,,,,,,,,,,,,,,,,,,,,,,,,,,,,,,,,,,,,,,,,,,,,,,,,,,,,,11835.000000000,1705305322.076779604,-9.020000458,-15.880000114,161.320007324,3.532999992,-0.483000010,1.340000033
1705305322.093248,,,,,,,,,,,,,,,,,,,,,,,,,,,,,,,,,,,,,,,,,,,,,,,,,,,,,,,,,,,,,,,,,11836.000000000,1705305322.093076229,-9.000000000,-15.970000267,161.339996338,3.530999899,-0.481999993,1.340000033
1705305322.109393,,,,,,,,,,,,,,,,,,,,,,,,,,,,,,,,,,,,,,,,,,,,,,,,,,,,,,,,,,,,,,,,,11837.000000000,1705305322.109332323,-8.930000305,-16.149999619,161.440002441,3.536999941,-0.486000001,1.325999975
1705305322.125570,,,,,,,,,,,,,,,,,,,,,,,,,,,,,,,,,,,,,,,,,,,,,,,,,,,,,,,,,,,,,,,,,11838.000000000,1705305322.125515699,-8.989999771,-16.280000687,161.399993896,3.529000044,-0.483999997,1.315999985
1705305322.137889,,,,,,,,,,,,,,,,,,,,,,,,,,,,,,,,,,,,,,,,,,,,,,,,,,,,,,,,,,,,,,,,,11839.000000000,1705305322.137715101,-9.060000420,-16.440000534,161.389999390,3.519000053,-0.486999989,1.315000057
1705305322.154226,,,,,,,,,,,,,,,,,,,,,,,,,,,,,,,,,,,,,,,,,,,,,,,,,,,,,,,,,,,,,,,,,11840.000000000,1705305322.154006720,-9.119999886,-16.530000687,161.380004883,3.525000095,-0.481000006,1.310999990
1705305322.168755,2.000000000,1.000000000,-0.343429355,0.186151137,0.019328272,21.449246573,-5.065233588,3.353521180,0.209007904,0.687163913,0.000000000,0.000412084,-0.677241862,-0.000020230,0.000000000,0.000000000,0.000000000,0.000000000,0.000000000,0.000000000,1.449246573,-0.065233588,0.000000000,0.059111059,0.000000000,0.000000000,0.000000000,-0.001990878,0.000156881,0.000000000,0.000000000,0.000000000,0.000000000,0.000000000,0.243252069,0.000000000,0.000000000,0.000000000,0.000000000,0.000000000,0.000000000,0.000000000,0.000000000,0.000000000,0.000000000,0.000000000,0.000000000,0.000000000,0.000000000,0.000000000,0.000000000,0.000000000,0.000000000,0.000000000,0.000000000,0.000611171,-0.677239828,-0.000035918,0.000000000,0.000000000,0.000000000,0.059072447,0.243266464,2.811045668,,,,,,,,
1705305322.170438,,,,,,,,,,,,,,,,,,,,,,,,,,,,,,,,,,,,,,,,,,,,,,,,,,,,,,,,,,,,,,,,,11841.000000000,1705305322.170267582,-9.119999886,-16.549999237,161.389999390,3.526999950,-0.483999997,1.309999943
1705305322.186718,,,,,,,,,,,,,,,,,,,,,,,,,,,,,,,,,,,,,,,,,,,,,,,,,,,,,,,,,,,,,,,,,11842.000000000,1705305322.186527252,-9.100000381,-16.760000229,161.449996948,3.517999887,-0.483999997,1.300999999
1705305322.203005,,,,,,,,,,,,,,,,,,,,,,,,,,,,,,,,,,,,,,,,,,,,,,,,,,,,,,,,,,,,,,,,,11843.000000000,1705305322.202806950,-9.149999619,-16.920000076,161.470001221,3.513000011,-0.486000001,1.284000039
1705305322.219143,,,,,,,,,,,,,,,,,,,,,,,,,,,,,,,,,,,,,,,,,,,,,,,,,,,,,,,,,,,,,,,,,11844.000000000,1705305322.219062090,-9.220000267,-17.040000916,161.429992676,3.507999897,-0.486999989,1.269000053
1705305322.235493,,,,,,,,,,,,,,,,,,,,,,,,,,,,,,,,,,,,,,,,,,,,,,,,,,,,,,,,,,,,,,,,,11845.000000000,1705305322.235292435,-9.289999962,-17.360000610,161.509994507,3.502000093,-0.488000005,1.256000042
1705305322.251812,,,,,,,,,,,,,,,,,,,,,,,,,,,,,,,,,,,,,,,,,,,,,,,,,,,,,,,,,,,,,,,,,11846.000000000,1705305322.251559258,-9.310000420,-17.569999695,161.570007324,3.496999979,-0.486999989,1.241999984
1705305322.268154,,,,,,,,,,,,,,,,,,,,,,,,,,,,,,,,,,,,,,,,,,,,,,,,,,,,,,,,,,,,,,,,,11847.000000000,1705305322.267859221,-9.500000000,-18.129999161,161.660003662,3.480999947,-0.497999996,1.172000051
1705305322.281391,2.000000000,1.000000000,-0.343429355,0.186151137,-0.165171754,20.444246554,-4.966733527,3.334421158,0.203907902,0.618813926,0.000000000,0.000171266,-0.677241504,0.000002607,0.000000000,0.000000000,0.000000000,0.000000000,0.000000000,0.000000000,0.444246554,0.033266473,0.000000000,0.059104897,0.000000000,0.000000000,0.000000000,-0.002408176,0.000228376,0.000000000,0.000000000,0.000000000,0.000000000,0.000000000,0.243254378,0.000000000,0.000000000,0.000000000,0.000000000,0.000000000,0.000000000,0.000000000,0.000000000,0.000000000,0.000000000,0.000000000,0.000000000,0.000000000,0.000000000,0.000000000,0.000000000,0.000000000,0.000000000,0.000000000,0.000000000,0.000412084,-0.677240248,-0.000020230,0.000000000,0.000000000,0.000000000,0.059088563,0.243259380,2.811045668,,,,,,,,
1705305322.284278,,,,,,,,,,,,,,,,,,,,,,,,,,,,,,,,,,,,,,,,,,,,,,,,,,,,,,,,,,,,,,,,,11848.000000000,1705305322.284128666,-9.630000114,-19.299999237,162.000000000,3.405999899,-0.515999973,1.003999949
1705305322.300614,,,,,,,,,,,,,,,,,,,,,,,,,,,,,,,,,,,,,,,,,,,,,,,,,,,,,,,,,,,,,,,,,11849.000000000,1705305322.300441265,-9.810000420,-19.450000763,161.759994507,3.341000080,-0.529999971,0.931999981
1705305322.316991,,,,,,,,,,,,,,,,,,,,,,,,,,,,,,,,,,,,,,,,,,,,,,,,,,,,,,,,,,,,,,,,,11850.000000000,1705305322.316753626,-9.720000267,-19.270000458,161.610000610,3.275000095,-0.550999999,0.884000003
1705305322.333153,,,,,,,,,,,,,,,,,,,,,,,,,,,,,,,,,,,,,,,,,,,,,,,,,,,,,,,,,,,,,,,,,11851.000000000,1705305322.333028078,-9.829999924,-19.409999847,161.729995728,3.315999985,-0.537000000,0.904999971
1705305322.343254,2.000000000,1.000000000,-0.343429355,0.186151137,-0.336671817,19.603746533,-4.866233801,3.291571164,0.193057904,0.528663921,0.000000000,-0.000044997,-0.677241206,0.000027275,0.000000000,0.000000000,0.000000000,0.000000000,0.000000000,0.000000000,-0.396253467,0.133766199,0.000000000,0.059098750,0.000000000,0.000000000,0.000000000,-0.002162635,0.000246675,0.000000000,0.000000000,0.000000000,0.000000000,0.000000000,0.243256658,0.000000000,0.000000000,0.000000000,0.000000000,0.000000000,0.000000000,0.000000000,0.000000000,0.000000000,0.000000000,0.000000000,0.000000000,0.000000000,0.000000000,0.000000000,0.000000000,0.000000000,0.000000000,0.000000000,0.000000000,0.000171266,-0.677240493,0.000002607,0.000000000,0.000000000,0.000000000,0.059102315,0.243252854,2.811045668,,,,,,,,
1705305322.349431,,,,,,,,,,,,,,,,,,,,,,,,,,,,,,,,,,,,,,,,,,,,,,,,,,,,,,,,,,,,,,,,,11852.000000000,1705305322.349303246,-9.770000458,-19.729999542,162.020004272,3.421999931,-0.544000030,0.949999988
1705305322.365764,,,,,,,,,,,,,,,,,,,,,,,,,,,,,,,,,,,,,,,,,,,,,,,,,,,,,,,,,,,,,,,,,11853.000000000,1705305322.365603209,-10.149999619,-19.729999542,161.830001831,3.351999998,-0.517000020,0.935000002
1705305322.377977,,,,,,,,,,,,,,,,,,,,,,,,,,,,,,,,,,,,,,,,,,,,,,,,,,,,,,,,,,,,,,,,,11854.000000000,1705305322.377851963,-9.970000267,-19.860000610,161.779998779,3.311000109,-0.546000004,0.902000010
1705305322.394216,,,,,,,,,,,,,,,,,,,,,,,,,,,,,,,,,,,,,,,,,,,,,,,,,,,,,,,,,,,,,,,,,11855.000000000,1705305322.394121647,-10.140000343,-20.139999390,161.880004883,3.329999924,-0.528999984,0.830999970
1705305322.410666,,,,,,,,,,,,,,,,,,,,,,,,,,,,,,,,,,,,,,,,,,,,,,,,,,,,,,,,,,,,,,,,,11856.000000000,1705305322.410398245,-10.010000229,-20.170000076,161.970001221,3.348000050,-0.541000009,0.837000012
1705305322.426867,,,,,,,,,,,,,,,,,,,,,,,,,,,,,,,,,,,,,,,,,,,,,,,,,,,,,,,,,,,,,,,,,11857.000000000,1705305322.426679850,-10.180000305,-20.010000229,161.860000610,3.349999905,-0.532999992,0.861999989
1705305322.443172,,,,,,,,,,,,,,,,,,,,,,,,,,,,,,,,,,,,,,,,,,,,,,,,,,,,,,,,,,,,,,,,,11858.000000000,1705305322.443018198,-10.130000114,-20.399999619,161.990005493,3.351000071,-0.541000009,0.837000012
1705305322.459461,,,,,,,,,,,,,,,,,,,,,,,,,,,,,,,,,,,,,,,,,,,,,,,,,,,,,,,,,,,,,,,,,11859.000000000,1705305322.459300518,-10.279999733,-20.579999924,161.839996338,3.338000059,-0.541000009,0.806999981
1705305322.475847,,,,,,,,,,,,,,,,,,,,,,,,,,,,,,,,,,,,,,,,,,,,,,,,,,,,,,,,,,,,,,,,,11860.000000000,1705305322.475594759,-10.210000038,-20.629999161,161.899993896,3.315000057,-0.546000004,0.796000004
1705305322.489446,2.000000000,1.000000000,-0.343429355,0.186151137,-0.824171865,17.728246760,-4.617733740,3.207571161,0.168307900,0.317313921,0.000000000,-0.000463350,-0.677241027,0.000081908,0.000000000,0.000000000,0.000000000,0.000000000,0.000000000,0.000000000,-2.271753240,0.382266260,0.000000000,0.059096813,0.000000000,0.000000000,0.000000000,-0.004183527,0.000546335,0.000000000,0.000000000,0.000000000,0.000000000,0.000000000,0.243257239,0.000000000,0.000000000,0.000000000,0.000000000,0.000000000,0.000000000,0.000000000,0.000000000,0.000000000,0.000000000,0.000000000,0.000000000,0.000000000,0.000000000,0.000000000,0.000000000,0.000000000,0.000000000,0.000000000,0.000000000,-0.000044997,-0.677241107,0.000027275,0.000000000,0.000000000,0.000000000,0.059138690,0.243235784,2.811045668,,,,,,,,
1705305322.492100,,,,,,,,,,,,,,,,,,,,,,,,,,,,,,,,,,,,,,,,,,,,,,,,,,,,,,,,,,,,,,,,,11861.000000000,1705305322.491881132,-10.130000114,-20.770000458,161.929992676,3.328000069,-0.550999999,0.790000021
1705305322.508308,,,,,,,,,,,,,,,,,,,,,,,,,,,,,,,,,,,,,,,,,,,,,,,,,,,,,,,,,,,,,,,,,11862.000000000,1705305322.508137703,-10.260000229,-21.010000229,162.070007324,3.361000061,-0.542999983,0.768999994
1705305322.524662,,,,,,,,,,,,,,,,,,,,,,,,,,,,,,,,,,,,,,,,,,,,,,,,,,,,,,,,,,,,,,,,,11863.000000000,1705305322.524442673,-10.420000076,-21.049999237,161.949996948,3.308000088,-0.531000018,0.759999990
1705305322.540854,,,,,,,,,,,,,,,,,,,,,,,,,,,,,,,,,,,,,,,,,,,,,,,,,,,,,,,,,,,,,,,,,11864.000000000,1705305322.540716887,-10.430000305,-21.290000916,161.899993896,3.292000055,-0.545000017,0.755999982
1705305322.556983,,,,,,,,,,,,,,,,,,,,,,,,,,,,,,,,,,,,,,,,,,,,,,,,,,,,,,,,,,,,,,,,,11865.000000000,1705305322.556936741,-10.510000229,-21.620000839,162.080001831,3.341000080,-0.531000018,0.746999979
1705305322.564735,2.000000000,1.000000000,-0.343429355,0.186151137,-1.117671907,16.672746730,-4.483733343,3.160671186,0.154707898,0.187413916,0.000000000,-0.000758121,-0.677240908,0.000119635,0.000000000,0.000000000,0.000000000,0.000000000,0.000000000,0.000000000,-3.327253270,0.516266657,0.000000000,0.059096575,0.000000000,0.000000000,0.000000000,-0.002947705,0.000377268,0.000000000,0.000000000,0.000000000,0.000000000,0.000000000,0.243256941,0.000000000,0.000000000,0.000000000,0.000000000,0.000000000,0.000000000,0.000000000,0.000000000,0.000000000,0.000000000,0.000000000,0.000000000,0.000000000,0.000000000,0.000000000,0.000000000,0.000000000,0.000000000,0.000000000,0.000000000,-0.000463350,-0.677241575,0.000081908,0.000000000,0.000000000,0.000000000,0.059165467,0.243223118,2.811045668,,,,,,,,
1705305322.573306,,,,,,,,,,,,,,,,,,,,,,,,,,,,,,,,,,,,,,,,,,,,,,,,,,,,,,,,,,,,,,,,,11866.000000000,1705305322.573180914,-10.399999619,-21.600000381,162.080001831,3.351000071,-0.542999983,0.754999995
1705305322.589652,,,,,,,,,,,,,,,,,,,,,,,,,,,,,,,,,,,,,,,,,,,,,,,,,,,,,,,,,,,,,,,,,11867.000000000,1705305322.589460611,-10.420000076,-21.520000458,162.029998779,3.322999954,-0.541000009,0.757000029
1705305322.601839,,,,,,,,,,,,,,,,,,,,,,,,,,,,,,,,,,,,,,,,,,,,,,,,,,,,,,,,,,,,,,,,,11868.000000000,1705305322.601752520,-10.369999886,-21.780000687,162.050003052,3.318000078,-0.552999973,0.711000025
1705305322.618076,,,,,,,,,,,,,,,,,,,,,,,,,,,,,,,,,,,,,,,,,,,,,,,,,,,,,,,,,,,,,,,,,11869.000000000,1705305322.618018150,-10.460000038,-21.840000153,162.020004272,3.315000057,-0.549000025,0.698000014
1705305322.634565,,,,,,,,,,,,,,,,,,,,,,,,,,,,,,,,,,,,,,,,,,,,,,,,,,,,,,,,,,,,,,,,,11870.000000000,1705305322.634310484,-10.460000038,-21.930000305,162.080001831,3.305999994,-0.549000025,0.723999977
1705305322.650748,,,,,,,,,,,,,,,,,,,,,,,,,,,,,,,,,,,,,,,,,,,,,,,,,,,,,,,,,,,,,,,,,11871.000000000,1705305322.650609732,-10.420000076,-21.979999542,162.039993286,3.319999933,-0.555000007,0.736000001
1705305322.667173,,,,,,,,,,,,,,,,,,,,,,,,,,,,,,,,,,,,,,,,,,,,,,,,,,,,,,,,,,,,,,,,,11872.000000000,1705305322.666977644,-10.449999809,-22.299999237,162.160003662,3.344000101,-0.546000004,0.736000001
1705305322.683461,,,,,,,,,,,,,,,,,,,,,,,,,,,,,,,,,,,,,,,,,,,,,,,,,,,,,,,,,,,,,,,,,11873.000000000,1705305322.683267832,-10.550000191,-22.229999542,162.070007324,3.305000067,-0.540000021,0.709999979
1705305322.699848,,,,,,,,,,,,,,,,,,,,,,,,,,,,,,,,,,,,,,,,,,,,,,,,,,,,,,,,,,,,,,,,,11874.000000000,1705305322.699620008,-10.489999771,-22.229999542,162.020004272,3.292999983,-0.551999986,0.693000019
1705305322.716116,,,,,,,,,,,,,,,,,,,,,,,,,,,,,,,,,,,,,,,,,,,,,,,,,,,,,,,,,,,,,,,,,11875.000000000,1705305322.715939999,-10.590000153,-22.350000381,162.139999390,3.319000006,-0.542999983,0.685000002
1705305322.732407,,,,,,,,,,,,,,,,,,,,,,,,,,,,,,,,,,,,,,,,,,,,,,,,,,,,,,,,,,,,,,,,,11876.000000000,1705305322.732227325,-10.550000191,-22.290000916,162.070007324,3.323999882,-0.549000025,0.699999988
1705305322.735328,2.000000000,1.000000000,-0.343429355,0.186151137,-1.483671796,15.208246589,-4.336232733,3.132621193,0.143507895,0.052963921,0.000000000,-0.001109975,-0.677241087,0.000156680,0.000000000,0.000000000,0.000000000,0.000000000,0.000000000,0.000000000,-4.791753411,0.663767267,0.000000000,0.059113611,0.000000000,0.000000000,0.000000000,-0.003518541,0.000370455,0.000000000,0.000000000,0.000000000,0.000000000,0.000000000,0.243248597,0.000000000,0.000000000,0.000000000,0.000000000,0.000000000,0.000000000,0.000000000,0.000000000,0.000000000,0.000000000,0.000000000,0.000000000,0.000000000,0.000000000,0.000000000,0.000000000,0.000000000,0.000000000,0.000000000,0.000000000,-0.000758121,-0.677242752,0.000119635,0.000000000,0.000000000,0.000000000,0.059214957,0.243200721,2.811045668,,,,,,,,
1705305322.748750,,,,,,,,,,,,,,,,,,,,,,,,,,,,,,,,,,,,,,,,,,,,,,,,,,,,,,,,,,,,,,,,,11877.000000000,1705305322.748566151,-10.470000267,-22.309999466,162.100006104,3.316999912,-0.549000025,0.726000011
1705305322.762343,2.000000000,1.000000000,-0.343429355,0.186151137,-1.498171794,15.093246627,-4.324232458,3.130971193,0.142707893,0.046163922,0.000000000,-0.001203346,-0.677241147,0.000166490,0.000000000,0.000000000,0.000000000,0.000000000,0.000000000,0.000000000,-4.906753373,0.675767542,0.000000000,0.059119027,0.000000000,0.000000000,0.000000000,-0.000933708,0.000098092,0.000000000,0.000000000,0.000000000,0.000000000,0.000000000,0.243245929,0.000000000,0.000000000,0.000000000,0.000000000,0.000000000,0.000000000,0.000000000,0.000000000,0.000000000,0.000000000,0.000000000,0.000000000,0.000000000,0.000000000,0.000000000,0.000000000,0.000000000,0.000000000,0.000000000,0.000000000,-0.001109975,-0.677243078,0.000156680,0.000000000,0.000000000,0.000000000,0.059228986,0.243194326,2.811045668,,,,,,,,
1705305322.764960,,,,,,,,,,,,,,,,,,,,,,,,,,,,,,,,,,,,,,,,,,,,,,,,,,,,,,,,,,,,,,,,,11878.000000000,1705305322.764912605,-10.500000000,-22.459999084,162.139999390,3.331000090,-0.550999999,0.707000017
1705305322.781274,,,,,,,,,,,,,,,,,,,,,,,,,,,,,,,,,,,,,,,,,,,,,,,,,,,,,,,,,,,,,,,,,11879.000000000,1705305322.781172514,-10.510000229,-22.459999084,162.039993286,3.321000099,-0.554000020,0.689999998
1705305322.797668,,,,,,,,,,,,,,,,,,,,,,,,,,,,,,,,,,,,,,,,,,,,,,,,,,,,,,,,,,,,,,,,,11880.000000000,1705305322.797451735,-10.489999771,-22.389999390,162.110000610,3.295000076,-0.554000020,0.686999977
1705305322.809821,,,,,,,,,,,,,,,,,,,,,,,,,,,,,,,,,,,,,,,,,,,,,,,,,,,,,,,,,,,,,,,,,11881.000000000,1705305322.809662342,-10.510000229,-22.340000153,162.059997559,3.303999901,-0.554000020,0.693000019
1705305322.825938,,,,,,,,,,,,,,,,,,,,,,,,,,,,,,,,,,,,,,,,,,,,,,,,,,,,,,,,,,,,,,,,,11882.000000000,1705305322.825901747,-10.510000229,-22.440000534,162.070007324,3.336999893,-0.550000012,0.705999970
1705305322.842341,,,,,,,,,,,,,,,,,,,,,,,,,,,,,,,,,,,,,,,,,,,,,,,,,,,,,,,,,,,,,,,,,11883.000000000,1705305322.842209339,-10.520000458,-22.649999619,162.160003662,3.316999912,-0.544000030,0.704999983
1705305322.858710,,,,,,,,,,,,,,,,,,,,,,,,,,,,,,,,,,,,,,,,,,,,,,,,,,,,,,,,,,,,,,,,,11884.000000000,1705305322.858511209,-10.500000000,-22.690000534,162.130004883,3.306999922,-0.551999986,0.691999972
1705305322.874860,,,,,,,,,,,,,,,,,,,,,,,,,,,,,,,,,,,,,,,,,,,,,,,,,,,,,,,,,,,,,,,,,11885.000000000,1705305322.874763250,-10.579999924,-22.809999466,162.080001831,3.315999985,-0.546999991,0.679000020
1705305322.891254,,,,,,,,,,,,,,,,,,,,,,,,,,,,,,,,,,,,,,,,,,,,,,,,,,,,,,,,,,,,,,,,,11886.000000000,1705305322.891052723,-10.560000420,-22.809999466,162.059997559,3.316999912,-0.547999978,0.683000028
1705305322.907499,,,,,,,,,,,,,,,,,,,,,,,,,,,,,,,,,,,,,,,,,,,,,,,,,,,,,,,,,,,,,,,,,11887.000000000,1705305322.907319307,-10.460000038,-22.770000458,162.070007324,3.313999891,-0.554000020,0.704999983
1705305322.921854,2.000000000,1.000000000,-0.343429355,0.186151137,-1.595671833,14.325746798,-4.266731238,3.123521149,0.137957892,0.004813921,0.000000000,-0.001375520,-0.677241266,0.000179952,0.000000000,0.000000000,0.000000000,0.000000000,0.000000000,0.000000000,-5.674253202,0.733268762,0.000000000,0.059129875,0.000000000,0.000000000,0.000000000,-0.001721741,0.000134621,0.000000000,0.000000000,0.000000000,0.000000000,0.000000000,0.243240744,0.000000000,0.000000000,0.000000000,0.000000000,0.000000000,0.000000000,0.000000000,0.000000000,0.000000000,0.000000000,0.000000000,0.000000000,0.000000000,0.000000000,0.000000000,0.000000000,0.000000000,0.000000000,0.000000000,0.000000000,-0.001203346,-0.677243860,0.000166490,0.000000000,0.000000000,0.000000000,0.059255836,0.243182680,2.811045668,,,,,,,,
1705305322.923872,,,,,,,,,,,,,,,,,,,,,,,,,,,,,,,,,,,,,,,,,,,,,,,,,,,,,,,,,,,,,,,,,11888.000000000,1705305322.923646212,-10.449999809,-23.010000229,162.100006104,3.329999924,-0.550999999,0.691999972
1705305322.940132,,,,,,,,,,,,,,,,,,,,,,,,,,,,,,,,,,,,,,,,,,,,,,,,,,,,,,,,,,,,,,,,,11889.000000000,1705305322.939926386,-10.479999542,-23.100000381,162.160003662,3.328000069,-0.552999973,0.689999998
1705305322.956378,,,,,,,,,,,,,,,,,,,,,,,,,,,,,,,,,,,,,,,,,,,,,,,,,,,,,,,,,,,,,,,,,11890.000000000,1705305322.956194878,-10.640000343,-22.930000305,162.110000610,3.302999973,-0.547999978,0.693000019
1705305322.971822,2.000000000,1.000000000,-0.343429355,0.186151137,-1.609671819,14.151246810,-4.255731177,3.124621141,0.137907895,0.001913920,0.000000000,-0.001444855,-0.677241445,0.000184844,0.000000000,0.000000000,0.000000000,0.000000000,0.000000000,0.000000000,-5.848753190,0.744268823,0.000000000,0.059141640,0.000000000,0.000000000,0.000000000,-0.000693348,0.000048924,0.000000000,0.000000000,0.000000000,0.000000000,0.000000000,0.243235126,0.000000000,0.000000000,0.000000000,0.000000000,0.000000000,0.000000000,0.000000000,0.000000000,0.000000000,0.000000000,0.000000000,0.000000000,0.000000000,0.000000000,0.000000000,0.000000000,0.000000000,0.000000000,0.000000000,0.000000000,-0.001375520,-0.677244325,0.000179952,0.000000000,0.000000000,0.000000000,0.059274059,0.243174507,2.811045668,,,,,,,,
1705305322.972798,,,,,,,,,,,,,,,,,,,,,,,,,,,,,,,,,,,,,,,,,,,,,,,,,,,,,,,,,,,,,,,,,11891.000000000,1705305322.972507477,-10.520000458,-22.959999084,162.130004883,3.308000088,-0.558000028,0.694999993
1705305322.988814,,,,,,,,,,,,,,,,,,,,,,,,,,,,,,,,,,,,,,,,,,,,,,,,,,,,,,,,,,,,,,,,,11892.000000000,1705305322.988747597,-10.510000229,-22.969999313,162.139999390,3.332999945,-0.547999978,0.686999977
1705305323.005170,,,,,,,,,,,,,,,,,,,,,,,,,,,,,,,,,,,,,,,,,,,,,,,,,,,,,,,,,,,,,,,,,11893.000000000,1705305323.005002260,-10.619999886,-22.940000534,162.119995117,3.319000006,-0.542999983,0.697000027
1705305323.021519,,,,,,,,,,,,,,,,,,,,,,,,,,,,,,,,,,,,,,,,,,,,,,,,,,,,,,,,,,,,,,,,,11894.000000000,1705305323.021277428,-10.609999657,-22.930000305,162.139999390,3.312999964,-0.546999991,0.694000006
1705305323.033704,,,,,,,,,,,,,,,,,,,,,,,,,,,,,,,,,,,,,,,,,,,,,,,,,,,,,,,,,,,,,,,,,11895.000000000,1705305323.033517122,-10.579999924,-22.959999084,162.119995117,3.323999882,-0.546999991,0.693000019
1705305323.049856,,,,,,,,,,,,,,,,,,,,,,,,,,,,,,,,,,,,,,,,,,,,,,,,,,,,,,,,,,,,,,,,,11896.000000000,1705305323.049767971,-10.500000000,-23.059999466,162.110000610,3.322999954,-0.546999991,0.694000006
1705305323.050894,2.000000000,1.000000000,-0.343429355,0.186151137,-1.624171817,13.929246879,-4.242732214,3.125371134,0.137657899,-0.003086078,0.000000000,-0.001503122,-0.677241683,0.000188422,0.000000000,0.000000000,0.000000000,0.000000000,0.000000000,0.000000000,-6.070753121,0.757267786,0.000000000,0.059153724,0.000000000,0.000000000,0.000000000,-0.000582670,0.000035783,0.000000000,0.000000000,0.000000000,0.000000000,0.000000000,0.243229479,0.000000000,0.000000000,0.000000000,0.000000000,0.000000000,0.000000000,0.000000000,0.000000000,0.000000000,0.000000000,0.000000000,0.000000000,0.000000000,0.000000000,0.000000000,0.000000000,0.000000000,0.000000000,0.000000000,0.000000000,-0.001444855,-0.677244824,0.000184844,0.000000000,0.000000000,0.000000000,0.059291584,0.243166761,2.811045668,,,,,,,,
1705305323.066146,,,,,,,,,,,,,,,,,,,,,,,,,,,,,,,,,,,,,,,,,,,,,,,,,,,,,,,,,,,,,,,,,11897.000000000,1705305323.066016436,-10.590000153,-23.030000687,162.070007324,3.322000027,-0.550999999,0.705999970
1705305323.082535,,,,,,,,,,,,,,,,,,,,,,,,,,,,,,,,,,,,,,,,,,,,,,,,,,,,,,,,,,,,,,,,,11898.000000000,1705305323.082292557,-10.529999733,-23.040000916,162.210006714,3.338000059,-0.546000004,0.689999998
1705305323.098685,,,,,,,,,,,,,,,,,,,,,,,,,,,,,,,,,,,,,,,,,,,,,,,,,,,,,,,,,,,,,,,,,11899.000000000,1705305323.098563194,-10.510000229,-23.129999161,162.169998169,3.326999903,-0.555000007,0.689999998
1705305323.114860,,,,,,,,,,,,,,,,,,,,,,,,,,,,,,,,,,,,,,,,,,,,,,,,,,,,,,,,,,,,,,,,,11900.000000000,1705305323.114795208,-10.539999962,-23.090000153,162.009994507,3.309000015,-0.545000017,0.699000001
1705305323.131335,,,,,,,,,,,,,,,,,,,,,,,,,,,,,,,,,,,,,,,,,,,,,,,,,,,,,,,,,,,,,,,,,11901.000000000,1705305323.131122351,-10.500000000,-23.000000000,162.000000000,3.322000027,-0.556999981,0.700999975
1705305323.147583,,,,,,,,,,,,,,,,,,,,,,,,,,,,,,,,,,,,,,,,,,,,,,,,,,,,,,,,,,,,,,,,,11902.000000000,1705305323.147426844,-10.550000191,-23.110000610,162.139999390,3.346999884,-0.541000009,0.704999983
1705305323.163748,,,,,,,,,,,,,,,,,,,,,,,,,,,,,,,,,,,,,,,,,,,,,,,,,,,,,,,,,,,,,,,,,11903.000000000,1705305323.163689852,-10.640000343,-22.940000534,162.160003662,3.329999924,-0.541999996,0.702000022
1705305323.180139,,,,,,,,,,,,,,,,,,,,,,,,,,,,,,,,,,,,,,,,,,,,,,,,,,,,,,,,,,,,,,,,,11904.000000000,1705305323.179968357,-10.680000305,-22.959999084,162.080001831,3.321000099,-0.546000004,0.691999972
1705305323.196501,,,,,,,,,,,,,,,,,,,,,,,,,,,,,,,,,,,,,,,,,,,,,,,,,,,,,,,,,,,,,,,,,11905.000000000,1705305323.196270943,-10.590000153,-23.159999847,162.149993896,3.334000111,-0.542999983,0.699000001
1705305323.207595,2.000000000,1.000000000,-0.343429355,0.186151137,-1.651171815,13.683746695,-4.237732672,3.130621147,0.139107904,-0.003136081,0.000000000,-0.001563875,-0.677242279,0.000190138,0.000000000,0.000000000,0.000000000,0.000000000,0.000000000,0.000000000,-6.316253305,0.762267328,0.000000000,0.059178948,0.000000000,0.000000000,0.000000000,-0.000607534,0.000017156,0.000000000,0.000000000,0.000000000,0.000000000,0.000000000,0.243218035,0.000000000,0.000000000,0.000000000,0.000000000,0.000000000,0.000000000,0.000000000,0.000000000,0.000000000,0.000000000,0.000000000,0.000000000,0.000000000,0.000000000,0.000000000,0.000000000,0.000000000,0.000000000,0.000000000,0.000000000,-0.001503122,-0.677245767,0.000188422,0.000000000,0.000000000,0.000000000,0.059322534,0.243153307,2.811045668,,,,,,,,
1705305323.212726,,,,,,,,,,,,,,,,,,,,,,,,,,,,,,,,,,,,,,,,,,,,,,,,,,,,,,,,,,,,,,,,,11906.000000000,1705305323.212544203,-10.569999695,-23.159999847,162.160003662,3.338000059,-0.545000017,0.703000009
1705305323.229001,,,,,,,,,,,,,,,,,,,,,,,,,,,,,,,,,,,,,,,,,,,,,,,,,,,,,,,,,,,,,,,,,11907.000000000,1705305323.228812695,-10.529999733,-23.020000458,162.080001831,3.339999914,-0.546000004,0.717999995
1705305323.245197,,,,,,,,,,,,,,,,,,,,,,,,,,,,,,,,,,,,,,,,,,,,,,,,,,,,,,,,,,,,,,,,,11908.000000000,1705305323.245087862,-10.600000381,-23.059999466,162.000000000,3.338999987,-0.544000030,0.708999991
1705305323.261411,,,,,,,,,,,,,,,,,,,,,,,,,,,,,,,,,,,,,,,,,,,,,,,,,,,,,,,,,,,,,,,,,11909.000000000,1705305323.261367321,-10.489999771,-22.969999313,162.130004883,3.332999945,-0.552999973,0.699999988
1705305323.273625,,,,,,,,,,,,,,,,,,,,,,,,,,,,,,,,,,,,,,,,,,,,,,,,,,,,,,,,,,,,,,,,,11910.000000000,1705305323.273545504,-10.539999962,-22.899999619,162.070007324,3.328000069,-0.541999996,0.705999970
1705305323.273666,2.000000000,1.000000000,-0.343429355,0.186151137,-1.663171804,13.657746768,-4.238732886,3.133671152,0.140007901,-0.000136081,0.000000000,-0.001581226,-0.677242756,0.000190281,0.000000000,0.000000000,0.000000000,0.000000000,0.000000000,0.000000000,-6.342253232,0.761267114,0.000000000,0.059200473,0.000000000,0.000000000,0.000000000,-0.000173507,0.000001431,0.000000000,0.000000000,0.000000000,0.000000000,0.000000000,0.243208244,0.000000000,0.000000000,0.000000000,0.000000000,0.000000000,0.000000000,0.000000000,0.000000000,0.000000000,0.000000000,0.000000000,0.000000000,0.000000000,0.000000000,0.000000000,0.000000000,0.000000000,0.000000000,0.000000000,0.000000000,-0.001563875,-0.677246356,0.000190138,0.000000000,0.000000000,0.000000000,0.059345703,0.243142974,2.811045668,,,,,,,,
1705305323.289984,,,,,,,,,,,,,,,,,,,,,,,,,,,,,,,,,,,,,,,,,,,,,,,,,,,,,,,,,,,,,,,,,11911.000000000,1705305323.289803505,-10.399999619,-22.909999847,162.070007324,3.341000080,-0.555999994,0.711000025
1705305323.306300,,,,,,,,,,,,,,,,,,,,,,,,,,,,,,,,,,,,,,,,,,,,,,,,,,,,,,,,,,,,,,,,,11912.000000000,1705305323.306087494,-10.500000000,-23.100000381,162.149993896,3.354000092,-0.537999988,0.714999974
1705305323.322390,,,,,,,,,,,,,,,,,,,,,,,,,,,,,,,,,,,,,,,,,,,,,,,,,,,,,,,,,,,,,,,,,11913.000000000,1705305323.322338104,-10.380000114,-23.079999924,162.100006104,3.342999935,-0.550999999,0.716000021
1705305323.338746,,,,,,,,,,,,,,,,,,,,,,,,,,,,,,,,,,,,,,,,,,,,,,,,,,,,,,,,,,,,,,,,,11914.000000000,1705305323.338601112,-10.579999924,-22.729999542,161.979995728,3.338999987,-0.541999996,0.709999979
1705305323.355049,,,,,,,,,,,,,,,,,,,,,,,,,,,,,,,,,,,,,,,,,,,,,,,,,,,,,,,,,,,,,,,,,11915.000000000,1705305323.354874849,-10.449999809,-22.850000381,162.100006104,3.346999884,-0.542999983,0.714999974
1705305323.367111,2.000000000,1.000000000,-0.343429355,0.186151137,-1.631671751,13.663746715,-4.253231787,3.141271162,0.140957901,0.005563914,0.000000000,-0.001583496,-0.677243292,0.000187410,0.000000000,0.000000000,0.000000000,0.000000000,0.000000000,0.000000000,-6.336253285,0.746768213,0.000000000,0.059221748,0.000000000,0.000000000,0.000000000,-0.000022701,-0.000028712,0.000000000,0.000000000,0.000000000,0.000000000,0.000000000,0.243198723,0.000000000,0.000000000,0.000000000,0.000000000,0.000000000,0.000000000,0.000000000,0.000000000,0.000000000,0.000000000,0.000000000,0.000000000,0.000000000,0.000000000,0.000000000,0.000000000,0.000000000,0.000000000,0.000000000,0.000000000,-0.001581226,-0.677247015,0.000190281,0.000000000,0.000000000,0.000000000,0.059367268,0.243133638,2.811045668,,,,,,,,
1705305323.371325,,,,,,,,,,,,,,,,,,,,,,,,,,,,,,,,,,,,,,,,,,,,,,,,,,,,,,,,,,,,,,,,,11916.000000000,1705305323.371171474,-10.460000038,-22.799999237,162.059997559,3.348000050,-0.544000030,0.722000003
1705305323.387475,,,,,,,,,,,,,,,,,,,,,,,,,,,,,,,,,,,,,,,,,,,,,,,,,,,,,,,,,,,,,,,,,11917.000000000,1705305323.387410164,-10.460000038,-22.700000763,162.039993286,3.348999977,-0.544000030,0.730000019
1705305323.403857,,,,,,,,,,,,,,,,,,,,,,,,,,,,,,,,,,,,,,,,,,,,,,,,,,,,,,,,,,,,,,,,,11918.000000000,1705305323.403673410,-10.539999962,-22.760000229,162.050003052,3.351000071,-0.540000021,0.731000006
1705305323.420150,,,,,,,,,,,,,,,,,,,,,,,,,,,,,,,,,,,,,,,,,,,,,,,,,,,,,,,,,,,,,,,,,11919.000000000,1705305323.419957399,-10.350000381,-22.799999237,162.080001831,3.351000071,-0.546999991,0.730000019
1705305323.436328,,,,,,,,,,,,,,,,,,,,,,,,,,,,,,,,,,,,,,,,,,,,,,,,,,,,,,,,,,,,,,,,,11920.000000000,1705305323.436228275,-10.460000038,-22.559999466,162.039993286,3.351000071,-0.540000021,0.740999997
1705305323.452620,,,,,,,,,,,,,,,,,,,,,,,,,,,,,,,,,,,,,,,,,,,,,,,,,,,,,,,,,,,,,,,,,11921.000000000,1705305323.452493191,-10.409999847,-22.549999237,162.009994507,3.355000019,-0.545000017,0.745999992
1705305323.468932,,,,,,,,,,,,,,,,,,,,,,,,,,,,,,,,,,,,,,,,,,,,,,,,,,,,,,,,,,,,,,,,,11922.000000000,1705305323.468779564,-10.489999771,-22.559999466,161.960006714,3.362999916,-0.538999975,0.751999974
1705305323.473736,2.000000000,1.000000000,-0.343429355,0.186151137,-1.604171741,13.800246882,-4.276732611,3.150271177,0.143107897,0.018913918,0.000000000,-0.001556650,-0.677243590,0.000182135,0.000000000,0.000000000,0.000000000,0.000000000,0.000000000,0.000000000,-6.199753118,0.723267389,0.000000000,0.059233014,0.000000000,0.000000000,0.000000000,0.000268460,-0.000052744,0.000000000,0.000000000,0.000000000,0.000000000,0.000000000,0.243193626,0.000000000,0.000000000,0.000000000,0.000000000,0.000000000,0.000000000,0.000000000,0.000000000,0.000000000,0.000000000,0.000000000,0.000000000,0.000000000,0.000000000,0.000000000,0.000000000,0.000000000,0.000000000,0.000000000,0.000000000,-0.001583496,-0.677247328,0.000187410,0.000000000,0.000000000,0.000000000,0.059376121,0.243129832,2.811045668,,,,,,,,
1705305323.485231,,,,,,,,,,,,,,,,,,,,,,,,,,,,,,,,,,,,,,,,,,,,,,,,,,,,,,,,,,,,,,,,,11923.000000000,1705305323.485062838,-10.300000191,-22.379999161,161.979995728,3.362999916,-0.546999991,0.759000003
1705305323.501351,,,,,,,,,,,,,,,,,,,,,,,,,,,,,,,,,,,,,,,,,,,,,,,,,,,,,,,,,,,,,,,,,11924.000000000,1705305323.501305819,-10.489999771,-22.049999237,161.940002441,3.361999989,-0.542999983,0.760999978
1705305323.513553,,,,,,,,,,,,,,,,,,,,,,,,,,,,,,,,,,,,,,,,,,,,,,,,,,,,,,,,,,,,,,,,,11925.000000000,1705305323.513468742,-10.399999619,-22.049999237,161.929992676,3.364000082,-0.542999983,0.762000024
1705305323.529880,,,,,,,,,,,,,,,,,,,,,,,,,,,,,,,,,,,,,,,,,,,,,,,,,,,,,,,,,,,,,,,,,11926.000000000,1705305323.529745102,-10.500000000,-21.899999619,161.880004883,3.367000103,-0.541000009,0.764999986
1705305323.546216,,,,,,,,,,,,,,,,,,,,,,,,,,,,,,,,,,,,,,,,,,,,,,,,,,,,,,,,,,,,,,,,,11927.000000000,1705305323.546045303,-10.229999542,-21.750000000,161.910003662,3.372999907,-0.540000021,0.773000002
1705305323.562359,,,,,,,,,,,,,,,,,,,,,,,,,,,,,,,,,,,,,,,,,,,,,,,,,,,,,,,,,,,,,,,,,11928.000000000,1705305323.562302589,-10.479999542,-22.139999390,161.970001221,3.364000082,-0.537000000,0.782000005
1705305323.578852,,,,,,,,,,,,,,,,,,,,,,,,,,,,,,,,,,,,,,,,,,,,,,,,,,,,,,,,,,,,,,,,,11929.000000000,1705305323.578567982,-10.229999542,-21.969999313,161.970001221,3.375000000,-0.538999975,0.782000005
1705305323.595082,,,,,,,,,,,,,,,,,,,,,,,,,,,,,,,,,,,,,,,,,,,,,,,,,,,,,,,,,,,,,,,,,11930.000000000,1705305323.594871044,-10.220000267,-21.670000076,161.940002441,3.375999928,-0.541000009,0.787000000
1705305323.611220,,,,,,,,,,,,,,,,,,,,,,,,,,,,,,,,,,,,,,,,,,,,,,,,,,,,,,,,,,,,,,,,,11931.000000000,1705305323.611129761,-10.289999962,-21.569999695,161.929992676,3.377000093,-0.538999975,0.783999979
1705305323.627517,,,,,,,,,,,,,,,,,,,,,,,,,,,,,,,,,,,,,,,,,,,,,,,,,,,,,,,,,,,,,,,,,11932.000000000,1705305323.627413034,-10.390000343,-21.329999924,161.850006104,3.382999897,-0.537999988,0.769999981
1705305323.643898,,,,,,,,,,,,,,,,,,,,,,,,,,,,,,,,,,,,,,,,,,,,,,,,,,,,,,,,,,,,,,,,,11933.000000000,1705305323.643707037,-10.199999809,-21.120000839,161.910003662,3.384999990,-0.544000030,0.777999997
1705305323.660089,,,,,,,,,,,,,,,,,,,,,,,,,,,,,,,,,,,,,,,,,,,,,,,,,,,,,,,,,,,,,,,,,11934.000000000,1705305323.659978151,-10.279999733,-20.920000076,161.850006104,3.388999939,-0.536000013,0.785000026
1705305323.676397,,,,,,,,,,,,,,,,,,,,,,,,,,,,,,,,,,,,,,,,,,,,,,,,,,,,,,,,,,,,,,,,,11935.000000000,1705305323.676245689,-9.689999580,-19.899999619,162.389999390,3.441999912,-0.532000005,0.896000028
1705305323.684505,2.000000000,1.000000000,-0.343429355,0.186151137,-1.441671646,14.704746985,-4.365733313,3.176921165,0.146657896,0.068313923,0.000000000,-0.001370381,-0.677245498,0.000163280,0.000000000,0.000000000,0.000000000,0.000000000,0.000000000,0.000000000,-5.295253015,0.634266687,0.000000000,0.059305668,0.000000000,0.000000000,0.000000000,0.001862692,-0.000188550,0.000000000,0.000000000,0.000000000,0.000000000,0.000000000,0.243161246,0.000000000,0.000000000,0.000000000,0.000000000,0.000000000,0.000000000,0.000000000,0.000000000,0.000000000,0.000000000,0.000000000,0.000000000,0.000000000,0.000000000,0.000000000,0.000000000,0.000000000,0.000000000,0.000000000,0.000000000,-0.001556650,-0.677248679,0.000182135,0.000000000,0.000000000,0.000000000,0.059431574,0.243104824,2.811045668,,,,,,,,
1705305323.687005,2.000000000,1.000000000,-0.343429355,0.186151137,-1.441671646,14.704746985,-4.365733313,3.176921165,0.146657896,0.068313923,0.000000000,-0.001333127,-0.677245498,0.000159509,0.000000000,0.000000000,0.000000000,0.000000000,0.000000000,0.000000000,-5.295253015,0.634266687,0.000000000,0.059305668,0.000000000,0.000000000,0.000000000,0.000372538,-0.000037710,0.000000000,0.000000000,0.000000000,0.000000000,0.000000000,0.243161246,0.000000000,0.000000000,0.000000000,0.000000000,0.000000000,0.000000000,0.000000000,0.000000000,0.000000000,0.000000000,0.000000000,0.000000000,0.000000000,0.000000000,0.000000000,0.000000000,0.000000000,0.000000000,0.000000000,0.000000000,-0.001370381,-0.677248567,0.000163280,0.000000000,0.000000000,0.000000000,0.059428134,0.243106298,2.811045668,,,,,,,,
1705305323.692688,,,,,,,,,,,,,,,,,,,,,,,,,,,,,,,,,,,,,,,,,,,,,,,,,,,,,,,,,,,,,,,,,11936.000000000,1705305323.692527533,-10.310000420,-18.520000458,161.529998779,3.447000027,-0.518000007,0.999000013
1705305323.708876,,,,,,,,,,,,,,,,,,,,,,,,,,,,,,,,,,,,,,,,,,,,,,,,,,,,,,,,,,,,,,,,,11937.000000000,1705305323.708805561,-9.619999886,-16.260000229,161.639999390,3.486999989,-0.500999987,1.029999971
1705305323.725168,,,,,,,,,,,,,,,,,,,,,,,,,,,,,,,,,,,,,,,,,,,,,,,,,,,,,,,,,,,,,,,,,11938.000000000,1705305323.725049496,-9.569999695,-16.389999390,161.309997559,3.424999952,-0.549000025,0.994000018
1705305323.741464,,,,,,,,,,,,,,,,,,,,,,,,,,,,,,,,,,,,,,,,,,,,,,,,,,,,,,,,,,,,,,,,,11939.000000000,1705305323.741320848,-9.810000420,-16.500000000,161.350006104,3.392999887,-0.500000000,0.941999972
1705305323.750229,2.000000000,1.000000000,-0.343429355,0.186151137,-1.316671646,15.874246955,-4.485733008,3.194571149,0.152007899,0.120913919,0.000000000,-0.001091776,-0.677246690,0.000134755,0.000000000,0.000000000,0.000000000,0.000000000,0.000000000,0.000000000,-4.125753045,0.514266992,0.000000000,0.059350684,0.000000000,0.000000000,0.000000000,0.002413508,-0.000247541,0.000000000,0.000000000,0.000000000,0.000000000,0.000000000,0.243141174,0.000000000,0.000000000,0.000000000,0.000000000,0.000000000,0.000000000,0.000000000,0.000000000,0.000000000,0.000000000,0.000000000,0.000000000,0.000000000,0.000000000,0.000000000,0.000000000,0.000000000,0.000000000,0.000000000,0.000000000,-0.001333127,-0.677249050,0.000159509,0.000000000,0.000000000,0.000000000,0.059450872,0.243095807,2.811045668,,,,,,,,
1705305323.753562,,,,,,,,,,,,,,,,,,,,,,,,,,,,,,,,,,,,,,,,,,,,,,,,,,,,,,,,,,,,,,,,,11940.000000000,1705305323.753479242,-10.300000191,-16.950000763,161.369995117,3.496999979,-0.508000016,0.992999971
1705305323.769990,,,,,,,,,,,,,,,,,,,,,,,,,,,,,,,,,,,,,,,,,,,,,,,,,,,,,,,,,,,,,,,,,11941.000000000,1705305323.769754410,-9.470000267,-18.200000763,161.389999390,3.473000050,-0.513000011,1.014000058
1705305323.786205,,,,,,,,,,,,,,,,,,,,,,,,,,,,,,,,,,,,,,,,,,,,,,,,,,,,,,,,,,,,,,,,,11942.000000000,1705305323.786029577,-9.760000229,-17.879999161,161.649993896,3.470999956,-0.514999986,1.054999948
1705305323.802501,,,,,,,,,,,,,,,,,,,,,,,,,,,,,,,,,,,,,,,,,,,,,,,,,,,,,,,,,,,,,,,,,11943.000000000,1705305323.802311182,-9.779999733,-17.690000534,161.440002441,3.460999966,-0.523999989,1.021000028
1705305323.818608,,,,,,,,,,,,,,,,,,,,,,,,,,,,,,,,,,,,,,,,,,,,,,,,,,,,,,,,,,,,,,,,,11944.000000000,1705305323.818553209,-9.699999809,-18.020000458,161.449996948,3.424000025,-0.527000010,0.991999984
1705305323.834944,,,,,,,,,,,,,,,,,,,,,,,,,,,,,,,,,,,,,,,,,,,,,,,,,,,,,,,,,,,,,,,,,11945.000000000,1705305323.834793568,-9.609999657,-17.690000534,161.589996338,3.440999985,-0.518000007,0.990000010
1705305323.848058,2.000000000,1.000000000,-0.343429355,0.186151137,-1.120171678,17.260246634,-4.634233069,3.225021147,0.159607896,0.198113921,0.000000000,-0.000766306,-0.677246630,0.000100104,0.000000000,0.000000000,0.000000000,0.000000000,0.000000000,0.000000000,-2.739753366,0.365766931,0.000000000,0.059351508,0.000000000,0.000000000,0.000000000,0.003254701,-0.000346508,0.000000000,0.000000000,0.000000000,0.000000000,0.000000000,0.243140697,0.000000000,0.000000000,0.000000000,0.000000000,0.000000000,0.000000000,0.000000000,0.000000000,0.000000000,0.000000000,0.000000000,0.000000000,0.000000000,0.000000000,0.000000000,0.000000000,0.000000000,0.000000000,0.000000000,0.000000000,-0.001091776,-0.677248081,0.000134755,0.000000000,0.000000000,0.000000000,0.059421685,0.243108363,2.811045668,,,,,,,,
1705305323.851252,,,,,,,,,,,,,,,,,,,,,,,,,,,,,,,,,,,,,,,,,,,,,,,,,,,,,,,,,,,,,,,,,11946.000000000,1705305323.851107359,-9.399999619,-17.670000076,161.360000610,3.441999912,-0.526000023,1.019999981
1705305323.867449,,,,,,,,,,,,,,,,,,,,,,,,,,,,,,,,,,,,,,,,,,,,,,,,,,,,,,,,,,,,,,,,,11947.000000000,1705305323.867391825,-9.689999580,-17.950000763,161.679992676,3.470000029,-0.518999994,1.054999948
1705305323.883702,,,,,,,,,,,,,,,,,,,,,,,,,,,,,,,,,,,,,,,,,,,,,,,,,,,,,,,,,,,,,,,,,11948.000000000,1705305323.883620739,-9.619999886,-17.879999161,161.740005493,3.473999977,-0.522000015,1.060999990
1705305323.900074,,,,,,,,,,,,,,,,,,,,,,,,,,,,,,,,,,,,,,,,,,,,,,,,,,,,,,,,,,,,,,,,,11949.000000000,1705305323.899899006,-9.720000267,-17.870000839,161.470001221,3.437999964,-0.515999973,1.064000010
1705305323.916464,,,,,,,,,,,,,,,,,,,,,,,,,,,,,,,,,,,,,,,,,,,,,,,,,,,,,,,,,,,,,,,,,11950.000000000,1705305323.916229248,-9.680000305,-17.590000153,161.570007324,3.467999935,-0.515999973,1.029999971
1705305323.932730,,,,,,,,,,,,,,,,,,,,,,,,,,,,,,,,,,,,,,,,,,,,,,,,,,,,,,,,,,,,,,,,,11951.000000000,1705305323.932510138,-9.720000267,-17.569999695,161.559997559,3.461999893,-0.505999982,1.029999971
1705305323.948953,,,,,,,,,,,,,,,,,,,,,,,,,,,,,,,,,,,,,,,,,,,,,,,,,,,,,,,,,,,,,,,,,11952.000000000,1705305323.948821545,-9.590000153,-17.530000687,161.570007324,3.440000057,-0.524999976,1.054999948
1705305323.965450,,,,,,,,,,,,,,,,,,,,,,,,,,,,,,,,,,,,,,,,,,,,,,,,,,,,,,,,,,,,,,,,,11953.000000000,1705305323.965160370,-9.670000076,-17.500000000,161.580001831,3.453999996,-0.510999978,1.059000015
1705305323.977480,,,,,,,,,,,,,,,,,,,,,,,,,,,,,,,,,,,,,,,,,,,,,,,,,,,,,,,,,,,,,,,,,11954.000000000,1705305323.977361679,-9.399999619,-17.629999161,161.550003052,3.469000101,-0.521000028,1.090000033
1705305323.993906,,,,,,,,,,,,,,,,,,,,,,,,,,,,,,,,,,,,,,,,,,,,,,,,,,,,,,,,,,,,,,,,,11955.000000000,1705305323.993626356,-9.369999886,-17.069999695,161.440002441,3.474999905,-0.518000007,1.088999987
1705305324.010190,,,,,,,,,,,,,,,,,,,,,,,,,,,,,,,,,,,,,,,,,,,,,,,,,,,,,,,,,,,,,,,,,11956.000000000,1705305324.009916306,-9.409999847,-17.030000687,161.479995728,3.469000101,-0.509999990,1.078999996
1705305324.026427,,,,,,,,,,,,,,,,,,,,,,,,,,,,,,,,,,,,,,,,,,,,,,,,,,,,,,,,,,,,,,,,,11957.000000000,1705305324.026207924,-9.430000305,-16.770000458,161.490005493,3.456000090,-0.518999994,1.062000036
1705305324.042674,,,,,,,,,,,,,,,,,,,,,,,,,,,,,,,,,,,,,,,,,,,,,,,,,,,,,,,,,,,,,,,,,11958.000000000,1705305324.042479992,-9.449999809,-16.700000763,161.479995728,3.460000038,-0.515999973,1.057000041
1705305324.058556,2.000000000,1.000000000,-0.343429355,0.186151137,-0.727171743,19.194246459,-4.839733099,3.264371156,0.171107903,0.339413917,0.000000000,-0.000314412,-0.677247584,0.000052074,0.000000000,0.000000000,0.000000000,0.000000000,0.000000000,0.000000000,-0.805753541,0.160266901,0.000000000,0.059396654,0.000000000,0.000000000,0.000000000,0.004518940,-0.000480302,0.000000000,0.000000000,0.000000000,0.000000000,0.000000000,0.243119925,0.000000000,0.000000000,0.000000000,0.000000000,0.000000000,0.000000000,0.000000000,0.000000000,0.000000000,0.000000000,0.000000000,0.000000000,0.000000000,0.000000000,0.000000000,0.000000000,0.000000000,0.000000000,0.000000000,0.000000000,-0.000766306,-0.677247769,0.000100104,0.000000000,0.000000000,0.000000000,0.059425162,0.243105679,2.811045668,,,,,,,,
1705305324.058970,,,,,,,,,,,,,,,,,,,,,,,,,,,,,,,,,,,,,,,,,,,,,,,,,,,,,,,,,,,,,,,,,11959.000000000,1705305324.058754206,-9.560000420,-16.659999847,161.559997559,3.460000038,-0.513999999,1.098000050
1705305324.069424,2.000000000,1.000000000,-0.343429355,0.186151137,-0.714671743,19.186246467,-4.829233527,3.267721164,0.170407903,0.347213921,0.000000000,-0.000225633,-0.677247584,0.000044568,0.000000000,0.000000000,0.000000000,0.000000000,0.000000000,0.000000000,-0.813753533,0.170766473,0.000000000,0.059396654,0.000000000,0.000000000,0.000000000,0.000887788,-0.000075061,0.000000000,0.000000000,0.000000000,0.000000000,0.000000000,0.243119925,0.000000000,0.000000000,0.000000000,0.000000000,0.000000000,0.000000000,0.000000000,0.000000000,0.000000000,0.000000000,0.000000000,0.000000000,0.000000000,0.000000000,0.000000000,0.000000000,0.000000000,0.000000000,0.000000000,0.000000000,-0.000314412,-0.677247448,0.000052074,0.000000000,0.000000000,0.000000000,0.059416925,0.243109060,2.811045668,,,,,,,,
1705305324.075227,,,,,,,,,,,,,,,,,,,,,,,,,,,,,,,,,,,,,,,,,,,,,,,,,,,,,,,,,,,,,,,,,11960.000000000,1705305324.075032473,-9.369999886,-16.649999619,161.529998779,3.496000051,-0.509999990,1.126999974
1705305324.091491,,,,,,,,,,,,,,,,,,,,,,,,,,,,,,,,,,,,,,,,,,,,,,,,,,,,,,,,,,,,,,,,,11961.000000000,1705305324.091307878,-9.460000038,-16.569999695,161.509994507,3.497999907,-0.501999974,1.126000047
1705305324.107877,,,,,,,,,,,,,,,,,,,,,,,,,,,,,,,,,,,,,,,,,,,,,,,,,,,,,,,,,,,,,,,,,11962.000000000,1705305324.107608795,-9.359999657,-16.450000763,161.410003662,3.459000111,-0.513999999,1.120000005
1705305324.123907,,,,,,,,,,,,,,,,,,,,,,,,,,,,,,,,,,,,,,,,,,,,,,,,,,,,,,,,,,,,,,,,,11963.000000000,1705305324.123852015,-9.369999886,-16.379999161,161.320007324,3.454999924,-0.512000024,1.101999998
1705305324.140274,,,,,,,,,,,,,,,,,,,,,,,,,,,,,,,,,,,,,,,,,,,,,,,,,,,,,,,,,,,,,,,,,11964.000000000,1705305324.140116453,-9.350000381,-16.379999161,161.529998779,3.473000050,-0.514999986,1.116000056
1705305324.156582,,,,,,,,,,,,,,,,,,,,,,,,,,,,,,,,,,,,,,,,,,,,,,,,,,,,,,,,,,,,,,,,,11965.000000000,1705305324.156402588,-9.430000305,-16.149999619,161.440002441,3.479000092,-0.509000003,1.154000044
1705305324.172917,,,,,,,,,,,,,,,,,,,,,,,,,,,,,,,,,,,,,,,,,,,,,,,,,,,,,,,,,,,,,,,,,11966.000000000,1705305324.172693968,-9.300000191,-16.229999542,161.399993896,3.482000113,-0.514999986,1.161999941
1705305324.187217,2.000000000,1.000000000,-0.343429355,0.186151137,-0.595671785,19.650746703,-4.834732794,3.274371183,0.173107907,0.388313925,0.000000000,-0.000114977,-0.677247643,0.000041967,0.000000000,0.000000000,0.000000000,0.000000000,0.000000000,0.000000000,-0.349253297,0.165267206,0.000000000,0.059402660,0.000000000,0.000000000,0.000000000,0.001106558,-0.000026011,0.000000000,0.000000000,0.000000000,0.000000000,0.000000000,0.243117109,0.000000000,0.000000000,0.000000000,0.000000000,0.000000000,0.000000000,0.000000000,0.000000000,0.000000000,0.000000000,0.000000000,0.000000000,0.000000000,0.000000000,0.000000000,0.000000000,0.000000000,0.000000000,0.000000000,0.000000000,-0.000225633,-0.677246856,0.000044568,0.000000000,0.000000000,0.000000000,0.059412488,0.243109857,2.811045668,,,,,,,,
1705305324.189089,,,,,,,,,,,,,,,,,,,,,,,,,,,,,,,,,,,,,,,,,,,,,,,,,,,,,,,,,,,,,,,,,11967.000000000,1705305324.188959122,-9.489999771,-16.260000229,161.509994507,3.487999916,-0.504000008,1.169000030
1705305324.205407,,,,,,,,,,,,,,,,,,,,,,,,,,,,,,,,,,,,,,,,,,,,,,,,,,,,,,,,,,,,,,,,,11968.000000000,1705305324.205234766,-9.270000458,-15.989999771,161.419998169,3.482000113,-0.517000020,1.154000044
1705305324.217691,,,,,,,,,,,,,,,,,,,,,,,,,,,,,,,,,,,,,,,,,,,,,,,,,,,,,,,,,,,,,,,,,11969.000000000,1705305324.217487812,-9.329999924,-15.949999809,161.380004883,3.459000111,-0.513000011,1.159999967
1705305324.233781,,,,,,,,,,,,,,,,,,,,,,,,,,,,,,,,,,,,,,,,,,,,,,,,,,,,,,,,,,,,,,,,,11970.000000000,1705305324.233723402,-9.210000038,-15.840000153,161.500000000,3.486000061,-0.501999974,1.187000036
1705305324.249027,2.000000000,1.000000000,-0.343429355,0.186151137,-0.525171793,20.013246751,-4.867233252,3.277621197,0.174957904,0.411313933,0.000000000,-0.000020346,-0.677247524,0.000034947,0.000000000,0.000000000,0.000000000,0.000000000,0.000000000,0.000000000,0.013246751,0.132766748,0.000000000,0.059405185,0.000000000,0.000000000,0.000000000,0.000946312,-0.000070203,0.000000000,0.000000000,0.000000000,0.000000000,0.000000000,0.243115410,0.000000000,0.000000000,0.000000000,0.000000000,0.000000000,0.000000000,0.000000000,0.000000000,0.000000000,0.000000000,0.000000000,0.000000000,0.000000000,0.000000000,0.000000000,0.000000000,0.000000000,0.000000000,0.000000000,0.000000000,-0.000114977,-0.677246358,0.000041967,0.000000000,0.000000000,0.000000000,0.059406209,0.243111676,2.811045668,,,,,,,,
1705305324.250076,,,,,,,,,,,,,,,,,,,,,,,,,,,,,,,,,,,,,,,,,,,,,,,,,,,,,,,,,,,,,,,,,11971.000000000,1705305324.249971151,-9.210000038,-15.670000076,161.369995117,3.496999979,-0.504999995,1.203999996
1705305324.266423,,,,,,,,,,,,,,,,,,,,,,,,,,,,,,,,,,,,,,,,,,,,,,,,,,,,,,,,,,,,,,,,,11972.000000000,1705305324.266246796,-9.159999847,-15.699999809,161.440002441,3.486999989,-0.508000016,1.236999989
1705305324.282685,,,,,,,,,,,,,,,,,,,,,,,,,,,,,,,,,,,,,,,,,,,,,,,,,,,,,,,,,,,,,,,,,11973.000000000,1705305324.282508612,-9.100000381,-15.569999695,161.389999390,3.492000103,-0.504000008,1.235000014
1705305324.298813,,,,,,,,,,,,,,,,,,,,,,,,,,,,,,,,,,,,,,,,,,,,,,,,,,,,,,,,,,,,,,,,,11974.000000000,1705305324.298741817,-9.029999733,-15.329999924,161.369995117,3.490999937,-0.512000024,1.231999993
1705305324.315160,,,,,,,,,,,,,,,,,,,,,,,,,,,,,,,,,,,,,,,,,,,,,,,,,,,,,,,,,,,,,,,,,11975.000000000,1705305324.315002441,-9.029999733,-15.000000000,161.339996338,3.487999916,-0.500999987,1.259999990
1705305324.331404,,,,,,,,,,,,,,,,,,,,,,,,,,,,,,,,,,,,,,,,,,,,,,,,,,,,,,,,,,,,,,,,,11976.000000000,1705305324.331268787,-8.909999847,-14.939999580,161.289993286,3.496999979,-0.510999978,1.271999955
1705305324.347621,,,,,,,,,,,,,,,,,,,,,,,,,,,,,,,,,,,,,,,,,,,,,,,,,,,,,,,,,,,,,,,,,11977.000000000,1705305324.347510815,-8.899999619,-14.670000076,161.210006714,3.517999887,-0.500000000,1.315999985
1705305324.352556,2.000000000,1.000000000,-0.343429355,0.186151137,-0.362671745,20.724246812,-4.930234503,3.289871180,0.178407901,0.475913930,0.000000000,0.000140780,-0.677247405,0.000020942,0.000000000,0.000000000,0.000000000,0.000000000,0.000000000,0.000000000,0.724246812,0.069765497,0.000000000,0.059405759,0.000000000,0.000000000,0.000000000,0.001611262,-0.000140043,0.000000000,0.000000000,0.000000000,0.000000000,0.000000000,0.243114725,0.000000000,0.000000000,0.000000000,0.000000000,0.000000000,0.000000000,0.000000000,0.000000000,0.000000000,0.000000000,0.000000000,0.000000000,0.000000000,0.000000000,0.000000000,0.000000000,0.000000000,0.000000000,0.000000000,0.000000000,-0.000020346,-0.677245671,0.000034947,0.000000000,0.000000000,0.000000000,0.059391844,0.243117162,2.811045668,,,,,,,,
1705305324.364015,,,,,,,,,,,,,,,,,,,,,,,,,,,,,,,,,,,,,,,,,,,,,,,,,,,,,,,,,,,,,,,,,11978.000000000,1705305324.363833189,-8.729999542,-14.470000267,161.320007324,3.529000044,-0.497999996,1.348999977
1705305324.380273,,,,,,,,,,,,,,,,,,,,,,,,,,,,,,,,,,,,,,,,,,,,,,,,,,,,,,,,,,,,,,,,,11979.000000000,1705305324.380116940,-8.279999733,-13.699999809,161.309997559,3.565000057,-0.476000011,1.491999984
1705305324.396454,,,,,,,,,,,,,,,,,,,,,,,,,,,,,,,,,,,,,,,,,,,,,,,,,,,,,,,,,,,,,,,,,11980.000000000,1705305324.396374941,-7.840000153,-11.960000038,160.979995728,3.684999943,-0.442000002,1.695999980
1705305324.412738,,,,,,,,,,,,,,,,,,,,,,,,,,,,,,,,,,,,,,,,,,,,,,,,,,,,,,,,,,,,,,,,,11981.000000000,1705305324.412616968,-7.170000076,-11.699999809,160.869995117,3.756000042,-0.492000014,1.754999995
1705305324.429058,,,,,,,,,,,,,,,,,,,,,,,,,,,,,,,,,,,,,,,,,,,,,,,,,,,,,,,,,,,,,,,,,11982.000000000,1705305324.428900242,-8.039999962,-12.159999847,161.279998779,3.792000055,-0.412000000,1.766999960
1705305324.445460,,,,,,,,,,,,,,,,,,,,,,,,,,,,,,,,,,,,,,,,,,,,,,,,,,,,,,,,,,,,,,,,,11983.000000000,1705305324.445212841,-7.739999771,-12.340000153,160.789993286,3.694999933,-0.490999997,1.731999993
1705305324.455089,2.000000000,1.000000000,-0.343429355,0.186151137,0.075828278,21.878246808,-5.043234991,3.349571180,0.191257898,0.633963918,0.000000000,0.000403805,-0.677247107,-0.000004459,0.000000000,0.000000000,0.000000000,0.000000000,0.000000000,0.000000000,1.878246808,-0.043234991,0.000000000,0.059405390,0.000000000,0.000000000,0.000000000,0.002630252,-0.000254010,0.000000000,0.000000000,0.000000000,0.000000000,0.000000000,0.243114233,0.000000000,0.000000000,0.000000000,0.000000000,0.000000000,0.000000000,0.000000000,0.000000000,0.000000000,0.000000000,0.000000000,0.000000000,0.000000000,0.000000000,0.000000000,0.000000000,0.000000000,0.000000000,0.000000000,0.000000000,0.000140780,-0.677244541,0.000020942,0.000000000,0.000000000,0.000000000,0.059367155,0.243126971,2.811045668,,,,,,,,
1705305324.457569,,,,,,,,,,,,,,,,,,,,,,,,,,,,,,,,,,,,,,,,,,,,,,,,,,,,,,,,,,,,,,,,,11984.000000000,1705305324.457429171,-8.399999619,-12.329999924,160.589996338,3.596999884,-0.423999995,1.695000052
1705305324.474044,,,,,,,,,,,,,,,,,,,,,,,,,,,,,,,,,,,,,,,,,,,,,,,,,,,,,,,,,,,,,,,,,11985.000000000,1705305324.473738194,-7.599999905,-11.779999733,161.169998169,3.753000021,-0.437000006,1.758999944
1705305324.490192,,,,,,,,,,,,,,,,,,,,,,,,,,,,,,,,,,,,,,,,,,,,,,,,,,,,,,,,,,,,,,,,,11986.000000000,1705305324.490014791,-7.539999962,-11.369999886,160.839996338,3.775000095,-0.430999994,1.820999980
1705305324.506440,,,,,,,,,,,,,,,,,,,,,,,,,,,,,,,,,,,,,,,,,,,,,,,,,,,,,,,,,,,,,,,,,11987.000000000,1705305324.506281853,-7.210000038,-11.189999580,160.809997559,3.713999987,-0.441000015,1.932999969
1705305324.522610,,,,,,,,,,,,,,,,,,,,,,,,,,,,,,,,,,,,,,,,,,,,,,,,,,,,,,,,,,,,,,,,,11988.000000000,1705305324.522515059,-7.219999790,-11.119999886,160.720001221,3.701999903,-0.437000006,1.924999952
1705305324.539042,,,,,,,,,,,,,,,,,,,,,,,,,,,,,,,,,,,,,,,,,,,,,,,,,,,,,,,,,,,,,,,,,11989.000000000,1705305324.538817883,-6.909999847,-11.430000305,160.919998169,3.703999996,-0.448000014,1.906000018
1705305324.544653,2.000000000,1.000000000,-0.343429355,0.186151137,0.640328372,23.265246749,-5.224735236,3.418671155,0.214007898,0.840163910,0.000000000,0.000733810,-0.677246988,-0.000045839,0.000000000,0.000000000,0.000000000,0.000000000,0.000000000,0.000000000,3.265246749,-0.224735236,0.000000000,0.059402909,0.000000000,0.000000000,0.000000000,0.003300050,-0.000413802,0.000000000,0.000000000,0.000000000,0.000000000,0.000000000,0.243115097,0.000000000,0.000000000,0.000000000,0.000000000,0.000000000,0.000000000,0.000000000,0.000000000,0.000000000,0.000000000,0.000000000,0.000000000,0.000000000,0.000000000,0.000000000,0.000000000,0.000000000,0.000000000,0.000000000,0.000000000,0.000403805,-0.677243733,-0.000004459,0.000000000,0.000000000,0.000000000,0.059334407,0.243141606,2.811045668,,,,,,,,
1705305324.555346,,,,,,,,,,,,,,,,,,,,,,,,,,,,,,,,,,,,,,,,,,,,,,,,,,,,,,,,,,,,,,,,,11990.000000000,1705305324.555115461,-7.019999981,-10.850000381,160.770004272,3.716000080,-0.432000011,1.962000012
1705305324.571451,,,,,,,,,,,,,,,,,,,,,,,,,,,,,,,,,,,,,,,,,,,,,,,,,,,,,,,,,,,,,,,,,11991.000000000,1705305324.571362019,-6.869999886,-10.760000229,160.809997559,3.736999989,-0.448000014,1.972000003
1705305324.587749,,,,,,,,,,,,,,,,,,,,,,,,,,,,,,,,,,,,,,,,,,,,,,,,,,,,,,,,,,,,,,,,,11992.000000000,1705305324.587605953,-7.269999981,-11.010000229,160.910003662,3.740999937,-0.416000009,1.973000050
1705305324.604049,,,,,,,,,,,,,,,,,,,,,,,,,,,,,,,,,,,,,,,,,,,,,,,,,,,,,,,,,,,,,,,,,11993.000000000,1705305324.603876352,-6.849999905,-10.779999733,160.690002441,3.703999996,-0.455000013,1.963999987
1705305324.620307,,,,,,,,,,,,,,,,,,,,,,,,,,,,,,,,,,,,,,,,,,,,,,,,,,,,,,,,,,,,,,,,,11994.000000000,1705305324.620126247,-7.559999943,-11.449999809,160.630004883,3.683000088,-0.407999992,1.996000051
1705305324.636614,,,,,,,,,,,,,,,,,,,,,,,,,,,,,,,,,,,,,,,,,,,,,,,,,,,,,,,,,,,,,,,,,11995.000000000,1705305324.636452675,-7.440000057,-11.699999809,160.940002441,3.756999969,-0.425999999,2.012000084
1705305324.653006,,,,,,,,,,,,,,,,,,,,,,,,,,,,,,,,,,,,,,,,,,,,,,,,,,,,,,,,,,,,,,,,,11996.000000000,1705305324.652755737,-7.699999809,-11.579999924,160.869995117,3.743999958,-0.400000006,2.020999908
1705305324.669124,,,,,,,,,,,,,,,,,,,,,,,,,,,,,,,,,,,,,,,,,,,,,,,,,,,,,,,,,,,,,,,,,11997.000000000,1705305324.669011354,-7.269999981,-10.979999542,160.610000610,3.680999994,-0.432999998,1.995000005
1705305324.685564,,,,,,,,,,,,,,,,,,,,,,,,,,,,,,,,,,,,,,,,,,,,,,,,,,,,,,,,,,,,,,,,,11998.000000000,1705305324.685288429,-7.190000057,-10.640000343,160.610000610,3.687000036,-0.423999995,1.965000033
1705305324.697820,,,,,,,,,,,,,,,,,,,,,,,,,,,,,,,,,,,,,,,,,,,,,,,,,,,,,,,,,,,,,,,,,11999.000000000,1705305324.697550774,-7.289999962,-11.189999580,160.860000610,3.720999956,-0.426999986,1.991999984
1705305324.714079,,,,,,,,,,,,,,,,,,,,,,,,,,,,,,,,,,,,,,,,,,,,,,,,,,,,,,,,,,,,,,,,,12000.000000000,1705305324.713841438,-7.139999866,-10.670000076,160.529998779,3.729000092,-0.428000003,2.051000118
1705305324.714333,2.000000000,1.000000000,-0.343429355,0.186151137,1.495328319,25.262746739,-5.516734290,3.524721157,0.251407896,1.193563920,0.000000000,0.001199311,-0.677246034,-0.000112515,0.000000000,0.000000000,0.000000000,0.000000000,0.000000000,0.000000000,5.262746739,-0.516734290,0.000000000,0.059384007,0.000000000,0.000000000,0.000000000,0.004655010,-0.000666759,0.000000000,0.000000000,0.000000000,0.000000000,0.000000000,0.243122354,0.000000000,0.000000000,0.000000000,0.000000000,0.000000000,0.000000000,0.000000000,0.000000000,0.000000000,0.000000000,0.000000000,0.000000000,0.000000000,0.000000000,0.000000000,0.000000000,0.000000000,0.000000000,0.000000000,0.000000000,0.000733810,-0.677242117,-0.000045839,0.000000000,0.000000000,0.000000000,0.059273028,0.243169027,2.811045668,,,,,,,,
1705305324.730285,,,,,,,,,,,,,,,,,,,,,,,,,,,,,,,,,,,,,,,,,,,,,,,,,,,,,,,,,,,,,,,,,12001.000000000,1705305324.730128527,-6.900000095,-10.760000229,160.589996338,3.736000061,-0.437999994,2.048000097
1705305324.746611,,,,,,,,,,,,,,,,,,,,,,,,,,,,,,,,,,,,,,,,,,,,,,,,,,,,,,,,,,,,,,,,,12002.000000000,1705305324.746457815,-7.420000076,-10.960000038,160.770004272,3.720000029,-0.412000000,2.000000000
1705305324.762946,,,,,,,,,,,,,,,,,,,,,,,,,,,,,,,,,,,,,,,,,,,,,,,,,,,,,,,,,,,,,,,,,12003.000000000,1705305324.762814522,-6.929999828,-10.439999580,160.619995117,3.694000006,-0.446000010,1.972000003
1705305324.779240,,,,,,,,,,,,,,,,,,,,,,,,,,,,,,,,,,,,,,,,,,,,,,,,,,,,,,,,,,,,,,,,,12004.000000000,1705305324.779081106,-7.260000229,-10.829999924,160.710006714,3.687999964,-0.414000005,1.993000031
