__time,/plot_data/data.0,/plot_data/data.1,/plot_data/data.10,/plot_data/data.11,/plot_data/data.18,/plot_data/data.19,/plot_data/data.2,/plot_data/data.20,/plot_data/data.21,/plot_data/data.22,/plot_data/data.23,/plot_data/data.24,/plot_data/data.25,/plot_data/data.26,/plot_data/data.27,/plot_data/data.28,/plot_data/data.29,/plot_data/data.3,/plot_data/data.30,/plot_data/data.31,/plot_data/data.32,/plot_data/data.33,/plot_data/data.34,/plot_data/data.35,/plot_data/data.36,/plot_data/data.37,/plot_data/data.38,/plot_data/data.39,/plot_data/data.4,/plot_data/data.40,/plot_data/data.41,/plot_data/data.42,/plot_data/data.43,/plot_data/data.44,/plot_data/data.45,/plot_data/data.46,/plot_data/data.47,/plot_data/data.48,/plot_data/data.49,/plot_data/data.5,/plot_data/data.50,/plot_data/data.51,/plot_data/data.52,/plot_data/data.53,/plot_data/data.54,/plot_data/data.55,/plot_data/data.56,/plot_data/data.57,/plot_data/data.58,/plot_data/data.59,/plot_data/data.6,/plot_data/data.60,/plot_data/data.61,/plot_data/data.62,/plot_data/data.63,/plot_data/data.7,/plot_data/data.8,/plot_data/data.9,/robotiq_ft_wrench/header/seq,/robotiq_ft_wrench/header/stamp,/robotiq_ft_wrench/wrench/force/x,/robotiq_ft_wrench/wrench/force/y,/robotiq_ft_wrench/wrench/force/z,/robotiq_ft_wrench/wrench/torque/x,/robotiq_ft_wrench/wrench/torque/y,/robotiq_ft_wrench/wrench/torque/z
1705311024.222352,,,,,,,,,,,,,,,,,,,,,,,,,,,,,,,,,,,,,,,,,,,,,,,,,,,,,,,,,,,367730.000000000,1705311024.222134352,-15.260000229,-41.340000153,163.410003662,0.180000007,-0.514999986,0.552999973
1705311024.238545,,,,,,,,,,,,,,,,,,,,,,,,,,,,,,,,,,,,,,,,,,,,,,,,,,,,,,,,,,,367731.000000000,1705311024.238418341,-15.279999733,-41.330001831,163.429992676,0.178000003,-0.513999999,0.554000020
1705311024.254749,,,,,,,,,,,,,,,,,,,,,,,,,,,,,,,,,,,,,,,,,,,,,,,,,,,,,,,,,,,367732.000000000,1705311024.254672289,-15.260000229,-41.340000153,163.460006714,0.179000005,-0.513999999,0.552999973
1705311024.271063,,,,,,,,,,,,,,,,,,,,,,,,,,,,,,,,,,,,,,,,,,,,,,,,,,,,,,,,,,,367733.000000000,1705311024.270918846,-15.229999542,-41.290000916,163.460006714,0.181999996,-0.513999999,0.550999999
1705311024.287292,,,,,,,,,,,,,,,,,,,,,,,,,,,,,,,,,,,,,,,,,,,,,,,,,,,,,,,,,,,367734.000000000,1705311024.287186623,-15.250000000,-41.319999695,163.460006714,0.180000007,-0.513999999,0.551999986
1705311024.303468,,,,,,,,,,,,,,,,,,,,,,,,,,,,,,,,,,,,,,,,,,,,,,,,,,,,,,,,,,,367735.000000000,1705311024.303412676,-15.250000000,-41.330001831,163.429992676,0.180000007,-0.514999986,0.550999999
1705311024.319689,,,,,,,,,,,,,,,,,,,,,,,,,,,,,,,,,,,,,,,,,,,,,,,,,,,,,,,,,,,367736.000000000,1705311024.319623947,-15.270000458,-41.340000153,163.419998169,0.180999994,-0.513000011,0.550999999
1705311024.335952,,,,,,,,,,,,,,,,,,,,,,,,,,,,,,,,,,,,,,,,,,,,,,,,,,,,,,,,,,,367737.000000000,1705311024.335897923,-15.279999733,-41.330001831,163.410003662,0.180999994,-0.513000011,0.551999986
1705311024.352312,,,,,,,,,,,,,,,,,,,,,,,,,,,,,,,,,,,,,,,,,,,,,,,,,,,,,,,,,,,367738.000000000,1705311024.352264166,-15.310000420,-41.279998779,163.419998169,0.180000007,-0.512000024,0.551999986
1705311024.364627,,,,,,,,,,,,,,,,,,,,,,,,,,,,,,,,,,,,,,,,,,,,,,,,,,,,,,,,,,,367739.000000000,1705311024.364573479,-15.270000458,-41.180000305,163.419998169,0.181999996,-0.513000011,0.551999986
1705311024.381047,,,,,,,,,,,,,,,,,,,,,,,,,,,,,,,,,,,,,,,,,,,,,,,,,,,,,,,,,,,367740.000000000,1705311024.380987406,-15.189999580,-41.349998474,163.449996948,0.180000007,-0.514999986,0.551999986
1705311024.397387,,,,,,,,,,,,,,,,,,,,,,,,,,,,,,,,,,,,,,,,,,,,,,,,,,,,,,,,,,,367741.000000000,1705311024.397354126,-15.270000458,-41.349998474,163.449996948,0.180999994,-0.513000011,0.551999986
1705311024.413637,,,,,,,,,,,,,,,,,,,,,,,,,,,,,,,,,,,,,,,,,,,,,,,,,,,,,,,,,,,367742.000000000,1705311024.413589954,-15.250000000,-41.380001068,163.429992676,0.180999994,-0.513999999,0.552999973
1705311024.429873,,,,,,,,,,,,,,,,,,,,,,,,,,,,,,,,,,,,,,,,,,,,,,,,,,,,,,,,,,,367743.000000000,1705311024.429816008,-15.239999771,-41.369998932,163.389999390,0.179000005,-0.513999999,0.554000020
1705311024.446137,,,,,,,,,,,,,,,,,,,,,,,,,,,,,,,,,,,,,,,,,,,,,,,,,,,,,,,,,,,367744.000000000,1705311024.446037292,-15.239999771,-41.369998932,163.410003662,0.178000003,-0.513999999,0.554000020
1705311024.462389,,,,,,,,,,,,,,,,,,,,,,,,,,,,,,,,,,,,,,,,,,,,,,,,,,,,,,,,,,,367745.000000000,1705311024.462266684,-15.289999962,-41.319999695,163.399993896,0.180999994,-0.513000011,0.552999973
1705311024.469586,11.651481165,-10.012432480,-0.513833334,0.552999993,0.000000000,0.000000000,11.391349067,0.000000000,0.000000000,0.000000000,0.000000000,0.000000000,0.000000000,0.000000000,0.000000000,0.000000000,0.000000000,-0.132139386,0.000000000,0.000000000,0.000000000,0.000000000,0.000000000,0.000000000,0.000000000,0.000000000,0.000000000,0.000000000,-0.233161480,0.000000000,0.000000000,0.000000000,0.000000000,0.000000000,0.000000000,0.000000000,0.000000000,0.000000000,0.000000000,0.244615858,0.000000000,0.000000000,0.000000000,0.000000000,0.000000000,0.000000000,0.000000000,0.000000000,0.000000000,0.000000000,-15.246666590,0.000000000,0.000000000,0.000000000,0.000000000,-41.356665929,163.421663920,0.180000000,,,,,,,,
1705311024.478542,,,,,,,,,,,,,,,,,,,,,,,,,,,,,,,,,,,,,,,,,,,,,,,,,,,,,,,,,,,367746.000000000,1705311024.478491068,-15.250000000,-41.290000916,163.460006714,0.180999994,-0.513999999,0.554000020
1705311024.494745,,,,,,,,,,,,,,,,,,,,,,,,,,,,,,,,,,,,,,,,,,,,,,,,,,,,,,,,,,,367747.000000000,1705311024.494711637,-15.239999771,-41.270000458,163.449996948,0.180000007,-0.513999999,0.554000020
1705311024.511095,,,,,,,,,,,,,,,,,,,,,,,,,,,,,,,,,,,,,,,,,,,,,,,,,,,,,,,,,,,367748.000000000,1705311024.510985374,-15.220000267,-41.369998932,163.440002441,0.179000005,-0.515999973,0.554000020
1705311024.527341,,,,,,,,,,,,,,,,,,,,,,,,,,,,,,,,,,,,,,,,,,,,,,,,,,,,,,,,,,,367749.000000000,1705311024.527217865,-15.170000076,-41.360000610,163.419998169,0.180000007,-0.517000020,0.552999973
1705311024.543493,,,,,,,,,,,,,,,,,,,,,,,,,,,,,,,,,,,,,,,,,,,,,,,,,,,,,,,,,,,367750.000000000,1705311024.543431997,-15.189999580,-41.299999237,163.429992676,0.180999994,-0.517000020,0.551999986
1705311024.559724,,,,,,,,,,,,,,,,,,,,,,,,,,,,,,,,,,,,,,,,,,,,,,,,,,,,,,,,,,,367751.000000000,1705311024.559630156,-15.239999771,-41.250000000,163.449996948,0.180000007,-0.513999999,0.552999973
1705311024.562954,11.679814511,-9.962433243,-0.515333335,0.553333332,0.000000000,0.000000000,11.411350797,0.000000000,0.000000000,0.000000000,0.000000000,0.000000000,0.000000000,0.000000000,0.000000000,0.000000000,0.000000000,-0.131972716,0.000000000,0.000000000,0.000000000,0.000000000,0.000000000,0.000000000,0.000000000,0.000000000,0.000000000,0.000000000,-0.234661480,0.000000000,0.000000000,0.000000000,0.000000000,0.000000000,0.000000000,0.000000000,0.000000000,0.000000000,0.000000000,0.244949197,0.000000000,0.000000000,0.000000000,0.000000000,0.000000000,0.000000000,0.000000000,0.000000000,0.000000000,0.000000000,-15.218333244,0.000000000,0.000000000,0.000000000,0.000000000,-41.306666692,163.441665649,0.180166669,,,,,,,,
1705311024.575903,,,,,,,,,,,,,,,,,,,,,,,,,,,,,,,,,,,,,,,,,,,,,,,,,,,,,,,,,,,367752.000000000,1705311024.575810194,-15.189999580,-41.330001831,163.440002441,0.180000007,-0.514999986,0.551999986
1705311024.592125,,,,,,,,,,,,,,,,,,,,,,,,,,,,,,,,,,,,,,,,,,,,,,,,,,,,,,,,,,,367753.000000000,1705311024.592027903,-15.229999542,-41.299999237,163.410003662,0.181999996,-0.513999999,0.552999973
1705311024.608342,,,,,,,,,,,,,,,,,,,,,,,,,,,,,,,,,,,,,,,,,,,,,,,,,,,,,,,,,,,367754.000000000,1705311024.608245611,-15.310000420,-41.270000458,163.440002441,0.181999996,-0.512000024,0.552999973
1705311024.620524,,,,,,,,,,,,,,,,,,,,,,,,,,,,,,,,,,,,,,,,,,,,,,,,,,,,,,,,,,,367755.000000000,1705311024.620410442,-15.210000038,-41.389999390,163.470001221,0.179000005,-0.514999986,0.552999973
1705311024.636713,,,,,,,,,,,,,,,,,,,,,,,,,,,,,,,,,,,,,,,,,,,,,,,,,,,,,,,,,,,367756.000000000,1705311024.636624813,-15.260000229,-41.250000000,163.460006714,0.181999996,-0.514999986,0.552999973
1705311024.653044,,,,,,,,,,,,,,,,,,,,,,,,,,,,,,,,,,,,,,,,,,,,,,,,,,,,,,,,,,,367757.000000000,1705311024.652850866,-15.250000000,-41.250000000,163.410003662,0.180999994,-0.513999999,0.552999973
1705311024.657907,11.656481121,-9.954100037,-0.514166663,0.552833309,0.000000000,0.000000000,11.408021838,0.000000000,0.000000000,0.000000000,0.000000000,0.000000000,0.000000000,0.000000000,0.000000000,0.000000000,0.000000000,-0.131139386,0.000000000,0.000000000,0.000000000,0.000000000,0.000000000,0.000000000,0.000000000,0.000000000,0.000000000,0.000000000,-0.233494809,0.000000000,0.000000000,0.000000000,0.000000000,0.000000000,0.000000000,0.000000000,0.000000000,0.000000000,0.000000000,0.244449173,0.000000000,0.000000000,0.000000000,0.000000000,0.000000000,0.000000000,0.000000000,0.000000000,0.000000000,0.000000000,-15.241666635,0.000000000,0.000000000,0.000000000,0.000000000,-41.298333486,163.438336690,0.180999999,,,,,,,,
1705311024.669195,,,,,,,,,,,,,,,,,,,,,,,,,,,,,,,,,,,,,,,,,,,,,,,,,,,,,,,,,,,367758.000000000,1705311024.669092894,-15.250000000,-41.330001831,163.389999390,0.180000007,-0.513999999,0.551999986
1705311024.685576,,,,,,,,,,,,,,,,,,,,,,,,,,,,,,,,,,,,,,,,,,,,,,,,,,,,,,,,,,,367759.000000000,1705311024.685369968,-15.210000038,-41.310001373,163.429992676,0.180999994,-0.515999973,0.551999986
1705311024.701771,,,,,,,,,,,,,,,,,,,,,,,,,,,,,,,,,,,,,,,,,,,,,,,,,,,,,,,,,,,367760.000000000,1705311024.701631069,-15.220000267,-41.279998779,163.389999390,0.180999994,-0.514999986,0.555000007
1705311024.718244,,,,,,,,,,,,,,,,,,,,,,,,,,,,,,,,,,,,,,,,,,,,,,,,,,,,,,,,,,,367761.000000000,1705311024.717923403,-15.199999809,-41.299999237,163.429992676,0.181999996,-0.515999973,0.552999973
1705311024.734305,,,,,,,,,,,,,,,,,,,,,,,,,,,,,,,,,,,,,,,,,,,,,,,,,,,,,,,,,,,367762.000000000,1705311024.734181643,-15.220000267,-41.250000000,163.440002441,0.181999996,-0.515999973,0.551999986
1705311024.750662,,,,,,,,,,,,,,,,,,,,,,,,,,,,,,,,,,,,,,,,,,,,,,,,,,,,,,,,,,,367763.000000000,1705311024.750465870,-15.229999542,-41.250000000,163.399993896,0.181999996,-0.514999986,0.552999973
1705311024.758716,11.676481102,-9.942433421,-0.515333315,0.552833319,0.000000000,0.000000000,11.383015225,0.000000000,0.000000000,0.000000000,0.000000000,0.000000000,0.000000000,0.000000000,0.000000000,0.000000000,0.000000000,-0.130806055,0.000000000,0.000000000,0.000000000,0.000000000,0.000000000,0.000000000,0.000000000,0.000000000,0.000000000,0.000000000,-0.234661460,0.000000000,0.000000000,0.000000000,0.000000000,0.000000000,0.000000000,0.000000000,0.000000000,0.000000000,0.000000000,0.244449183,0.000000000,0.000000000,0.000000000,0.000000000,0.000000000,0.000000000,0.000000000,0.000000000,0.000000000,0.000000000,-15.221666654,0.000000000,0.000000000,0.000000000,0.000000000,-41.286666870,163.413330078,0.181333331,,,,,,,,
1705311024.766995,,,,,,,,,,,,,,,,,,,,,,,,,,,,,,,,,,,,,,,,,,,,,,,,,,,,,,,,,,,367764.000000000,1705311024.766783714,-15.199999809,-41.279998779,163.399993896,0.180999994,-0.517000020,0.555000007
1705311024.783295,,,,,,,,,,,,,,,,,,,,,,,,,,,,,,,,,,,,,,,,,,,,,,,,,,,,,,,,,,,367765.000000000,1705311024.783073187,-15.260000229,-41.220001221,163.449996948,0.181999996,-0.514999986,0.551999986
1705311024.799591,,,,,,,,,,,,,,,,,,,,,,,,,,,,,,,,,,,,,,,,,,,,,,,,,,,,,,,,,,,367766.000000000,1705311024.799345732,-15.210000038,-41.279998779,163.449996948,0.180999994,-0.514999986,0.550999999
1705311024.816250,,,,,,,,,,,,,,,,,,,,,,,,,,,,,,,,,,,,,,,,,,,,,,,,,,,,,,,,,,,367767.000000000,1705311024.815960407,-15.260000229,-41.340000153,163.429992676,0.179000005,-0.513999999,0.551999986
1705311024.828719,,,,,,,,,,,,,,,,,,,,,,,,,,,,,,,,,,,,,,,,,,,,,,,,,,,,,,,,,,,367768.000000000,1705311024.828437805,-15.260000229,-41.330001831,163.419998169,0.180000007,-0.513999999,0.551999986
1705311024.845179,,,,,,,,,,,,,,,,,,,,,,,,,,,,,,,,,,,,,,,,,,,,,,,,,,,,,,,,,,,367769.000000000,1705311024.845005512,-15.220000267,-41.310001373,163.410003662,0.180999994,-0.515999973,0.550999999
1705311024.857513,11.663147622,-9.949100240,-0.515166660,0.552166661,0.000000000,0.000000000,11.396348864,0.000000000,0.000000000,0.000000000,0.000000000,0.000000000,0.000000000,0.000000000,0.000000000,0.000000000,0.000000000,-0.131472720,0.000000000,0.000000000,0.000000000,0.000000000,0.000000000,0.000000000,0.000000000,0.000000000,0.000000000,0.000000000,-0.234494806,0.000000000,0.000000000,0.000000000,0.000000000,0.000000000,0.000000000,0.000000000,0.000000000,0.000000000,0.000000000,0.243782525,0.000000000,0.000000000,0.000000000,0.000000000,0.000000000,0.000000000,0.000000000,0.000000000,0.000000000,0.000000000,-15.235000134,0.000000000,0.000000000,0.000000000,0.000000000,-41.293333689,163.426663717,0.180666665,,,,,,,,
1705311024.861537,,,,,,,,,,,,,,,,,,,,,,,,,,,,,,,,,,,,,,,,,,,,,,,,,,,,,,,,,,,367770.000000000,1705311024.861397982,-15.180000305,-41.369998932,163.410003662,0.180000007,-0.515999973,0.551999986
1705311024.878004,,,,,,,,,,,,,,,,,,,,,,,,,,,,,,,,,,,,,,,,,,,,,,,,,,,,,,,,,,,367771.000000000,1705311024.877725124,-15.239999771,-41.349998474,163.449996948,0.180000007,-0.514999986,0.551999986
1705311024.894301,,,,,,,,,,,,,,,,,,,,,,,,,,,,,,,,,,,,,,,,,,,,,,,,,,,,,,,,,,,367772.000000000,1705311024.894006729,-15.229999542,-41.270000458,163.429992676,0.180999994,-0.514999986,0.554000020
1705311024.910411,,,,,,,,,,,,,,,,,,,,,,,,,,,,,,,,,,,,,,,,,,,,,,,,,,,,,,,,,,,367773.000000000,1705311024.910238028,-15.180000305,-41.200000763,163.419998169,0.181999996,-0.517000020,0.554000020
1705311024.926805,,,,,,,,,,,,,,,,,,,,,,,,,,,,,,,,,,,,,,,,,,,,,,,,,,,,,,,,,,,367774.000000000,1705311024.926505804,-15.199999809,-41.229999542,163.419998169,0.181999996,-0.517000020,0.554000020
1705311024.943248,,,,,,,,,,,,,,,,,,,,,,,,,,,,,,,,,,,,,,,,,,,,,,,,,,,,,,,,,,,367775.000000000,1705311024.942789793,-15.250000000,-41.290000916,163.399993896,0.180000007,-0.514999986,0.552999973
1705311024.957778,11.684814467,-9.940766398,-0.515833328,0.553166668,0.000000000,0.000000000,11.391349067,0.000000000,0.000000000,0.000000000,0.000000000,0.000000000,0.000000000,0.000000000,0.000000000,0.000000000,0.000000000,-0.131306051,0.000000000,0.000000000,0.000000000,0.000000000,0.000000000,0.000000000,0.000000000,0.000000000,0.000000000,0.000000000,-0.235161474,0.000000000,0.000000000,0.000000000,0.000000000,0.000000000,0.000000000,0.000000000,0.000000000,0.000000000,0.000000000,0.244782532,0.000000000,0.000000000,0.000000000,0.000000000,0.000000000,0.000000000,0.000000000,0.000000000,0.000000000,0.000000000,-15.213333289,0.000000000,0.000000000,0.000000000,0.000000000,-41.284999847,163.421663920,0.180833335,,,,,,,,
1705311024.959193,,,,,,,,,,,,,,,,,,,,,,,,,,,,,,,,,,,,,,,,,,,,,,,,,,,,,,,,,,,367776.000000000,1705311024.959046841,-15.250000000,-41.349998474,163.410003662,0.178000003,-0.513999999,0.552999973
1705311024.975565,,,,,,,,,,,,,,,,,,,,,,,,,,,,,,,,,,,,,,,,,,,,,,,,,,,,,,,,,,,367777.000000000,1705311024.975290060,-15.210000038,-41.279998779,163.440002441,0.180000007,-0.514999986,0.551999986
1705311024.991862,,,,,,,,,,,,,,,,,,,,,,,,,,,,,,,,,,,,,,,,,,,,,,,,,,,,,,,,,,,367778.000000000,1705311024.991554022,-15.220000267,-41.259998322,163.449996948,0.180999994,-0.514999986,0.551999986
1705311025.008138,,,,,,,,,,,,,,,,,,,,,,,,,,,,,,,,,,,,,,,,,,,,,,,,,,,,,,,,,,,367779.000000000,1705311025.007848978,-15.210000038,-41.259998322,163.429992676,0.180000007,-0.515999973,0.552999973
1705311025.024267,,,,,,,,,,,,,,,,,,,,,,,,,,,,,,,,,,,,,,,,,,,,,,,,,,,,,,,,,,,367780.000000000,1705311025.024110317,-15.270000458,-41.240001678,163.449996948,0.180999994,-0.514999986,0.551999986
1705311025.036504,,,,,,,,,,,,,,,,,,,,,,,,,,,,,,,,,,,,,,,,,,,,,,,,,,,,,,,,,,,367781.000000000,1705311025.036301136,-15.250000000,-41.330001831,163.449996948,0.180000007,-0.514999986,0.550999999
1705311025.052873,,,,,,,,,,,,,,,,,,,,,,,,,,,,,,,,,,,,,,,,,,,,,,,,,,,,,,,,,,,367782.000000000,1705311025.052576780,-15.189999580,-41.310001373,163.449996948,0.180999994,-0.515999973,0.550000012
1705311025.058837,11.669576273,-9.945766376,-0.515142841,0.551857131,0.000000000,0.000000000,11.409683229,0.000000000,0.000000000,0.000000000,0.000000000,0.000000000,0.000000000,0.000000000,0.000000000,0.000000000,0.000000000,-0.131996527,0.000000000,0.000000000,0.000000000,0.000000000,0.000000000,0.000000000,0.000000000,0.000000000,0.000000000,0.000000000,-0.234470987,0.000000000,0.000000000,0.000000000,0.000000000,0.000000000,0.000000000,0.000000000,0.000000000,0.000000000,0.000000000,0.243472996,0.000000000,0.000000000,0.000000000,0.000000000,0.000000000,0.000000000,0.000000000,0.000000000,0.000000000,0.000000000,-15.228571483,0.000000000,0.000000000,0.000000000,0.000000000,-41.289999826,163.439998082,0.180142858,,,,,,,,
1705311025.069159,,,,,,,,,,,,,,,,,,,,,,,,,,,,,,,,,,,,,,,,,,,,,,,,,,,,,,,,,,,367783.000000000,1705311025.068886280,-15.239999771,-41.369998932,163.429992676,0.180000007,-0.513999999,0.552999973
1705311025.085353,,,,,,,,,,,,,,,,,,,,,,,,,,,,,,,,,,,,,,,,,,,,,,,,,,,,,,,,,,,367784.000000000,1705311025.085154772,-15.210000038,-41.380001068,163.419998169,0.179000005,-0.514999986,0.552999973
1705311025.101726,,,,,,,,,,,,,,,,,,,,,,,,,,,,,,,,,,,,,,,,,,,,,,,,,,,,,,,,,,,367785.000000000,1705311025.101440191,-15.210000038,-41.279998779,163.399993896,0.180999994,-0.514999986,0.551999986
1705311025.118035,,,,,,,,,,,,,,,,,,,,,,,,,,,,,,,,,,,,,,,,,,,,,,,,,,,,,,,,,,,367786.000000000,1705311025.117758036,-15.170000076,-41.240001678,163.399993896,0.181999996,-0.515999973,0.550999999
1705311025.134087,,,,,,,,,,,,,,,,,,,,,,,,,,,,,,,,,,,,,,,,,,,,,,,,,,,,,,,,,,,367787.000000000,1705311025.134014606,-15.220000267,-41.250000000,163.429992676,0.180999994,-0.515999973,0.551999986
1705311025.150410,,,,,,,,,,,,,,,,,,,,,,,,,,,,,,,,,,,,,,,,,,,,,,,,,,,,,,,,,,,367788.000000000,1705311025.150259733,-15.270000458,-41.299999237,163.419998169,0.180000007,-0.514999986,0.552999973
1705311025.158800,11.678147648,-9.959099833,-0.515166650,0.552333315,0.000000000,0.000000000,11.386346728,0.000000000,0.000000000,0.000000000,0.000000000,0.000000000,0.000000000,0.000000000,0.000000000,0.000000000,0.000000000,-0.131639385,0.000000000,0.000000000,0.000000000,0.000000000,0.000000000,0.000000000,0.000000000,0.000000000,0.000000000,0.000000000,-0.234494796,0.000000000,0.000000000,0.000000000,0.000000000,0.000000000,0.000000000,0.000000000,0.000000000,0.000000000,0.000000000,0.243949180,0.000000000,0.000000000,0.000000000,0.000000000,0.000000000,0.000000000,0.000000000,0.000000000,0.000000000,0.000000000,-15.220000108,0.000000000,0.000000000,0.000000000,0.000000000,-41.303333282,163.416661580,0.180500001,,,,,,,,
1705311025.166869,,,,,,,,,,,,,,,,,,,,,,,,,,,,,,,,,,,,,,,,,,,,,,,,,,,,,,,,,,,367789.000000000,1705311025.166568756,-15.260000229,-41.330001831,163.410003662,0.180000007,-0.513999999,0.551999986
1705311025.183089,,,,,,,,,,,,,,,,,,,,,,,,,,,,,,,,,,,,,,,,,,,,,,,,,,,,,,,,,,,367790.000000000,1705311025.182805538,-15.310000420,-41.270000458,163.449996948,0.180999994,-0.513000011,0.550999999
1705311025.199193,,,,,,,,,,,,,,,,,,,,,,,,,,,,,,,,,,,,,,,,,,,,,,,,,,,,,,,,,,,367791.000000000,1705311025.199057817,-15.270000458,-41.290000916,163.449996948,0.180000007,-0.514999986,0.551999986
1705311025.215604,,,,,,,,,,,,,,,,,,,,,,,,,,,,,,,,,,,,,,,,,,,,,,,,,,,,,,,,,,,367792.000000000,1705311025.215316296,-15.239999771,-41.319999695,163.429992676,0.180000007,-0.515999973,0.551999986
1705311025.231904,,,,,,,,,,,,,,,,,,,,,,,,,,,,,,,,,,,,,,,,,,,,,,,,,,,,,,,,,,,367793.000000000,1705311025.231603146,-15.189999580,-41.279998779,163.440002441,0.181999996,-0.517000020,0.554000020
1705311025.248057,,,,,,,,,,,,,,,,,,,,,,,,,,,,,,,,,,,,,,,,,,,,,,,,,,,,,,,,,,,367794.000000000,1705311025.247880459,-15.170000076,-41.259998322,163.440002441,0.182999998,-0.517000020,0.552999973
1705311025.256994,11.658147667,-9.947433217,-0.515333335,0.552333325,0.000000000,0.000000000,11.406351000,0.000000000,0.000000000,0.000000000,0.000000000,0.000000000,0.000000000,0.000000000,0.000000000,0.000000000,0.000000000,-0.131139384,0.000000000,0.000000000,0.000000000,0.000000000,0.000000000,0.000000000,0.000000000,0.000000000,0.000000000,0.000000000,-0.234661480,0.000000000,0.000000000,0.000000000,0.000000000,0.000000000,0.000000000,0.000000000,0.000000000,0.000000000,0.000000000,0.243949190,0.000000000,0.000000000,0.000000000,0.000000000,0.000000000,0.000000000,0.000000000,0.000000000,0.000000000,0.000000000,-15.240000089,0.000000000,0.000000000,0.000000000,0.000000000,-41.291666667,163.436665853,0.181000002,,,,,,,,
1705311025.264183,,,,,,,,,,,,,,,,,,,,,,,,,,,,,,,,,,,,,,,,,,,,,,,,,,,,,,,,,,,367795.000000000,1705311025.264125824,-15.189999580,-41.340000153,163.440002441,0.179000005,-0.513999999,0.554000020
1705311025.276467,,,,,,,,,,,,,,,,,,,,,,,,,,,,,,,,,,,,,,,,,,,,,,,,,,,,,,,,,,,367796.000000000,1705311025.276337862,-15.270000458,-41.340000153,163.449996948,0.179000005,-0.513999999,0.555999994
1705311025.292805,,,,,,,,,,,,,,,,,,,,,,,,,,,,,,,,,,,,,,,,,,,,,,,,,,,,,,,,,,,367797.000000000,1705311025.292625666,-15.270000458,-41.310001373,163.380004883,0.180000007,-0.513000011,0.551999986
1705311025.309144,,,,,,,,,,,,,,,,,,,,,,,,,,,,,,,,,,,,,,,,,,,,,,,,,,,,,,,,,,,367798.000000000,1705311025.308905602,-15.180000305,-41.340000153,163.429992676,0.180999994,-0.514999986,0.552999973
1705311025.325326,,,,,,,,,,,,,,,,,,,,,,,,,,,,,,,,,,,,,,,,,,,,,,,,,,,,,,,,,,,367799.000000000,1705311025.325158596,-15.159999847,-41.340000153,163.449996948,0.180999994,-0.517000020,0.552999973
1705311025.341603,,,,,,,,,,,,,,,,,,,,,,,,,,,,,,,,,,,,,,,,,,,,,,,,,,,,,,,,,,,367800.000000000,1705311025.341432333,-15.159999847,-41.349998474,163.460006714,0.180000007,-0.517000020,0.554000020
1705311025.358111,,,,,,,,,,,,,,,,,,,,,,,,,,,,,,,,,,,,,,,,,,,,,,,,,,,,,,,,,,,367801.000000000,1705311025.357728720,-15.199999809,-41.319999695,163.460006714,0.180999994,-0.514999986,0.555000007
1705311025.358651,11.693861998,-9.990052287,-0.515000003,0.553857139,0.000000000,0.000000000,11.408257622,0.000000000,0.000000000,0.000000000,0.000000000,0.000000000,0.000000000,0.000000000,0.000000000,0.000000000,0.000000000,-0.131996527,0.000000000,0.000000000,0.000000000,0.000000000,0.000000000,0.000000000,0.000000000,0.000000000,0.000000000,0.000000000,-0.234328148,0.000000000,0.000000000,0.000000000,0.000000000,0.000000000,0.000000000,0.000000000,0.000000000,0.000000000,0.000000000,0.245473004,0.000000000,0.000000000,0.000000000,0.000000000,0.000000000,0.000000000,0.000000000,0.000000000,0.000000000,0.000000000,-15.204285758,0.000000000,0.000000000,0.000000000,0.000000000,-41.334285736,163.438572475,0.180142858,,,,,,,,
1705311025.374209,,,,,,,,,,,,,,,,,,,,,,,,,,,,,,,,,,,,,,,,,,,,,,,,,,,,,,,,,,,367802.000000000,1705311025.374017715,-15.239999771,-41.340000153,163.419998169,0.180000007,-0.515999973,0.554000020
1705311025.390533,,,,,,,,,,,,,,,,,,,,,,,,,,,,,,,,,,,,,,,,,,,,,,,,,,,,,,,,,,,367803.000000000,1705311025.390260458,-15.210000038,-41.310001373,163.429992676,0.181999996,-0.514999986,0.551999986
1705311025.406889,,,,,,,,,,,,,,,,,,,,,,,,,,,,,,,,,,,,,,,,,,,,,,,,,,,,,,,,,,,367804.000000000,1705311025.406538248,-15.250000000,-41.310001373,163.449996948,0.181999996,-0.514999986,0.552999973
1705311025.423161,,,,,,,,,,,,,,,,,,,,,,,,,,,,,,,,,,,,,,,,,,,,,,,,,,,,,,,,,,,367805.000000000,1705311025.422820330,-15.270000458,-41.310001373,163.410003662,0.180999994,-0.514999986,0.555000007
1705311025.439296,,,,,,,,,,,,,,,,,,,,,,,,,,,,,,,,,,,,,,,,,,,,,,,,,,,,,,,,,,,367806.000000000,1705311025.439085722,-15.279999733,-41.319999695,163.399993896,0.180999994,-0.513999999,0.554000020
1705311025.455517,,,,,,,,,,,,,,,,,,,,,,,,,,,,,,,,,,,,,,,,,,,,,,,,,,,,,,,,,,,367807.000000000,1705311025.455292702,-15.289999962,-41.290000916,163.460006714,0.180999994,-0.513999999,0.550999999
1705311025.458251,11.641481095,-9.969100698,-0.514833321,0.553166668,0.000000000,0.000000000,11.398017158,0.000000000,0.000000000,0.000000000,0.000000000,0.000000000,0.000000000,0.000000000,0.000000000,0.000000000,0.000000000,-0.130972722,0.000000000,0.000000000,0.000000000,0.000000000,0.000000000,0.000000000,0.000000000,0.000000000,0.000000000,0.000000000,-0.234161467,0.000000000,0.000000000,0.000000000,0.000000000,0.000000000,0.000000000,0.000000000,0.000000000,0.000000000,0.000000000,0.244782532,0.000000000,0.000000000,0.000000000,0.000000000,0.000000000,0.000000000,0.000000000,0.000000000,0.000000000,0.000000000,-15.256666660,0.000000000,0.000000000,0.000000000,0.000000000,-41.313334147,163.428332011,0.181166664,,,,,,,,
1705311025.471811,,,,,,,,,,,,,,,,,,,,,,,,,,,,,,,,,,,,,,,,,,,,,,,,,,,,,,,,,,,367808.000000000,1705311025.471557856,-15.270000458,-41.299999237,163.449996948,0.180000007,-0.514999986,0.554000020
1705311025.488113,,,,,,,,,,,,,,,,,,,,,,,,,,,,,,,,,,,,,,,,,,,,,,,,,,,,,,,,,,,367809.000000000,1705311025.487856627,-15.260000229,-41.319999695,163.429992676,0.180000007,-0.513999999,0.552999973
1705311025.504278,,,,,,,,,,,,,,,,,,,,,,,,,,,,,,,,,,,,,,,,,,,,,,,,,,,,,,,,,,,367810.000000000,1705311025.504149437,-15.270000458,-41.360000610,163.360000610,0.180999994,-0.513999999,0.551999986
1705311025.516738,,,,,,,,,,,,,,,,,,,,,,,,,,,,,,,,,,,,,,,,,,,,,,,,,,,,,,,,,,,367811.000000000,1705311025.516477585,-15.310000420,-41.389999390,163.380004883,0.180999994,-0.513000011,0.552999973
1705311025.533357,,,,,,,,,,,,,,,,,,,,,,,,,,,,,,,,,,,,,,,,,,,,,,,,,,,,,,,,,,,367812.000000000,1705311025.533104420,-15.350000381,-41.319999695,163.399993896,0.180000007,-0.512000024,0.551999986
1705311025.549875,,,,,,,,,,,,,,,,,,,,,,,,,,,,,,,,,,,,,,,,,,,,,,,,,,,,,,,,,,,367813.000000000,1705311025.549629927,-15.270000458,-41.139999390,163.399993896,0.182999998,-0.513999999,0.555000007
1705311025.557576,11.609814022,-9.960766220,-0.513666670,0.553166658,0.000000000,0.000000000,11.373015632,0.000000000,0.000000000,0.000000000,0.000000000,0.000000000,0.000000000,0.000000000,0.000000000,0.000000000,0.000000000,-0.131306051,0.000000000,0.000000000,0.000000000,0.000000000,0.000000000,0.000000000,0.000000000,0.000000000,0.000000000,0.000000000,-0.232994815,0.000000000,0.000000000,0.000000000,0.000000000,0.000000000,0.000000000,0.000000000,0.000000000,0.000000000,0.000000000,0.244782522,0.000000000,0.000000000,0.000000000,0.000000000,0.000000000,0.000000000,0.000000000,0.000000000,0.000000000,0.000000000,-15.288333734,0.000000000,0.000000000,0.000000000,0.000000000,-41.304999669,163.403330485,0.180833335,,,,,,,,
1705311025.566187,,,,,,,,,,,,,,,,,,,,,,,,,,,,,,,,,,,,,,,,,,,,,,,,,,,,,,,,,,,367814.000000000,1705311025.566017389,-15.260000229,-41.209999084,163.419998169,0.181999996,-0.513999999,0.554000020
1705311025.582932,,,,,,,,,,,,,,,,,,,,,,,,,,,,,,,,,,,,,,,,,,,,,,,,,,,,,,,,,,,367815.000000000,1705311025.582616806,-15.270000458,-41.290000916,163.410003662,0.181999996,-0.514999986,0.551999986
1705311025.599452,,,,,,,,,,,,,,,,,,,,,,,,,,,,,,,,,,,,,,,,,,,,,,,,,,,,,,,,,,,367816.000000000,1705311025.599117756,-15.220000267,-41.259998322,163.429992676,0.181999996,-0.515999973,0.551999986
1705311025.615474,,,,,,,,,,,,,,,,,,,,,,,,,,,,,,,,,,,,,,,,,,,,,,,,,,,,,,,,,,,367817.000000000,1705311025.615369081,-15.210000038,-41.270000458,163.419998169,0.180000007,-0.515999973,0.554000020
1705311025.631754,,,,,,,,,,,,,,,,,,,,,,,,,,,,,,,,,,,,,,,,,,,,,,,,,,,,,,,,,,,367818.000000000,1705311025.631600618,-15.229999542,-41.250000000,163.419998169,0.180000007,-0.514999986,0.554000020
1705311025.648308,,,,,,,,,,,,,,,,,,,,,,,,,,,,,,,,,,,,,,,,,,,,,,,,,,,,,,,,,,,367819.000000000,1705311025.647866011,-15.270000458,-41.259998322,163.419998169,0.181999996,-0.514999986,0.554000020
1705311025.658960,11.654814257,-9.912432734,-0.515166650,0.553333342,0.000000000,0.000000000,11.389683316,0.000000000,0.000000000,0.000000000,0.000000000,0.000000000,0.000000000,0.000000000,0.000000000,0.000000000,0.000000000,-0.130806052,0.000000000,0.000000000,0.000000000,0.000000000,0.000000000,0.000000000,0.000000000,0.000000000,0.000000000,0.000000000,-0.234494796,0.000000000,0.000000000,0.000000000,0.000000000,0.000000000,0.000000000,0.000000000,0.000000000,0.000000000,0.000000000,0.244949207,0.000000000,0.000000000,0.000000000,0.000000000,0.000000000,0.000000000,0.000000000,0.000000000,0.000000000,0.000000000,-15.243333499,0.000000000,0.000000000,0.000000000,0.000000000,-41.256666183,163.419998169,0.181333333,,,,,,,,
1705311025.664389,,,,,,,,,,,,,,,,,,,,,,,,,,,,,,,,,,,,,,,,,,,,,,,,,,,,,,,,,,,367820.000000000,1705311025.664179087,-15.310000420,-41.279998779,163.429992676,0.181999996,-0.513000011,0.554000020
1705311025.676584,,,,,,,,,,,,,,,,,,,,,,,,,,,,,,,,,,,,,,,,,,,,,,,,,,,,,,,,,,,367821.000000000,1705311025.676407337,-15.260000229,-41.270000458,163.399993896,0.181999996,-0.513999999,0.555000007
1705311025.692839,,,,,,,,,,,,,,,,,,,,,,,,,,,,,,,,,,,,,,,,,,,,,,,,,,,,,,,,,,,367822.000000000,1705311025.692651749,-15.279999733,-41.299999237,163.389999390,0.180000007,-0.513999999,0.555000007
1705311025.709299,,,,,,,,,,,,,,,,,,,,,,,,,,,,,,,,,,,,,,,,,,,,,,,,,,,,,,,,,,,367823.000000000,1705311025.708966255,-15.329999924,-41.349998474,163.440002441,0.180000007,-0.513000011,0.552999973
1705311025.725551,,,,,,,,,,,,,,,,,,,,,,,,,,,,,,,,,,,,,,,,,,,,,,,,,,,,,,,,,,,367824.000000000,1705311025.725248098,-15.260000229,-41.360000610,163.440002441,0.180999994,-0.514999986,0.551999986
1705311025.741602,,,,,,,,,,,,,,,,,,,,,,,,,,,,,,,,,,,,,,,,,,,,,,,,,,,,,,,,,,,367825.000000000,1705311025.741458893,-15.239999771,-41.290000916,163.369995117,0.180000007,-0.514999986,0.554000020
1705311025.757980,,,,,,,,,,,,,,,,,,,,,,,,,,,,,,,,,,,,,,,,,,,,,,,,,,,,,,,,,,,367826.000000000,1705311025.757726431,-15.270000458,-41.310001373,163.410003662,0.180000007,-0.513999999,0.555000007
1705311025.758731,11.619576218,-9.964337958,-0.513999999,0.554000003,0.000000000,0.000000000,11.381112236,0.000000000,0.000000000,0.000000000,0.000000000,0.000000000,0.000000000,0.000000000,0.000000000,0.000000000,0.000000000,-0.131425098,0.000000000,0.000000000,0.000000000,0.000000000,0.000000000,0.000000000,0.000000000,0.000000000,0.000000000,0.000000000,-0.233328144,0.000000000,0.000000000,0.000000000,0.000000000,0.000000000,0.000000000,0.000000000,0.000000000,0.000000000,0.000000000,0.245615868,0.000000000,0.000000000,0.000000000,0.000000000,0.000000000,0.000000000,0.000000000,0.000000000,0.000000000,0.000000000,-15.278571538,0.000000000,0.000000000,0.000000000,0.000000000,-41.308571407,163.411427089,0.180714288,,,,,,,,
1705311025.774180,,,,,,,,,,,,,,,,,,,,,,,,,,,,,,,,,,,,,,,,,,,,,,,,,,,,,,,,,,,367827.000000000,1705311025.773999214,-15.260000229,-41.229999542,163.440002441,0.181999996,-0.514999986,0.552999973
1705311025.790351,,,,,,,,,,,,,,,,,,,,,,,,,,,,,,,,,,,,,,,,,,,,,,,,,,,,,,,,,,,367828.000000000,1705311025.790255785,-15.239999771,-41.259998322,163.440002441,0.181999996,-0.515999973,0.554000020
1705311025.806586,,,,,,,,,,,,,,,,,,,,,,,,,,,,,,,,,,,,,,,,,,,,,,,,,,,,,,,,,,,367829.000000000,1705311025.806487083,-15.220000267,-41.290000916,163.410003662,0.180999994,-0.514999986,0.555000007
1705311025.822990,,,,,,,,,,,,,,,,,,,,,,,,,,,,,,,,,,,,,,,,,,,,,,,,,,,,,,,,,,,367830.000000000,1705311025.822741032,-15.220000267,-41.279998779,163.419998169,0.181999996,-0.514999986,0.555000007
1705311025.839231,,,,,,,,,,,,,,,,,,,,,,,,,,,,,,,,,,,,,,,,,,,,,,,,,,,,,,,,,,,367831.000000000,1705311025.839008808,-15.220000267,-41.270000458,163.449996948,0.181999996,-0.515999973,0.554000020
1705311025.855366,,,,,,,,,,,,,,,,,,,,,,,,,,,,,,,,,,,,,,,,,,,,,,,,,,,,,,,,,,,367832.000000000,1705311025.855251551,-15.220000267,-41.270000458,163.460006714,0.181999996,-0.515999973,0.552999973
1705311025.871725,,,,,,,,,,,,,,,,,,,,,,,,,,,,,,,,,,,,,,,,,,,,,,,,,,,,,,,,,,,367833.000000000,1705311025.871494055,-15.289999962,-41.400001526,163.429992676,0.179000005,-0.513999999,0.555000007
1705311025.888059,,,,,,,,,,,,,,,,,,,,,,,,,,,,,,,,,,,,,,,,,,,,,,,,,,,,,,,,,,,367834.000000000,1705311025.887761354,-15.260000229,-41.380001068,163.419998169,0.178000003,-0.513999999,0.555000007
1705311025.889200,11.656897598,-9.953266684,-0.515124984,0.554250002,0.000000000,0.000000000,11.403435300,0.000000000,0.000000000,0.000000000,0.000000000,0.000000000,0.000000000,0.000000000,0.000000000,0.000000000,0.000000000,-0.131139388,0.000000000,0.000000000,0.000000000,0.000000000,0.000000000,0.000000000,0.000000000,0.000000000,0.000000000,0.000000000,-0.234453130,0.000000000,0.000000000,0.000000000,0.000000000,0.000000000,0.000000000,0.000000000,0.000000000,0.000000000,0.000000000,0.245865867,0.000000000,0.000000000,0.000000000,0.000000000,0.000000000,0.000000000,0.000000000,0.000000000,0.000000000,0.000000000,-15.241250157,0.000000000,0.000000000,0.000000000,0.000000000,-41.297500134,163.433750153,0.180999998,,,,,,,,
1705311025.904265,,,,,,,,,,,,,,,,,,,,,,,,,,,,,,,,,,,,,,,,,,,,,,,,,,,,,,,,,,,367835.000000000,1705311025.904018879,-15.220000267,-41.270000458,163.419998169,0.181999996,-0.515999973,0.552999973
1705311025.916371,,,,,,,,,,,,,,,,,,,,,,,,,,,,,,,,,,,,,,,,,,,,,,,,,,,,,,,,,,,367836.000000000,1705311025.916212082,-15.260000229,-41.250000000,163.419998169,0.182999998,-0.513999999,0.552999973
1705311025.932661,,,,,,,,,,,,,,,,,,,,,,,,,,,,,,,,,,,,,,,,,,,,,,,,,,,,,,,,,,,367837.000000000,1705311025.932447195,-15.319999695,-41.349998474,163.369995117,0.180999994,-0.513000011,0.554000020
1705311025.948928,,,,,,,,,,,,,,,,,,,,,,,,,,,,,,,,,,,,,,,,,,,,,,,,,,,,,,,,,,,367838.000000000,1705311025.948698044,-15.250000000,-41.389999390,163.410003662,0.180000007,-0.513000011,0.554000020
1705311025.959002,11.635647708,-9.970766131,-0.513999999,0.553499997,0.000000000,0.000000000,11.374683927,0.000000000,0.000000000,0.000000000,0.000000000,0.000000000,0.000000000,0.000000000,0.000000000,0.000000000,0.000000000,-0.130639387,0.000000000,0.000000000,0.000000000,0.000000000,0.000000000,0.000000000,0.000000000,0.000000000,0.000000000,0.000000000,-0.233328144,0.000000000,0.000000000,0.000000000,0.000000000,0.000000000,0.000000000,0.000000000,0.000000000,0.000000000,0.000000000,0.245115861,0.000000000,0.000000000,0.000000000,0.000000000,0.000000000,0.000000000,0.000000000,0.000000000,0.000000000,0.000000000,-15.262500048,0.000000000,0.000000000,0.000000000,0.000000000,-41.314999580,163.404998779,0.181499999,,,,,,,,
1705311025.965396,,,,,,,,,,,,,,,,,,,,,,,,,,,,,,,,,,,,,,,,,,,,,,,,,,,,,,,,,,,367839.000000000,1705311025.965036392,-15.260000229,-41.349998474,163.419998169,0.180999994,-0.513000011,0.554000020
1705311025.981435,,,,,,,,,,,,,,,,,,,,,,,,,,,,,,,,,,,,,,,,,,,,,,,,,,,,,,,,,,,367840.000000000,1705311025.981290579,-15.279999733,-41.229999542,163.429992676,0.184000000,-0.513999999,0.551999986
1705311025.997937,,,,,,,,,,,,,,,,,,,,,,,,,,,,,,,,,,,,,,,,,,,,,,,,,,,,,,,,,,,367841.000000000,1705311025.997656345,-15.270000458,-41.240001678,163.460006714,0.182999998,-0.513999999,0.554000020
1705311026.014628,,,,,,,,,,,,,,,,,,,,,,,,,,,,,,,,,,,,,,,,,,,,,,,,,,,,,,,,,,,367842.000000000,1705311026.014172554,-15.310000420,-41.380001068,163.369995117,0.180000007,-0.513000011,0.554000020
1705311026.031228,,,,,,,,,,,,,,,,,,,,,,,,,,,,,,,,,,,,,,,,,,,,,,,,,,,,,,,,,,,367843.000000000,1705311026.030793905,-15.229999542,-41.270000458,163.419998169,0.180999994,-0.514999986,0.554000020
1705311026.047516,,,,,,,,,,,,,,,,,,,,,,,,,,,,,,,,,,,,,,,,,,,,,,,,,,,,,,,,,,,367844.000000000,1705311026.047299623,-15.260000229,-41.209999084,163.399993896,0.180999994,-0.514999986,0.552999973
1705311026.058583,11.629814321,-9.935766602,-0.513999999,0.553500007,0.000000000,0.000000000,11.386349271,0.000000000,0.000000000,0.000000000,0.000000000,0.000000000,0.000000000,0.000000000,0.000000000,0.000000000,0.000000000,-0.130472721,0.000000000,0.000000000,0.000000000,0.000000000,0.000000000,0.000000000,0.000000000,0.000000000,0.000000000,0.000000000,-0.233328144,0.000000000,0.000000000,0.000000000,0.000000000,0.000000000,0.000000000,0.000000000,0.000000000,0.000000000,0.000000000,0.245115871,0.000000000,0.000000000,0.000000000,0.000000000,0.000000000,0.000000000,0.000000000,0.000000000,0.000000000,0.000000000,-15.268333435,0.000000000,0.000000000,0.000000000,0.000000000,-41.280000051,163.416664124,0.181666665,,,,,,,,
1705311026.064068,,,,,,,,,,,,,,,,,,,,,,,,,,,,,,,,,,,,,,,,,,,,,,,,,,,,,,,,,,,367845.000000000,1705311026.063815117,-15.170000076,-41.340000153,163.429992676,0.180999994,-0.515999973,0.551999986
1705311026.076514,,,,,,,,,,,,,,,,,,,,,,,,,,,,,,,,,,,,,,,,,,,,,,,,,,,,,,,,,,,367846.000000000,1705311026.076249599,-15.159999847,-41.360000610,163.429992676,0.180999994,-0.515999973,0.554000020
1705311026.093099,,,,,,,,,,,,,,,,,,,,,,,,,,,,,,,,,,,,,,,,,,,,,,,,,,,,,,,,,,,367847.000000000,1705311026.092815638,-15.210000038,-41.380001068,163.419998169,0.179000005,-0.515999973,0.554000020
1705311026.109284,,,,,,,,,,,,,,,,,,,,,,,,,,,,,,,,,,,,,,,,,,,,,,,,,,,,,,,,,,,367848.000000000,1705311026.109147072,-15.239999771,-41.349998474,163.449996948,0.180000007,-0.515999973,0.552999973
1705311026.125750,,,,,,,,,,,,,,,,,,,,,,,,,,,,,,,,,,,,,,,,,,,,,,,,,,,,,,,,,,,367849.000000000,1705311026.125441790,-15.239999771,-41.349998474,163.449996948,0.180000007,-0.515999973,0.552999973
1705311026.142021,,,,,,,,,,,,,,,,,,,,,,,,,,,,,,,,,,,,,,,,,,,,,,,,,,,,,,,,,,,367850.000000000,1705311026.141709328,-15.260000229,-41.330001831,163.440002441,0.179000005,-0.513999999,0.550999999
1705311026.157354,11.684814467,-10.007433319,-0.515666644,0.552833329,0.000000000,0.000000000,11.406348457,0.000000000,0.000000000,0.000000000,0.000000000,0.000000000,0.000000000,0.000000000,0.000000000,0.000000000,0.000000000,-0.132139383,0.000000000,0.000000000,0.000000000,0.000000000,0.000000000,0.000000000,0.000000000,0.000000000,0.000000000,0.000000000,-0.234994789,0.000000000,0.000000000,0.000000000,0.000000000,0.000000000,0.000000000,0.000000000,0.000000000,0.000000000,0.000000000,0.244449193,0.000000000,0.000000000,0.000000000,0.000000000,0.000000000,0.000000000,0.000000000,0.000000000,0.000000000,0.000000000,-15.213333289,0.000000000,0.000000000,0.000000000,0.000000000,-41.351666768,163.436663310,0.180000002,,,,,,,,
1705311026.158206,,,,,,,,,,,,,,,,,,,,,,,,,,,,,,,,,,,,,,,,,,,,,,,,,,,,,,,,,,,367851.000000000,1705311026.157963037,-15.270000458,-41.319999695,163.440002441,0.179000005,-0.513999999,0.552999973
1705311026.174488,,,,,,,,,,,,,,,,,,,,,,,,,,,,,,,,,,,,,,,,,,,,,,,,,,,,,,,,,,,367852.000000000,1705311026.174198627,-15.210000038,-41.180000305,163.470001221,0.182999998,-0.515999973,0.551999986
1705311026.190685,,,,,,,,,,,,,,,,,,,,,,,,,,,,,,,,,,,,,,,,,,,,,,,,,,,,,,,,,,,367853.000000000,1705311026.190464497,-15.199999809,-41.240001678,163.440002441,0.181999996,-0.513999999,0.552999973
1705311026.206734,,,,,,,,,,,,,,,,,,,,,,,,,,,,,,,,,,,,,,,,,,,,,,,,,,,,,,,,,,,367854.000000000,1705311026.206696510,-15.210000038,-41.250000000,163.410003662,0.181999996,-0.513999999,0.555000007
1705311026.223016,,,,,,,,,,,,,,,,,,,,,,,,,,,,,,,,,,,,,,,,,,,,,,,,,,,,,,,,,,,367855.000000000,1705311026.222928286,-15.220000267,-41.330001831,163.440002441,0.180999994,-0.515999973,0.552999973
1705311026.239318,,,,,,,,,,,,,,,,,,,,,,,,,,,,,,,,,,,,,,,,,,,,,,,,,,,,,,,,,,,367856.000000000,1705311026.239207983,-15.170000076,-41.259998322,163.429992676,0.182999998,-0.515999973,0.552999973
1705311026.255610,,,,,,,,,,,,,,,,,,,,,,,,,,,,,,,,,,,,,,,,,,,,,,,,,,,,,,,,,,,367857.000000000,1705311026.255461454,-15.170000076,-41.220001221,163.500000000,0.181999996,-0.514999986,0.550999999
1705311026.257119,11.691004790,-9.912909844,-0.514999986,0.552857127,0.000000000,0.000000000,11.416828702,0.000000000,0.000000000,0.000000000,0.000000000,0.000000000,0.000000000,0.000000000,0.000000000,0.000000000,0.000000000,-0.130425102,0.000000000,0.000000000,0.000000000,0.000000000,0.000000000,0.000000000,0.000000000,0.000000000,0.000000000,0.000000000,-0.234328131,0.000000000,0.000000000,0.000000000,0.000000000,0.000000000,0.000000000,0.000000000,0.000000000,0.000000000,0.000000000,0.244472991,0.000000000,0.000000000,0.000000000,0.000000000,0.000000000,0.000000000,0.000000000,0.000000000,0.000000000,0.000000000,-15.207142966,0.000000000,0.000000000,0.000000000,0.000000000,-41.257143293,163.447143555,0.181714284,,,,,,,,
1705311026.271829,,,,,,,,,,,,,,,,,,,,,,,,,,,,,,,,,,,,,,,,,,,,,,,,,,,,,,,,,,,367858.000000000,1705311026.271704435,-15.229999542,-41.259998322,163.399993896,0.180999994,-0.513999999,0.552999973
1705311026.288082,,,,,,,,,,,,,,,,,,,,,,,,,,,,,,,,,,,,,,,,,,,,,,,,,,,,,,,,,,,367859.000000000,1705311026.287967920,-15.210000038,-41.299999237,163.419998169,0.181999996,-0.514999986,0.551999986
1705311026.300299,,,,,,,,,,,,,,,,,,,,,,,,,,,,,,,,,,,,,,,,,,,,,,,,,,,,,,,,,,,367860.000000000,1705311026.300166368,-15.260000229,-41.319999695,163.470001221,0.181999996,-0.514999986,0.552999973
1705311026.316703,,,,,,,,,,,,,,,,,,,,,,,,,,,,,,,,,,,,,,,,,,,,,,,,,,,,,,,,,,,367861.000000000,1705311026.316433907,-15.239999771,-41.279998779,163.419998169,0.182999998,-0.513999999,0.551999986
1705311026.332846,,,,,,,,,,,,,,,,,,,,,,,,,,,,,,,,,,,,,,,,,,,,,,,,,,,,,,,,,,,367862.000000000,1705311026.332663298,-15.270000458,-41.310001373,163.410003662,0.180000007,-0.514999986,0.552999973
1705311026.348991,,,,,,,,,,,,,,,,,,,,,,,,,,,,,,,,,,,,,,,,,,,,,,,,,,,,,,,,,,,367863.000000000,1705311026.348909855,-15.220000267,-41.290000916,163.460006714,0.181999996,-0.515999973,0.552999973
1705311026.358355,11.659814372,-9.949099604,-0.514833321,0.552666644,0.000000000,0.000000000,11.399685452,0.000000000,0.000000000,0.000000000,0.000000000,0.000000000,0.000000000,0.000000000,0.000000000,0.000000000,0.000000000,-0.130472721,0.000000000,0.000000000,0.000000000,0.000000000,0.000000000,0.000000000,0.000000000,0.000000000,0.000000000,0.000000000,-0.234161467,0.000000000,0.000000000,0.000000000,0.000000000,0.000000000,0.000000000,0.000000000,0.000000000,0.000000000,0.000000000,0.244282509,0.000000000,0.000000000,0.000000000,0.000000000,0.000000000,0.000000000,0.000000000,0.000000000,0.000000000,0.000000000,-15.238333384,0.000000000,0.000000000,0.000000000,0.000000000,-41.293333054,163.430000305,0.181666665,,,,,,,,
1705311026.365311,,,,,,,,,,,,,,,,,,,,,,,,,,,,,,,,,,,,,,,,,,,,,,,,,,,,,,,,,,,367864.000000000,1705311026.365189791,-15.180000305,-41.319999695,163.449996948,0.180999994,-0.515999973,0.552999973
1705311026.381437,,,,,,,,,,,,,,,,,,,,,,,,,,,,,,,,,,,,,,,,,,,,,,,,,,,,,,,,,,,367865.000000000,1705311026.381402493,-15.189999580,-41.330001831,163.389999390,0.180999994,-0.515999973,0.552999973
1705311026.397757,,,,,,,,,,,,,,,,,,,,,,,,,,,,,,,,,,,,,,,,,,,,,,,,,,,,,,,,,,,367866.000000000,1705311026.397650480,-15.210000038,-41.360000610,163.380004883,0.180000007,-0.515999973,0.552999973
1705311026.414053,,,,,,,,,,,,,,,,,,,,,,,,,,,,,,,,,,,,,,,,,,,,,,,,,,,,,,,,,,,367867.000000000,1705311026.413914919,-15.210000038,-41.299999237,163.470001221,0.181999996,-0.515999973,0.552999973
1705311026.430228,,,,,,,,,,,,,,,,,,,,,,,,,,,,,,,,,,,,,,,,,,,,,,,,,,,,,,,,,,,367868.000000000,1705311026.430151224,-15.260000229,-41.349998474,163.440002441,0.180000007,-0.513999999,0.552999973
1705311026.446501,,,,,,,,,,,,,,,,,,,,,,,,,,,,,,,,,,,,,,,,,,,,,,,,,,,,,,,,,,,367869.000000000,1705311026.446394920,-15.270000458,-41.349998474,163.380004883,0.180000007,-0.513999999,0.552999973
1705311026.462954,,,,,,,,,,,,,,,,,,,,,,,,,,,,,,,,,,,,,,,,,,,,,,,,,,,,,,,,,,,367870.000000000,1705311026.462675095,-15.279999733,-41.310001373,163.360000610,0.180999994,-0.513999999,0.555000007
1705311026.479061,,,,,,,,,,,,,,,,,,,,,,,,,,,,,,,,,,,,,,,,,,,,,,,,,,,,,,,,,,,367871.000000000,1705311026.478928804,-15.239999771,-41.240001678,163.419998169,0.181999996,-0.514999986,0.551999986
1705311026.490463,11.668147737,-9.975766722,-0.515124984,0.553124979,0.000000000,0.000000000,11.380936215,0.000000000,0.000000000,0.000000000,0.000000000,0.000000000,0.000000000,0.000000000,0.000000000,0.000000000,0.000000000,-0.131264386,0.000000000,0.000000000,0.000000000,0.000000000,0.000000000,0.000000000,0.000000000,0.000000000,0.000000000,0.000000000,-0.234453130,0.000000000,0.000000000,0.000000000,0.000000000,0.000000000,0.000000000,0.000000000,0.000000000,0.000000000,0.000000000,0.244740844,0.000000000,0.000000000,0.000000000,0.000000000,0.000000000,0.000000000,0.000000000,0.000000000,0.000000000,0.000000000,-15.230000019,0.000000000,0.000000000,0.000000000,0.000000000,-41.320000172,163.411251068,0.180875000,,,,,,,,
1705311026.495336,,,,,,,,,,,,,,,,,,,,,,,,,,,,,,,,,,,,,,,,,,,,,,,,,,,,,,,,,,,367872.000000000,1705311026.495159388,-15.170000076,-41.349998474,163.389999390,0.180000007,-0.514999986,0.552999973
1705311026.511551,,,,,,,,,,,,,,,,,,,,,,,,,,,,,,,,,,,,,,,,,,,,,,,,,,,,,,,,,,,367873.000000000,1705311026.511414289,-15.270000458,-41.330001831,163.410003662,0.180000007,-0.513999999,0.555000007
1705311026.527876,,,,,,,,,,,,,,,,,,,,,,,,,,,,,,,,,,,,,,,,,,,,,,,,,,,,,,,,,,,367874.000000000,1705311026.527688265,-15.300000191,-41.290000916,163.380004883,0.181999996,-0.513999999,0.554000020
1705311026.543982,,,,,,,,,,,,,,,,,,,,,,,,,,,,,,,,,,,,,,,,,,,,,,,,,,,,,,,,,,,367875.000000000,1705311026.543932915,-15.210000038,-41.279998779,163.410003662,0.180000007,-0.515999973,0.551999986
1705311026.558107,11.660647565,-9.968266551,-0.514749989,0.553499997,0.000000000,0.000000000,11.367188046,0.000000000,0.000000000,0.000000000,0.000000000,0.000000000,0.000000000,0.000000000,0.000000000,0.000000000,0.000000000,-0.131639381,0.000000000,0.000000000,0.000000000,0.000000000,0.000000000,0.000000000,0.000000000,0.000000000,0.000000000,0.000000000,-0.234078135,0.000000000,0.000000000,0.000000000,0.000000000,0.000000000,0.000000000,0.000000000,0.000000000,0.000000000,0.000000000,0.245115861,0.000000000,0.000000000,0.000000000,0.000000000,0.000000000,0.000000000,0.000000000,0.000000000,0.000000000,0.000000000,-15.237500191,0.000000000,0.000000000,0.000000000,0.000000000,-41.312500000,163.397502899,0.180500004,,,,,,,,
1705311026.560294,,,,,,,,,,,,,,,,,,,,,,,,,,,,,,,,,,,,,,,,,,,,,,,,,,,,,,,,,,,367876.000000000,1705311026.560189724,-15.239999771,-41.330001831,163.389999390,0.179000005,-0.514999986,0.551999986
1705311026.572481,,,,,,,,,,,,,,,,,,,,,,,,,,,,,,,,,,,,,,,,,,,,,,,,,,,,,,,,,,,367877.000000000,1705311026.572397232,-15.229999542,-41.279998779,163.460006714,0.180999994,-0.514999986,0.554000020
1705311026.588812,,,,,,,,,,,,,,,,,,,,,,,,,,,,,,,,,,,,,,,,,,,,,,,,,,,,,,,,,,,367878.000000000,1705311026.588674784,-15.210000038,-41.270000458,163.410003662,0.180999994,-0.515999973,0.550000012
1705311026.605081,,,,,,,,,,,,,,,,,,,,,,,,,,,,,,,,,,,,,,,,,,,,,,,,,,,,,,,,,,,367879.000000000,1705311026.604920149,-15.199999809,-41.259998322,163.369995117,0.180999994,-0.517000020,0.551999986
1705311026.621331,,,,,,,,,,,,,,,,,,,,,,,,,,,,,,,,,,,,,,,,,,,,,,,,,,,,,,,,,,,367880.000000000,1705311026.621169567,-15.170000076,-41.340000153,163.380004883,0.180999994,-0.515999973,0.552999973
1705311026.637551,,,,,,,,,,,,,,,,,,,,,,,,,,,,,,,,,,,,,,,,,,,,,,,,,,,,,,,,,,,367881.000000000,1705311026.637428045,-15.180000305,-41.349998474,163.389999390,0.181999996,-0.514999986,0.552999973
1705311026.653749,,,,,,,,,,,,,,,,,,,,,,,,,,,,,,,,,,,,,,,,,,,,,,,,,,,,,,,,,,,367882.000000000,1705311026.653681993,-15.260000229,-41.319999695,163.399993896,0.180999994,-0.514999986,0.554000020
1705311026.657236,11.685290646,-9.962909081,-0.515571415,0.552571424,0.000000000,0.000000000,11.369685583,0.000000000,0.000000000,0.000000000,0.000000000,0.000000000,0.000000000,0.000000000,0.000000000,0.000000000,0.000000000,-0.131282247,0.000000000,0.000000000,0.000000000,0.000000000,0.000000000,0.000000000,0.000000000,0.000000000,0.000000000,0.000000000,-0.234899561,0.000000000,0.000000000,0.000000000,0.000000000,0.000000000,0.000000000,0.000000000,0.000000000,0.000000000,0.000000000,0.244187289,0.000000000,0.000000000,0.000000000,0.000000000,0.000000000,0.000000000,0.000000000,0.000000000,0.000000000,0.000000000,-15.212857110,0.000000000,0.000000000,0.000000000,0.000000000,-41.307142530,163.400000436,0.180857139,,,,,,,,
1705311026.670011,,,,,,,,,,,,,,,,,,,,,,,,,,,,,,,,,,,,,,,,,,,,,,,,,,,,,,,,,,,367883.000000000,1705311026.669926643,-15.270000458,-41.330001831,163.440002441,0.180000007,-0.513999999,0.554000020
1705311026.686462,,,,,,,,,,,,,,,,,,,,,,,,,,,,,,,,,,,,,,,,,,,,,,,,,,,,,,,,,,,367884.000000000,1705311026.686200619,-15.189999580,-41.330001831,163.479995728,0.180999994,-0.513999999,0.550999999
1705311026.702722,,,,,,,,,,,,,,,,,,,,,,,,,,,,,,,,,,,,,,,,,,,,,,,,,,,,,,,,,,,367885.000000000,1705311026.702469110,-15.210000038,-41.299999237,163.410003662,0.180999994,-0.515999973,0.552999973
1705311026.718830,,,,,,,,,,,,,,,,,,,,,,,,,,,,,,,,,,,,,,,,,,,,,,,,,,,,,,,,,,,367886.000000000,1705311026.718723297,-15.199999809,-41.279998779,163.460006714,0.180000007,-0.517000020,0.551999986
1705311026.735111,,,,,,,,,,,,,,,,,,,,,,,,,,,,,,,,,,,,,,,,,,,,,,,,,,,,,,,,,,,367887.000000000,1705311026.734972239,-15.279999733,-41.220001221,163.419998169,0.180999994,-0.513000011,0.549000025
1705311026.751455,,,,,,,,,,,,,,,,,,,,,,,,,,,,,,,,,,,,,,,,,,,,,,,,,,,,,,,,,,,367888.000000000,1705311026.751247883,-15.210000038,-41.279998779,163.419998169,0.181999996,-0.515999973,0.550000012
1705311026.767716,,,,,,,,,,,,,,,,,,,,,,,,,,,,,,,,,,,,,,,,,,,,,,,,,,,,,,,,,,,367889.000000000,1705311026.767544031,-15.189999580,-41.270000458,163.419998169,0.180000007,-0.518000007,0.554000020
1705311026.783887,,,,,,,,,,,,,,,,,,,,,,,,,,,,,,,,,,,,,,,,,,,,,,,,,,,,,,,,,,,367890.000000000,1705311026.783782959,-15.220000267,-41.250000000,163.399993896,0.180999994,-0.515999973,0.554000020
1705311026.800331,,,,,,,,,,,,,,,,,,,,,,,,,,,,,,,,,,,,,,,,,,,,,,,,,,,,,,,,,,,367891.000000000,1705311026.800148249,-15.279999733,-41.319999695,163.410003662,0.181999996,-0.513999999,0.555000007
1705311026.800743,11.670370063,-9.942433421,-0.515333328,0.552444451,0.000000000,0.000000000,11.398574104,0.000000000,0.000000000,0.000000000,0.000000000,0.000000000,0.000000000,0.000000000,0.000000000,0.000000000,0.000000000,-0.131250498,0.000000000,0.000000000,0.000000000,0.000000000,0.000000000,0.000000000,0.000000000,0.000000000,0.000000000,0.000000000,-0.234661474,0.000000000,0.000000000,0.000000000,0.000000000,0.000000000,0.000000000,0.000000000,0.000000000,0.000000000,0.000000000,0.244060316,0.000000000,0.000000000,0.000000000,0.000000000,0.000000000,0.000000000,0.000000000,0.000000000,0.000000000,0.000000000,-15.227777693,0.000000000,0.000000000,0.000000000,0.000000000,-41.286666870,163.428888957,0.180888888,,,,,,,,
1705311026.812508,,,,,,,,,,,,,,,,,,,,,,,,,,,,,,,,,,,,,,,,,,,,,,,,,,,,,,,,,,,367892.000000000,1705311026.812377930,-15.239999771,-41.330001831,163.500000000,0.180999994,-0.517000020,0.551999986
1705311026.828743,,,,,,,,,,,,,,,,,,,,,,,,,,,,,,,,,,,,,,,,,,,,,,,,,,,,,,,,,,,367893.000000000,1705311026.828644037,-15.210000038,-41.369998932,163.470001221,0.178000003,-0.515999973,0.554000020
1705311026.844957,,,,,,,,,,,,,,,,,,,,,,,,,,,,,,,,,,,,,,,,,,,,,,,,,,,,,,,,,,,367894.000000000,1705311026.844879150,-15.220000267,-41.299999237,163.460006714,0.180999994,-0.514999986,0.551999986
1705311026.858750,11.674814397,-9.989099884,-0.515999993,0.552666664,0.000000000,0.000000000,11.446354459,0.000000000,0.000000000,0.000000000,0.000000000,0.000000000,0.000000000,0.000000000,0.000000000,0.000000000,0.000000000,-0.132139388,0.000000000,0.000000000,0.000000000,0.000000000,0.000000000,0.000000000,0.000000000,0.000000000,0.000000000,0.000000000,-0.235328138,0.000000000,0.000000000,0.000000000,0.000000000,0.000000000,0.000000000,0.000000000,0.000000000,0.000000000,0.000000000,0.244282529,0.000000000,0.000000000,0.000000000,0.000000000,0.000000000,0.000000000,0.000000000,0.000000000,0.000000000,0.000000000,-15.223333359,0.000000000,0.000000000,0.000000000,0.000000000,-41.333333333,163.476669312,0.179999997,,,,,,,,
1705311026.861300,,,,,,,,,,,,,,,,,,,,,,,,,,,,,,,,,,,,,,,,,,,,,,,,,,,,,,,,,,,367895.000000000,1705311026.861155510,-15.229999542,-41.290000916,163.460006714,0.182999998,-0.513999999,0.554000020
1705311026.877540,,,,,,,,,,,,,,,,,,,,,,,,,,,,,,,,,,,,,,,,,,,,,,,,,,,,,,,,,,,367896.000000000,1705311026.877432108,-15.300000191,-41.369998932,163.369995117,0.180999994,-0.513000011,0.551999986
1705311026.893819,,,,,,,,,,,,,,,,,,,,,,,,,,,,,,,,,,,,,,,,,,,,,,,,,,,,,,,,,,,367897.000000000,1705311026.893694878,-15.260000229,-41.250000000,163.429992676,0.181999996,-0.514999986,0.555000007
1705311026.910072,,,,,,,,,,,,,,,,,,,,,,,,,,,,,,,,,,,,,,,,,,,,,,,,,,,,,,,,,,,367898.000000000,1705311026.909929276,-15.220000267,-41.279998779,163.460006714,0.180999994,-0.514999986,0.555999994
1705311026.926419,,,,,,,,,,,,,,,,,,,,,,,,,,,,,,,,,,,,,,,,,,,,,,,,,,,,,,,,,,,367899.000000000,1705311026.926198006,-15.220000267,-41.380001068,163.449996948,0.180000007,-0.514999986,0.551999986
1705311026.942695,,,,,,,,,,,,,,,,,,,,,,,,,,,,,,,,,,,,,,,,,,,,,,,,,,,,,,,,,,,367900.000000000,1705311026.942496538,-15.250000000,-41.270000458,163.419998169,0.180999994,-0.513999999,0.555999994
1705311026.959073,,,,,,,,,,,,,,,,,,,,,,,,,,,,,,,,,,,,,,,,,,,,,,,,,,,,,,,,,,,367901.000000000,1705311026.958842039,-15.270000458,-41.270000458,163.399993896,0.180000007,-0.514999986,0.552999973
1705311026.975570,,,,,,,,,,,,,,,,,,,,,,,,,,,,,,,,,,,,,,,,,,,,,,,,,,,,,,,,,,,367902.000000000,1705311026.975322485,-15.159999847,-41.369998932,163.419998169,0.180000007,-0.517000020,0.555000007
1705311026.992213,,,,,,,,,,,,,,,,,,,,,,,,,,,,,,,,,,,,,,,,,,,,,,,,,,,,,,,,,,,367903.000000000,1705311026.991976738,-15.149999619,-41.369998932,163.479995728,0.180000007,-0.517000020,0.555000007
1705311026.994629,11.669258820,-9.972433048,-0.514999999,0.554222220,0.000000000,0.000000000,11.401905606,0.000000000,0.000000000,0.000000000,0.000000000,0.000000000,0.000000000,0.000000000,0.000000000,0.000000000,0.000000000,-0.131250496,0.000000000,0.000000000,0.000000000,0.000000000,0.000000000,0.000000000,0.000000000,0.000000000,0.000000000,0.000000000,-0.234328145,0.000000000,0.000000000,0.000000000,0.000000000,0.000000000,0.000000000,0.000000000,0.000000000,0.000000000,0.000000000,0.245838084,0.000000000,0.000000000,0.000000000,0.000000000,0.000000000,0.000000000,0.000000000,0.000000000,0.000000000,0.000000000,-15.228888936,0.000000000,0.000000000,0.000000000,0.000000000,-41.316666497,163.432220459,0.180888890,,,,,,,,
1705311027.004704,,,,,,,,,,,,,,,,,,,,,,,,,,,,,,,,,,,,,,,,,,,,,,,,,,,,,,,,,,,367904.000000000,1705311027.004465103,-15.189999580,-41.290000916,163.419998169,0.181999996,-0.515999973,0.551999986
1705311027.021411,,,,,,,,,,,,,,,,,,,,,,,,,,,,,,,,,,,,,,,,,,,,,,,,,,,,,,,,,,,367905.000000000,1705311027.021095991,-15.329999924,-41.349998474,163.419998169,0.180000007,-0.513999999,0.555999994
1705311027.037664,,,,,,,,,,,,,,,,,,,,,,,,,,,,,,,,,,,,,,,,,,,,,,,,,,,,,,,,,,,367906.000000000,1705311027.037477493,-15.270000458,-41.250000000,163.449996948,0.182999998,-0.513999999,0.552999973
1705311027.054066,,,,,,,,,,,,,,,,,,,,,,,,,,,,,,,,,,,,,,,,,,,,,,,,,,,,,,,,,,,367907.000000000,1705311027.053803205,-15.270000458,-41.400001526,163.449996948,0.180000007,-0.514999986,0.554000020
1705311027.059337,11.633147651,-9.978266780,-0.514749989,0.553749993,0.000000000,0.000000000,11.404682706,0.000000000,0.000000000,0.000000000,0.000000000,0.000000000,0.000000000,0.000000000,0.000000000,0.000000000,0.000000000,-0.130889383,0.000000000,0.000000000,0.000000000,0.000000000,0.000000000,0.000000000,0.000000000,0.000000000,0.000000000,0.000000000,-0.234078135,0.000000000,0.000000000,0.000000000,0.000000000,0.000000000,0.000000000,0.000000000,0.000000000,0.000000000,0.000000000,0.245365858,0.000000000,0.000000000,0.000000000,0.000000000,0.000000000,0.000000000,0.000000000,0.000000000,0.000000000,0.000000000,-15.265000105,0.000000000,0.000000000,0.000000000,0.000000000,-41.322500229,163.434997559,0.181250002,,,,,,,,
1705311027.070653,,,,,,,,,,,,,,,,,,,,,,,,,,,,,,,,,,,,,,,,,,,,,,,,,,,,,,,,,,,367908.000000000,1705311027.070313454,-15.350000381,-41.340000153,163.440002441,0.180000007,-0.513000011,0.555000007
1705311027.086863,,,,,,,,,,,,,,,,,,,,,,,,,,,,,,,,,,,,,,,,,,,,,,,,,,,,,,,,,,,367909.000000000,1705311027.086697578,-15.180000305,-41.319999695,163.520004272,0.180000007,-0.514999986,0.550999999
1705311027.103101,,,,,,,,,,,,,,,,,,,,,,,,,,,,,,,,,,,,,,,,,,,,,,,,,,,,,,,,,,,367910.000000000,1705311027.102937698,-15.199999809,-41.310001373,163.479995728,0.181999996,-0.515999973,0.551999986
1705311027.119586,,,,,,,,,,,,,,,,,,,,,,,,,,,,,,,,,,,,,,,,,,,,,,,,,,,,,,,,,,,367911.000000000,1705311027.119246721,-15.199999809,-41.290000916,163.479995728,0.181999996,-0.515999973,0.550000012
1705311027.135850,,,,,,,,,,,,,,,,,,,,,,,,,,,,,,,,,,,,,,,,,,,,,,,,,,,,,,,,,,,367912.000000000,1705311027.135544777,-15.260000229,-41.209999084,163.429992676,0.182999998,-0.514999986,0.551999986
1705311027.151906,,,,,,,,,,,,,,,,,,,,,,,,,,,,,,,,,,,,,,,,,,,,,,,,,,,,,,,,,,,367913.000000000,1705311027.151797771,-15.170000076,-41.319999695,163.419998169,0.180999994,-0.515999973,0.550999999
1705311027.157105,11.671480987,-9.954100037,-0.515166650,0.551833332,0.000000000,0.000000000,11.431349983,0.000000000,0.000000000,0.000000000,0.000000000,0.000000000,0.000000000,0.000000000,0.000000000,0.000000000,0.000000000,-0.130806052,0.000000000,0.000000000,0.000000000,0.000000000,0.000000000,0.000000000,0.000000000,0.000000000,0.000000000,0.000000000,-0.234494796,0.000000000,0.000000000,0.000000000,0.000000000,0.000000000,0.000000000,0.000000000,0.000000000,0.000000000,0.000000000,0.243449196,0.000000000,0.000000000,0.000000000,0.000000000,0.000000000,0.000000000,0.000000000,0.000000000,0.000000000,0.000000000,-15.226666768,0.000000000,0.000000000,0.000000000,0.000000000,-41.298333486,163.461664836,0.181333333,,,,,,,,
1705311027.168262,,,,,,,,,,,,,,,,,,,,,,,,,,,,,,,,,,,,,,,,,,,,,,,,,,,,,,,,,,,367914.000000000,1705311027.168059349,-15.260000229,-41.229999542,163.410003662,0.182999998,-0.514999986,0.555000007
1705311027.180488,,,,,,,,,,,,,,,,,,,,,,,,,,,,,,,,,,,,,,,,,,,,,,,,,,,,,,,,,,,367915.000000000,1705311027.180289268,-15.270000458,-41.229999542,163.419998169,0.182999998,-0.514999986,0.554000020
1705311027.196799,,,,,,,,,,,,,,,,,,,,,,,,,,,,,,,,,,,,,,,,,,,,,,,,,,,,,,,,,,,367916.000000000,1705311027.196592569,-15.250000000,-41.209999084,163.380004883,0.181999996,-0.515999973,0.550999999
1705311027.212948,,,,,,,,,,,,,,,,,,,,,,,,,,,,,,,,,,,,,,,,,,,,,,,,,,,,,,,,,,,367917.000000000,1705311027.212842941,-15.270000458,-41.209999084,163.410003662,0.181999996,-0.514999986,0.552999973
1705311027.229352,,,,,,,,,,,,,,,,,,,,,,,,,,,,,,,,,,,,,,,,,,,,,,,,,,,,,,,,,,,367918.000000000,1705311027.229115963,-15.180000305,-41.330001831,163.419998169,0.180000007,-0.515999973,0.552999973
1705311027.245564,,,,,,,,,,,,,,,,,,,,,,,,,,,,,,,,,,,,,,,,,,,,,,,,,,,,,,,,,,,367919.000000000,1705311027.245376587,-15.270000458,-41.220001221,163.429992676,0.182999998,-0.514999986,0.554000020
1705311027.259137,11.648147438,-9.894099935,-0.515333315,0.553333332,0.000000000,0.000000000,11.381352017,0.000000000,0.000000000,0.000000000,0.000000000,0.000000000,0.000000000,0.000000000,0.000000000,0.000000000,0.000000000,-0.129972720,0.000000000,0.000000000,0.000000000,0.000000000,0.000000000,0.000000000,0.000000000,0.000000000,0.000000000,0.000000000,-0.234661460,0.000000000,0.000000000,0.000000000,0.000000000,0.000000000,0.000000000,0.000000000,0.000000000,0.000000000,0.000000000,0.244949197,0.000000000,0.000000000,0.000000000,0.000000000,0.000000000,0.000000000,0.000000000,0.000000000,0.000000000,0.000000000,-15.250000318,0.000000000,0.000000000,0.000000000,0.000000000,-41.238333384,163.411666870,0.182166666,,,,,,,,
1705311027.261893,,,,,,,,,,,,,,,,,,,,,,,,,,,,,,,,,,,,,,,,,,,,,,,,,,,,,,,,,,,367920.000000000,1705311027.261631966,-15.279999733,-41.310001373,163.449996948,0.180000007,-0.514999986,0.554000020
1705311027.277998,,,,,,,,,,,,,,,,,,,,,,,,,,,,,,,,,,,,,,,,,,,,,,,,,,,,,,,,,,,367921.000000000,1705311027.277874231,-15.260000229,-41.279998779,163.449996948,0.181999996,-0.513000011,0.551999986
1705311027.294348,,,,,,,,,,,,,,,,,,,,,,,,,,,,,,,,,,,,,,,,,,,,,,,,,,,,,,,,,,,367922.000000000,1705311027.294134378,-15.270000458,-41.189998627,163.449996948,0.182999998,-0.515999973,0.552999973
