__time,/plot_data/data.0,/plot_data/data.1,/plot_data/data.10,/plot_data/data.11,/plot_data/data.12,/plot_data/data.13,/plot_data/data.14,/plot_data/data.15,/plot_data/data.16,/plot_data/data.17,/plot_data/data.18,/plot_data/data.19,/plot_data/data.2,/plot_data/data.20,/plot_data/data.21,/plot_data/data.22,/plot_data/data.23,/plot_data/data.24,/plot_data/data.25,/plot_data/data.26,/plot_data/data.27,/plot_data/data.28,/plot_data/data.29,/plot_data/data.3,/plot_data/data.30,/plot_data/data.31,/plot_data/data.32,/plot_data/data.33,/plot_data/data.34,/plot_data/data.35,/plot_data/data.36,/plot_data/data.37,/plot_data/data.38,/plot_data/data.39,/plot_data/data.4,/plot_data/data.40,/plot_data/data.41,/plot_data/data.42,/plot_data/data.43,/plot_data/data.44,/plot_data/data.45,/plot_data/data.46,/plot_data/data.47,/plot_data/data.48,/plot_data/data.49,/plot_data/data.5,/plot_data/data.50,/plot_data/data.51,/plot_data/data.52,/plot_data/data.53,/plot_data/data.54,/plot_data/data.55,/plot_data/data.56,/plot_data/data.57,/plot_data/data.58,/plot_data/data.59,/plot_data/data.6,/plot_data/data.60,/plot_data/data.61,/plot_data/data.62,/plot_data/data.63,/plot_data/data.7,/plot_data/data.8,/plot_data/data.9,/robotiq_ft_wrench/header/seq,/robotiq_ft_wrench/header/stamp,/robotiq_ft_wrench/wrench/force/x,/robotiq_ft_wrench/wrench/force/y,/robotiq_ft_wrench/wrench/force/z,/robotiq_ft_wrench/wrench/torque/x,/robotiq_ft_wrench/wrench/torque/y,/robotiq_ft_wrench/wrench/torque/z
1705320517.013489,2.000000000,1.000000000,-0.343429674,0.186151372,-4.110236505,11.124632303,-6.195649433,4.374689087,0.057866930,-1.263525070,0.000000000,-0.002147673,-0.677393675,-0.000309324,0.000000000,0.000000000,0.000000000,0.000000000,0.000000000,0.000000000,-8.875367697,-1.195649433,0.000000000,0.059700947,0.000000000,0.000000000,0.000000000,-0.002846750,0.000416475,0.000000000,0.000000000,0.000000000,0.000000000,0.000000000,0.243374988,0.000000000,0.000000000,0.000000000,0.000000000,0.000000000,0.000000000,0.000000000,0.000000000,0.000000000,0.000000000,0.000000000,0.000000000,0.000000000,0.000000000,0.000000000,0.000000000,0.000000000,0.000000000,0.000000000,0.000000000,-0.001862998,-0.677419746,-0.000350972,0.000000000,0.000000000,0.000000000,0.059912965,0.243336903,2.811045292,,,,,,,,
1705320517.132546,,,,,,,,,,,,,,,,,,,,,,,,,,,,,,,,,,,,,,,,,,,,,,,,,,,,,,,,,,,,,,,,,961068.000000000,1705320517.132319689,-18.989999771,-31.200000763,159.130004883,4.592999935,-0.453000009,-0.546000004
1705320517.148991,,,,,,,,,,,,,,,,,,,,,,,,,,,,,,,,,,,,,,,,,,,,,,,,,,,,,,,,,,,,,,,,,961069.000000000,1705320517.148705006,-19.319999695,-30.750000000,158.630004883,4.538000107,-0.446999997,-0.550999999
1705320517.165635,,,,,,,,,,,,,,,,,,,,,,,,,,,,,,,,,,,,,,,,,,,,,,,,,,,,,,,,,,,,,,,,,961070.000000000,1705320517.165333271,-18.180000305,-26.790000916,158.919998169,4.610000134,-0.425999999,-0.432999998
1705320517.182000,,,,,,,,,,,,,,,,,,,,,,,,,,,,,,,,,,,,,,,,,,,,,,,,,,,,,,,,,,,,,,,,,961071.000000000,1705320517.181721210,-18.750000000,-24.709999084,158.699996948,4.644000053,-0.430999994,-0.451000005
1705320517.198539,,,,,,,,,,,,,,,,,,,,,,,,,,,,,,,,,,,,,,,,,,,,,,,,,,,,,,,,,,,,,,,,,961072.000000000,1705320517.198254585,-18.889999390,-23.110000610,157.880004883,4.566999912,-0.418000013,-0.437000006
1705320517.215123,,,,,,,,,,,,,,,,,,,,,,,,,,,,,,,,,,,,,,,,,,,,,,,,,,,,,,,,,,,,,,,,,961073.000000000,1705320517.214837074,-18.549999237,-23.440000534,157.789993286,4.527999878,-0.451000005,-0.412999988
1705320517.231370,,,,,,,,,,,,,,,,,,,,,,,,,,,,,,,,,,,,,,,,,,,,,,,,,,,,,,,,,,,,,,,,,961074.000000000,1705320517.231127501,-18.479999542,-24.149999619,158.619995117,4.636000156,-0.407000005,-0.282999992
1705320517.247650,,,,,,,,,,,,,,,,,,,,,,,,,,,,,,,,,,,,,,,,,,,,,,,,,,,,,,,,,,,,,,,,,961075.000000000,1705320517.247425795,-18.489999771,-24.030000687,158.770004272,4.734000206,-0.397000015,-0.193000004
1705320517.259855,,,,,,,,,,,,,,,,,,,,,,,,,,,,,,,,,,,,,,,,,,,,,,,,,,,,,,,,,,,,,,,,,961076.000000000,1705320517.259677887,-18.299999237,-23.649999619,158.399993896,4.696000099,-0.405999988,-0.184000000
1705320517.259887,2.000000000,1.000000000,-0.343429674,0.186151372,-3.738236096,12.641132013,-6.425650501,4.383539137,0.067016925,-1.111075060,0.000000000,-0.001901308,-0.677393675,-0.000346995,0.000000000,0.000000000,0.000000000,0.000000000,0.000000000,0.000000000,-7.358867987,-1.425650501,0.000000000,0.059700947,0.000000000,0.000000000,0.000000000,0.002463649,-0.000376707,0.000000000,0.000000000,0.000000000,0.000000000,0.000000000,0.243374988,0.000000000,0.000000000,0.000000000,0.000000000,0.000000000,0.000000000,0.000000000,0.000000000,0.000000000,0.000000000,0.000000000,0.000000000,0.000000000,0.000000000,0.000000000,0.000000000,0.000000000,0.000000000,0.000000000,0.000000000,-0.002147673,-0.677419484,-0.000309324,0.000000000,0.000000000,0.000000000,0.059890546,0.243347787,2.811045292,,,,,,,,
1705320517.276285,,,,,,,,,,,,,,,,,,,,,,,,,,,,,,,,,,,,,,,,,,,,,,,,,,,,,,,,,,,,,,,,,961077.000000000,1705320517.276108742,-17.920000076,-23.270000458,158.169998169,4.581999779,-0.402999997,-0.247999996
1705320517.292554,,,,,,,,,,,,,,,,,,,,,,,,,,,,,,,,,,,,,,,,,,,,,,,,,,,,,,,,,,,,,,,,,961078.000000000,1705320517.292478561,-17.850000381,-22.659999847,157.869995117,4.567999840,-0.421999991,-0.241999999
1705320517.302576,2.000000000,1.000000000,-0.343429674,0.186151372,-3.561236146,13.909131948,-6.584650898,4.396839127,0.072016926,-1.048525059,0.000000000,-0.001598435,-0.677393675,-0.000386329,0.000000000,0.000000000,0.000000000,0.000000000,0.000000000,0.000000000,-6.090868052,-1.584650898,0.000000000,0.059700947,0.000000000,0.000000000,0.000000000,0.003028730,-0.000393342,0.000000000,0.000000000,0.000000000,0.000000000,0.000000000,0.243374988,0.000000000,0.000000000,0.000000000,0.000000000,0.000000000,0.000000000,0.000000000,0.000000000,0.000000000,0.000000000,0.000000000,0.000000000,0.000000000,0.000000000,0.000000000,0.000000000,0.000000000,0.000000000,0.000000000,0.000000000,-0.001901308,-0.677418902,-0.000346995,0.000000000,0.000000000,0.000000000,0.059862804,0.243360547,2.811045292,,,,,,,,
1705320517.305851,2.000000000,1.000000000,-0.343429674,0.186151372,-3.561236146,13.909131948,-6.584650898,4.396839127,0.072016926,-1.048525059,0.000000000,-0.001537861,-0.677393675,-0.000394196,0.000000000,0.000000000,0.000000000,0.000000000,0.000000000,0.000000000,-6.090868052,-1.584650898,0.000000000,0.059700947,0.000000000,0.000000000,0.000000000,0.000605746,-0.000078668,0.000000000,0.000000000,0.000000000,0.000000000,0.000000000,0.243374988,0.000000000,0.000000000,0.000000000,0.000000000,0.000000000,0.000000000,0.000000000,0.000000000,0.000000000,0.000000000,0.000000000,0.000000000,0.000000000,0.000000000,0.000000000,0.000000000,0.000000000,0.000000000,0.000000000,0.000000000,-0.001598435,-0.677418786,-0.000386329,0.000000000,0.000000000,0.000000000,0.059857255,0.243363098,2.811045292,,,,,,,,
1705320517.308927,,,,,,,,,,,,,,,,,,,,,,,,,,,,,,,,,,,,,,,,,,,,,,,,,,,,,,,,,,,,,,,,,961079.000000000,1705320517.308779955,-17.649999619,-21.250000000,158.119995117,4.637000084,-0.405000001,-0.083999999
1705320517.325541,,,,,,,,,,,,,,,,,,,,,,,,,,,,,,,,,,,,,,,,,,,,,,,,,,,,,,,,,,,,,,,,,961080.000000000,1705320517.325200796,-18.100000381,-21.729999542,158.240005493,4.668000221,-0.386999995,-0.011000000
1705320517.341624,,,,,,,,,,,,,,,,,,,,,,,,,,,,,,,,,,,,,,,,,,,,,,,,,,,,,,,,,,,,,,,,,961081.000000000,1705320517.341471195,-17.909999847,-21.909999847,158.300003052,4.669000149,-0.402000010,-0.021000000
1705320517.357972,,,,,,,,,,,,,,,,,,,,,,,,,,,,,,,,,,,,,,,,,,,,,,,,,,,,,,,,,,,,,,,,,961082.000000000,1705320517.357733250,-17.700000763,-22.200000763,158.339996338,4.622000217,-0.393999994,-0.037000000
1705320517.374509,,,,,,,,,,,,,,,,,,,,,,,,,,,,,,,,,,,,,,,,,,,,,,,,,,,,,,,,,,,,,,,,,961083.000000000,1705320517.374165297,-17.350000381,-22.409999847,158.570007324,4.619999886,-0.405000001,-0.050000001
1705320517.390670,,,,,,,,,,,,,,,,,,,,,,,,,,,,,,,,,,,,,,,,,,,,,,,,,,,,,,,,,,,,,,,,,961084.000000000,1705320517.390429258,-18.899999619,-25.659999847,158.100006104,4.550000191,-0.412999988,-0.407999992
1705320517.406869,,,,,,,,,,,,,,,,,,,,,,,,,,,,,,,,,,,,,,,,,,,,,,,,,,,,,,,,,,,,,,,,,961085.000000000,1705320517.406738043,-19.239999771,-28.459999084,158.669998169,4.477000237,-0.451000005,-0.672999978
1705320517.423215,,,,,,,,,,,,,,,,,,,,,,,,,,,,,,,,,,,,,,,,,,,,,,,,,,,,,,,,,,,,,,,,,961086.000000000,1705320517.423012733,-19.170000076,-29.260000229,158.869995117,4.436999798,-0.442999989,-0.688000023
1705320517.439500,,,,,,,,,,,,,,,,,,,,,,,,,,,,,,,,,,,,,,,,,,,,,,,,,,,,,,,,,,,,,,,,,961087.000000000,1705320517.439261913,-18.889999390,-30.100000381,159.210006714,4.431000233,-0.451999992,-0.635999978
1705320517.451675,,,,,,,,,,,,,,,,,,,,,,,,,,,,,,,,,,,,,,,,,,,,,,,,,,,,,,,,,,,,,,,,,961088.000000000,1705320517.451493979,-18.959999084,-29.950000763,159.270004272,4.461999893,-0.444999993,-0.573000014
1705320517.468014,,,,,,,,,,,,,,,,,,,,,,,,,,,,,,,,,,,,,,,,,,,,,,,,,,,,,,,,,,,,,,,,,961089.000000000,1705320517.467756271,-18.860000610,-29.290000916,159.320007324,4.505000114,-0.433999985,-0.483000010
1705320517.484173,,,,,,,,,,,,,,,,,,,,,,,,,,,,,,,,,,,,,,,,,,,,,,,,,,,,,,,,,,,,,,,,,961090.000000000,1705320517.484023809,-18.579999924,-28.770000458,158.960006714,4.412000179,-0.460000008,-0.549000025
1705320517.500540,,,,,,,,,,,,,,,,,,,,,,,,,,,,,,,,,,,,,,,,,,,,,,,,,,,,,,,,,,,,,,,,,961091.000000000,1705320517.500294924,-18.899999619,-28.469999313,158.869995117,4.375000000,-0.428999990,-0.564000010
1705320517.516862,,,,,,,,,,,,,,,,,,,,,,,,,,,,,,,,,,,,,,,,,,,,,,,,,,,,,,,,,,,,,,,,,961092.000000000,1705320517.516593933,-18.479999542,-28.489999771,159.179992676,4.431000233,-0.449999988,-0.515999973
1705320517.533070,,,,,,,,,,,,,,,,,,,,,,,,,,,,,,,,,,,,,,,,,,,,,,,,,,,,,,,,,,,,,,,,,961093.000000000,1705320517.532867908,-18.790000916,-28.170000076,159.369995117,4.488999844,-0.421000004,-0.405000001
1705320517.549395,,,,,,,,,,,,,,,,,,,,,,,,,,,,,,,,,,,,,,,,,,,,,,,,,,,,,,,,,,,,,,,,,961094.000000000,1705320517.549143076,-18.559999466,-26.579999924,158.929992676,4.522999763,-0.426999986,-0.321999997
1705320517.563983,2.000000000,1.000000000,-0.343429674,0.186151372,-3.221736291,16.153132001,-6.649150562,4.370989189,0.085216932,-0.898125064,0.000000000,-0.001076946,-0.677393675,-0.000408669,0.000000000,0.000000000,0.000000000,0.000000000,0.000000000,0.000000000,-3.846867999,-1.649150562,0.000000000,0.059700947,0.000000000,0.000000000,0.000000000,0.004609149,-0.000144733,0.000000000,0.000000000,0.000000000,0.000000000,0.000000000,0.243374988,0.000000000,0.000000000,0.000000000,0.000000000,0.000000000,0.000000000,0.000000000,0.000000000,0.000000000,0.000000000,0.000000000,0.000000000,0.000000000,0.000000000,0.000000000,0.000000000,0.000000000,0.000000000,0.000000000,0.000000000,-0.001537861,-0.677416207,-0.000394196,0.000000000,0.000000000,0.000000000,0.059813856,0.243378473,2.811045292,,,,,,,,
1705320517.565650,,,,,,,,,,,,,,,,,,,,,,,,,,,,,,,,,,,,,,,,,,,,,,,,,,,,,,,,,,,,,,,,,961095.000000000,1705320517.565431356,-18.379999161,-26.629999161,158.690002441,4.434000015,-0.444999993,-0.388999999
1705320517.567132,2.000000000,1.000000000,-0.343429674,0.186151372,-3.216236261,16.023132078,-6.653150654,4.355989179,0.082816933,-0.907925064,0.000000000,-0.001010763,-0.677393675,-0.000412364,0.000000000,0.000000000,0.000000000,0.000000000,0.000000000,0.000000000,-3.976867922,-1.653150654,0.000000000,0.059700947,0.000000000,0.000000000,0.000000000,0.000661830,-0.000036947,0.000000000,0.000000000,0.000000000,0.000000000,0.000000000,0.243374988,0.000000000,0.000000000,0.000000000,0.000000000,0.000000000,0.000000000,0.000000000,0.000000000,0.000000000,0.000000000,0.000000000,0.000000000,0.000000000,0.000000000,0.000000000,0.000000000,0.000000000,0.000000000,0.000000000,0.000000000,-0.001076946,-0.677415897,-0.000408669,0.000000000,0.000000000,0.000000000,0.059807666,0.243380825,2.811045292,,,,,,,,
1705320517.581794,,,,,,,,,,,,,,,,,,,,,,,,,,,,,,,,,,,,,,,,,,,,,,,,,,,,,,,,,,,,,,,,,961096.000000000,1705320517.581687212,-18.270000458,-26.979999542,158.850006104,4.408999920,-0.426999986,-0.426999986
1705320517.598077,,,,,,,,,,,,,,,,,,,,,,,,,,,,,,,,,,,,,,,,,,,,,,,,,,,,,,,,,,,,,,,,,961097.000000000,1705320517.597920656,-17.850000381,-26.280000687,158.759994507,4.475999832,-0.439999998,-0.360000014
1705320517.614438,,,,,,,,,,,,,,,,,,,,,,,,,,,,,,,,,,,,,,,,,,,,,,,,,,,,,,,,,,,,,,,,,961098.000000000,1705320517.614191771,-17.649999619,-25.479999542,159.020004272,4.532000065,-0.416000009,-0.259999990
1705320517.630486,,,,,,,,,,,,,,,,,,,,,,,,,,,,,,,,,,,,,,,,,,,,,,,,,,,,,,,,,,,,,,,,,961099.000000000,1705320517.630439520,-17.510000229,-24.629999161,158.830001831,4.547999859,-0.412999988,-0.222000003
1705320517.646936,,,,,,,,,,,,,,,,,,,,,,,,,,,,,,,,,,,,,,,,,,,,,,,,,,,,,,,,,,,,,,,,,961100.000000000,1705320517.646696329,-19.040000916,-28.149999619,158.070007324,4.344999790,-0.472000003,-0.568000019
1705320517.663184,,,,,,,,,,,,,,,,,,,,,,,,,,,,,,,,,,,,,,,,,,,,,,,,,,,,,,,,,,,,,,,,,961101.000000000,1705320517.662965536,-19.129999161,-29.270000458,158.660003662,4.313000202,-0.446000010,-0.657999992
1705320517.679537,,,,,,,,,,,,,,,,,,,,,,,,,,,,,,,,,,,,,,,,,,,,,,,,,,,,,,,,,,,,,,,,,961102.000000000,1705320517.679287910,-18.700000763,-29.979999542,159.169998169,4.453999996,-0.493000001,-0.617999971
1705320517.691809,,,,,,,,,,,,,,,,,,,,,,,,,,,,,,,,,,,,,,,,,,,,,,,,,,,,,,,,,,,,,,,,,961103.000000000,1705320517.691541195,-19.209999084,-30.270000458,159.850006104,4.525000095,-0.428000003,-0.524999976
1705320517.708119,,,,,,,,,,,,,,,,,,,,,,,,,,,,,,,,,,,,,,,,,,,,,,,,,,,,,,,,,,,,,,,,,961104.000000000,1705320517.707847834,-18.620000839,-29.120000839,159.289993286,4.467999935,-0.462000012,-0.456000000
1705320517.724393,,,,,,,,,,,,,,,,,,,,,,,,,,,,,,,,,,,,,,,,,,,,,,,,,,,,,,,,,,,,,,,,,961105.000000000,1705320517.724147081,-18.979999542,-29.040000916,158.610000610,4.335999966,-0.458999991,-0.550000012
1705320517.740657,,,,,,,,,,,,,,,,,,,,,,,,,,,,,,,,,,,,,,,,,,,,,,,,,,,,,,,,,,,,,,,,,961106.000000000,1705320517.740417719,-18.930000305,-29.229999542,159.000000000,4.340000153,-0.449000001,-0.583999991
1705320517.756965,,,,,,,,,,,,,,,,,,,,,,,,,,,,,,,,,,,,,,,,,,,,,,,,,,,,,,,,,,,,,,,,,961107.000000000,1705320517.756758451,-18.620000839,-28.680000305,159.020004272,4.435999870,-0.455000013,-0.509999990
1705320517.773577,,,,,,,,,,,,,,,,,,,,,,,,,,,,,,,,,,,,,,,,,,,,,,,,,,,,,,,,,,,,,,,,,961108.000000000,1705320517.773202419,-18.659999847,-28.600000381,159.240005493,4.467999935,-0.435999990,-0.467999995
1705320517.789838,,,,,,,,,,,,,,,,,,,,,,,,,,,,,,,,,,,,,,,,,,,,,,,,,,,,,,,,,,,,,,,,,961109.000000000,1705320517.789531469,-18.680000305,-28.510000229,158.990005493,4.448999882,-0.444999993,-0.437000006
1705320517.806154,,,,,,,,,,,,,,,,,,,,,,,,,,,,,,,,,,,,,,,,,,,,,,,,,,,,,,,,,,,,,,,,,961110.000000000,1705320517.805833101,-18.940000534,-28.540000916,158.839996338,4.383999825,-0.446000010,-0.508000016
1705320517.822271,,,,,,,,,,,,,,,,,,,,,,,,,,,,,,,,,,,,,,,,,,,,,,,,,,,,,,,,,,,,,,,,,961111.000000000,1705320517.822089195,-18.860000610,-28.610000610,158.910003662,4.395999908,-0.448000014,-0.508000016
1705320517.838675,,,,,,,,,,,,,,,,,,,,,,,,,,,,,,,,,,,,,,,,,,,,,,,,,,,,,,,,,,,,,,,,,961112.000000000,1705320517.838382244,-18.600000381,-28.649999619,159.210006714,4.452000141,-0.441000015,-0.476999998
1705320517.854899,,,,,,,,,,,,,,,,,,,,,,,,,,,,,,,,,,,,,,,,,,,,,,,,,,,,,,,,,,,,,,,,,961113.000000000,1705320517.854649782,-18.489999771,-28.350000381,159.100006104,4.455999851,-0.441000015,-0.477999985
1705320517.871227,,,,,,,,,,,,,,,,,,,,,,,,,,,,,,,,,,,,,,,,,,,,,,,,,,,,,,,,,,,,,,,,,961114.000000000,1705320517.871002674,-18.489999771,-27.940000534,158.690002441,4.408999920,-0.458999991,-0.465000004
1705320517.871279,2.000000000,1.000000000,-0.343429674,0.186151372,-3.375736478,13.889631978,-6.373648548,4.263789091,0.063066927,-1.020025062,0.000000000,-0.001424226,-0.677405357,-0.000357203,0.000000000,0.000000000,0.000000000,0.000000000,0.000000000,0.000000000,-6.110368022,-1.373648548,0.000000000,0.059757173,0.000000000,0.000000000,0.000000000,-0.004134634,0.000551615,0.000000000,0.000000000,0.000000000,0.000000000,0.000000000,0.243377939,0.000000000,0.000000000,0.000000000,0.000000000,0.000000000,0.000000000,0.000000000,0.000000000,0.000000000,0.000000000,0.000000000,0.000000000,0.000000000,0.000000000,0.000000000,0.000000000,0.000000000,0.000000000,0.000000000,0.000000000,-0.001010763,-0.677428320,-0.000412364,0.000000000,0.000000000,0.000000000,0.059901727,0.243366227,2.811045292,,,,,,,,
1705320517.881968,2.000000000,1.000000000,-0.343429674,0.186151372,-3.372236493,13.821631948,-6.385648060,4.258089099,0.061466927,-1.027175062,0.000000000,-0.001520519,-0.677411914,-0.000348570,0.000000000,0.000000000,0.000000000,0.000000000,0.000000000,0.000000000,-6.178368052,-1.385648060,0.000000000,0.059788603,0.000000000,0.000000000,0.000000000,-0.000962927,0.000086324,0.000000000,0.000000000,0.000000000,0.000000000,0.000000000,0.243379757,0.000000000,0.000000000,0.000000000,0.000000000,0.000000000,0.000000000,0.000000000,0.000000000,0.000000000,0.000000000,0.000000000,0.000000000,0.000000000,0.000000000,0.000000000,0.000000000,0.000000000,0.000000000,0.000000000,0.000000000,-0.001424226,-0.677435206,-0.000357203,0.000000000,0.000000000,0.000000000,0.059942078,0.243364333,2.811045292,,,,,,,,
1705320517.887552,,,,,,,,,,,,,,,,,,,,,,,,,,,,,,,,,,,,,,,,,,,,,,,,,,,,,,,,,,,,,,,,,961115.000000000,1705320517.887310266,-18.780000687,-28.329999924,158.880004883,4.405000210,-0.428999990,-0.479000002
1705320517.899764,,,,,,,,,,,,,,,,,,,,,,,,,,,,,,,,,,,,,,,,,,,,,,,,,,,,,,,,,,,,,,,,,961116.000000000,1705320517.899528742,-18.479999542,-28.270000458,158.820007324,4.442999840,-0.456000000,-0.456000000
1705320517.916079,,,,,,,,,,,,,,,,,,,,,,,,,,,,,,,,,,,,,,,,,,,,,,,,,,,,,,,,,,,,,,,,,961117.000000000,1705320517.915833473,-18.450000763,-27.909999847,158.949996948,4.461999893,-0.433999985,-0.426999986
1705320517.932384,,,,,,,,,,,,,,,,,,,,,,,,,,,,,,,,,,,,,,,,,,,,,,,,,,,,,,,,,,,,,,,,,961118.000000000,1705320517.932197332,-18.200000763,-27.670000076,158.970001221,4.453999996,-0.446000010,-0.411000013
1705320517.948718,,,,,,,,,,,,,,,,,,,,,,,,,,,,,,,,,,,,,,,,,,,,,,,,,,,,,,,,,,,,,,,,,961119.000000000,1705320517.948457718,-18.459999084,-27.700000763,158.639999390,4.414999962,-0.449999988,-0.467000008
1705320517.965109,,,,,,,,,,,,,,,,,,,,,,,,,,,,,,,,,,,,,,,,,,,,,,,,,,,,,,,,,,,,,,,,,961120.000000000,1705320517.964722395,-18.479999542,-27.799999237,158.929992676,4.428999901,-0.437000006,-0.465000004
1705320517.981412,,,,,,,,,,,,,,,,,,,,,,,,,,,,,,,,,,,,,,,,,,,,,,,,,,,,,,,,,,,,,,,,,961121.000000000,1705320517.981069326,-18.420000076,-27.709999084,158.839996338,4.440999985,-0.442999989,-0.437000006
1705320517.997518,2.000000000,1.000000000,-0.343429674,0.186151372,-3.444236520,13.423131887,-6.328149128,4.257689104,0.059666928,-1.040075063,0.000000000,-0.001619477,-0.677414775,-0.000335344,0.000000000,0.000000000,0.000000000,0.000000000,0.000000000,0.000000000,-6.576868113,-1.328149128,0.000000000,0.059802379,0.000000000,0.000000000,0.000000000,-0.000989586,0.000132263,0.000000000,0.000000000,0.000000000,0.000000000,0.000000000,0.243380532,0.000000000,0.000000000,0.000000000,0.000000000,0.000000000,0.000000000,0.000000000,0.000000000,0.000000000,0.000000000,0.000000000,0.000000000,0.000000000,0.000000000,0.000000000,0.000000000,0.000000000,0.000000000,0.000000000,0.000000000,-0.001520519,-0.677438243,-0.000348570,0.000000000,0.000000000,0.000000000,0.059964909,0.243360906,2.811045292,,,,,,,,
1705320517.997618,,,,,,,,,,,,,,,,,,,,,,,,,,,,,,,,,,,,,,,,,,,,,,,,,,,,,,,,,,,,,,,,,961122.000000000,1705320517.997410297,-18.389999390,-27.559999466,158.850006104,4.469999790,-0.442000002,-0.377000004
1705320518.013958,,,,,,,,,,,,,,,,,,,,,,,,,,,,,,,,,,,,,,,,,,,,,,,,,,,,,,,,,,,,,,,,,961123.000000000,1705320518.013681889,-18.319999695,-27.409999847,158.979995728,4.480000019,-0.433999985,-0.360000014
1705320518.030390,,,,,,,,,,,,,,,,,,,,,,,,,,,,,,,,,,,,,,,,,,,,,,,,,,,,,,,,,,,,,,,,,961124.000000000,1705320518.030060768,-18.340000153,-27.430000305,158.789993286,4.433000088,-0.446999997,-0.402999997
1705320518.046522,,,,,,,,,,,,,,,,,,,,,,,,,,,,,,,,,,,,,,,,,,,,,,,,,,,,,,,,,,,,,,,,,961125.000000000,1705320518.046352386,-18.370000839,-27.399999619,158.860000610,4.434000015,-0.432999998,-0.418000013
1705320518.062891,,,,,,,,,,,,,,,,,,,,,,,,,,,,,,,,,,,,,,,,,,,,,,,,,,,,,,,,,,,,,,,,,961126.000000000,1705320518.062590361,-18.299999237,-27.239999771,158.860000610,4.448999882,-0.439000010,-0.391999990
1705320518.079188,,,,,,,,,,,,,,,,,,,,,,,,,,,,,,,,,,,,,,,,,,,,,,,,,,,,,,,,,,,,,,,,,961127.000000000,1705320518.078914165,-18.299999237,-26.649999619,158.800003052,4.475999832,-0.430999994,-0.312999994
1705320518.095424,,,,,,,,,,,,,,,,,,,,,,,,,,,,,,,,,,,,,,,,,,,,,,,,,,,,,,,,,,,,,,,,,961128.000000000,1705320518.095253944,-18.159999847,-26.500000000,158.860000610,4.478000164,-0.432999998,-0.291999996
1705320518.107661,,,,,,,,,,,,,,,,,,,,,,,,,,,,,,,,,,,,,,,,,,,,,,,,,,,,,,,,,,,,,,,,,961129.000000000,1705320518.107476234,-18.350000381,-26.610000610,158.690002441,4.466000080,-0.425999999,-0.316000015
1705320518.123924,,,,,,,,,,,,,,,,,,,,,,,,,,,,,,,,,,,,,,,,,,,,,,,,,,,,,,,,,,,,,,,,,961130.000000000,1705320518.123743534,-18.049999237,-26.469999313,158.839996338,4.468999863,-0.435999990,-0.337000012
1705320518.140330,,,,,,,,,,,,,,,,,,,,,,,,,,,,,,,,,,,,,,,,,,,,,,,,,,,,,,,,,,,,,,,,,961131.000000000,1705320518.140111923,-18.209999084,-26.280000687,158.669998169,4.455999851,-0.421999991,-0.326000005
1705320518.156679,,,,,,,,,,,,,,,,,,,,,,,,,,,,,,,,,,,,,,,,,,,,,,,,,,,,,,,,,,,,,,,,,961132.000000000,1705320518.156459570,-18.280000687,-26.149999619,158.580001831,4.460999966,-0.432999998,-0.266999990
1705320518.172904,,,,,,,,,,,,,,,,,,,,,,,,,,,,,,,,,,,,,,,,,,,,,,,,,,,,,,,,,,,,,,,,,961133.000000000,1705320518.172737598,-18.219999313,-25.909999847,158.759994507,4.488999844,-0.414999992,-0.247999996
1705320518.189302,,,,,,,,,,,,,,,,,,,,,,,,,,,,,,,,,,,,,,,,,,,,,,,,,,,,,,,,,,,,,,,,,961134.000000000,1705320518.189073086,-18.059999466,-25.579999924,158.880004883,4.507999897,-0.421000004,-0.180999994
1705320518.205711,,,,,,,,,,,,,,,,,,,,,,,,,,,,,,,,,,,,,,,,,,,,,,,,,,,,,,,,,,,,,,,,,961135.000000000,1705320518.205455780,-17.500000000,-23.139999390,158.630004883,4.559999943,-0.409000009,-0.030999999
1705320518.216024,2.000000000,1.000000000,-0.343429674,0.186151372,-3.058736184,15.099132196,-6.515650654,4.290239081,0.073166931,-0.899975066,0.000000000,-0.001304069,-0.677423179,-0.000370199,0.000000000,0.000000000,0.000000000,0.000000000,0.000000000,0.000000000,-4.900867804,-1.515650654,0.000000000,0.059862103,0.000000000,0.000000000,0.000000000,0.003154084,-0.000348551,0.000000000,0.000000000,0.000000000,0.000000000,0.000000000,0.243372560,0.000000000,0.000000000,0.000000000,0.000000000,0.000000000,0.000000000,0.000000000,0.000000000,0.000000000,0.000000000,0.000000000,0.000000000,0.000000000,0.000000000,0.000000000,0.000000000,0.000000000,0.000000000,0.000000000,0.000000000,-0.001619477,-0.677445813,-0.000335344,0.000000000,0.000000000,0.000000000,0.059995583,0.243365677,2.811045292,,,,,,,,
1705320518.221903,,,,,,,,,,,,,,,,,,,,,,,,,,,,,,,,,,,,,,,,,,,,,,,,,,,,,,,,,,,,,,,,,961136.000000000,1705320518.221768379,-18.420000076,-21.799999237,158.539993286,4.583000183,-0.386999995,-0.033000000
1705320518.236176,2.000000000,1.000000000,-0.343429674,0.186151372,-3.055736211,15.422632257,-6.529651356,4.297239098,0.076616931,-0.878825066,0.000000000,-0.001176287,-0.677423179,-0.000379970,0.000000000,0.000000000,0.000000000,0.000000000,0.000000000,0.000000000,-4.577367743,-1.529651356,0.000000000,0.059862103,0.000000000,0.000000000,0.000000000,0.001277817,-0.000097712,0.000000000,0.000000000,0.000000000,0.000000000,0.000000000,0.243372560,0.000000000,0.000000000,0.000000000,0.000000000,0.000000000,0.000000000,0.000000000,0.000000000,0.000000000,0.000000000,0.000000000,0.000000000,0.000000000,0.000000000,0.000000000,0.000000000,0.000000000,0.000000000,0.000000000,0.000000000,-0.001304069,-0.677445313,-0.000370199,0.000000000,0.000000000,0.000000000,0.059983701,0.243370453,2.811045292,,,,,,,,
1705320518.238187,,,,,,,,,,,,,,,,,,,,,,,,,,,,,,,,,,,,,,,,,,,,,,,,,,,,,,,,,,,,,,,,,961137.000000000,1705320518.238058567,-17.729999542,-19.930000305,158.380004883,4.546999931,-0.379999995,-0.024000000
1705320518.254367,,,,,,,,,,,,,,,,,,,,,,,,,,,,,,,,,,,,,,,,,,,,,,,,,,,,,,,,,,,,,,,,,961138.000000000,1705320518.254317999,-17.899999619,-20.180000305,158.020004272,4.506999969,-0.398000002,-0.050000001
1705320518.270646,,,,,,,,,,,,,,,,,,,,,,,,,,,,,,,,,,,,,,,,,,,,,,,,,,,,,,,,,,,,,,,,,961139.000000000,1705320518.270554304,-17.340000153,-20.940000534,158.460006714,4.585999966,-0.361999989,0.017000001
1705320518.287076,,,,,,,,,,,,,,,,,,,,,,,,,,,,,,,,,,,,,,,,,,,,,,,,,,,,,,,,,,,,,,,,,961140.000000000,1705320518.286896944,-16.719999313,-20.829999924,158.550003052,4.662000179,-0.388000011,0.158999994
1705320518.303413,,,,,,,,,,,,,,,,,,,,,,,,,,,,,,,,,,,,,,,,,,,,,,,,,,,,,,,,,,,,,,,,,961141.000000000,1705320518.303181171,-17.350000381,-19.930000305,157.820007324,4.652999878,-0.363000005,0.221000001
1705320518.315499,,,,,,,,,,,,,,,,,,,,,,,,,,,,,,,,,,,,,,,,,,,,,,,,,,,,,,,,,,,,,,,,,961142.000000000,1705320518.315369844,-16.840000153,-20.959999084,158.610000610,4.638999939,-0.389999986,0.170000002
1705320518.331936,,,,,,,,,,,,,,,,,,,,,,,,,,,,,,,,,,,,,,,,,,,,,,,,,,,,,,,,,,,,,,,,,961143.000000000,1705320518.331661701,-17.790000916,-22.149999619,158.740005493,4.620999813,-0.368000001,0.131999999
1705320518.348135,,,,,,,,,,,,,,,,,,,,,,,,,,,,,,,,,,,,,,,,,,,,,,,,,,,,,,,,,,,,,,,,,961144.000000000,1705320518.347933054,-16.989999771,-21.290000916,158.470001221,4.677000046,-0.381999999,0.182999998
1705320518.361900,2.000000000,1.000000000,-0.343429674,0.186151372,-2.635736230,18.171632139,-6.724648762,4.362639103,0.101716930,-0.671075064,0.000000000,-0.000600931,-0.677432179,-0.000420924,0.000000000,0.000000000,0.000000000,0.000000000,0.000000000,0.000000000,-1.828367861,-1.724648762,0.000000000,0.059920385,0.000000000,0.000000000,0.000000000,0.005753563,-0.000409537,0.000000000,0.000000000,0.000000000,0.000000000,0.000000000,0.243367195,0.000000000,0.000000000,0.000000000,0.000000000,0.000000000,0.000000000,0.000000000,0.000000000,0.000000000,0.000000000,0.000000000,0.000000000,0.000000000,0.000000000,0.000000000,0.000000000,0.000000000,0.000000000,0.000000000,0.000000000,-0.001176287,-0.677451948,-0.000379970,0.000000000,0.000000000,0.000000000,0.059988403,0.243386319,2.811045292,,,,,,,,
1705320518.364393,,,,,,,,,,,,,,,,,,,,,,,,,,,,,,,,,,,,,,,,,,,,,,,,,,,,,,,,,,,,,,,,,961145.000000000,1705320518.364222288,-16.750000000,-20.940000534,158.250000000,4.675000191,-0.397000015,0.248999998
1705320518.375307,2.000000000,1.000000000,-0.343429674,0.186151372,-2.554736188,18.494632093,-6.755148792,4.374689111,0.103516929,-0.637725064,0.000000000,-0.000421260,-0.677432179,-0.000435215,0.000000000,0.000000000,0.000000000,0.000000000,0.000000000,0.000000000,-1.505367907,-1.755148792,0.000000000,0.059920385,0.000000000,0.000000000,0.000000000,0.001796713,-0.000142907,0.000000000,0.000000000,0.000000000,0.000000000,0.000000000,0.243367195,0.000000000,0.000000000,0.000000000,0.000000000,0.000000000,0.000000000,0.000000000,0.000000000,0.000000000,0.000000000,0.000000000,0.000000000,0.000000000,0.000000000,0.000000000,0.000000000,0.000000000,0.000000000,0.000000000,0.000000000,-0.000600931,-0.677451266,-0.000420924,0.000000000,0.000000000,0.000000000,0.059971711,0.243393083,2.811045292,,,,,,,,
1705320518.380716,,,,,,,,,,,,,,,,,,,,,,,,,,,,,,,,,,,,,,,,,,,,,,,,,,,,,,,,,,,,,,,,,961146.000000000,1705320518.380528688,-17.020000458,-21.190000534,158.460006714,4.627999783,-0.349999994,0.225999996
1705320518.396853,,,,,,,,,,,,,,,,,,,,,,,,,,,,,,,,,,,,,,,,,,,,,,,,,,,,,,,,,,,,,,,,,961147.000000000,1705320518.396755695,-17.459999084,-21.479999542,157.889999390,4.586999893,-0.375999987,0.230000004
1705320518.413239,,,,,,,,,,,,,,,,,,,,,,,,,,,,,,,,,,,,,,,,,,,,,,,,,,,,,,,,,,,,,,,,,961148.000000000,1705320518.413032532,-17.270000458,-21.030000687,158.149993896,4.618999958,-0.358999997,0.243000001
1705320518.429525,,,,,,,,,,,,,,,,,,,,,,,,,,,,,,,,,,,,,,,,,,,,,,,,,,,,,,,,,,,,,,,,,961149.000000000,1705320518.429356337,-16.780000687,-20.379999161,158.580001831,4.690999985,-0.363999993,0.264999986
1705320518.445739,,,,,,,,,,,,,,,,,,,,,,,,,,,,,,,,,,,,,,,,,,,,,,,,,,,,,,,,,,,,,,,,,961150.000000000,1705320518.445623875,-17.340000153,-20.739999771,157.830001831,4.626999855,-0.395000011,0.284999996
1705320518.461986,,,,,,,,,,,,,,,,,,,,,,,,,,,,,,,,,,,,,,,,,,,,,,,,,,,,,,,,,,,,,,,,,961151.000000000,1705320518.461860418,-17.540000916,-21.190000534,157.910003662,4.574999809,-0.356000006,0.259999990
1705320518.478360,,,,,,,,,,,,,,,,,,,,,,,,,,,,,,,,,,,,,,,,,,,,,,,,,,,,,,,,,,,,,,,,,961152.000000000,1705320518.478158712,-17.149999619,-20.770000458,158.059997559,4.619999886,-0.379000008,0.280999988
1705320518.494665,,,,,,,,,,,,,,,,,,,,,,,,,,,,,,,,,,,,,,,,,,,,,,,,,,,,,,,,,,,,,,,,,961153.000000000,1705320518.494467974,-16.860000610,-20.149999619,158.199996948,4.653999805,-0.368000001,0.259999990
1705320518.510883,,,,,,,,,,,,,,,,,,,,,,,,,,,,,,,,,,,,,,,,,,,,,,,,,,,,,,,,,,,,,,,,,961154.000000000,1705320518.510748625,-16.340000153,-19.729999542,158.250000000,4.677999973,-0.381000012,0.305999994
1705320518.527198,,,,,,,,,,,,,,,,,,,,,,,,,,,,,,,,,,,,,,,,,,,,,,,,,,,,,,,,,,,,,,,,,961155.000000000,1705320518.527019024,-17.500000000,-20.780000687,157.970001221,4.598999977,-0.367000014,0.287999988
1705320518.543448,,,,,,,,,,,,,,,,,,,,,,,,,,,,,,,,,,,,,,,,,,,,,,,,,,,,,,,,,,,,,,,,,961156.000000000,1705320518.543294191,-17.649999619,-20.870000839,157.800003052,4.583000183,-0.361000001,0.294999987
1705320518.555566,,,,,,,,,,,,,,,,,,,,,,,,,,,,,,,,,,,,,,,,,,,,,,,,,,,,,,,,,,,,,,,,,961157.000000000,1705320518.555486679,-16.600000381,-19.930000305,158.130004883,4.623000145,-0.368000001,0.303999990
1705320518.571904,,,,,,,,,,,,,,,,,,,,,,,,,,,,,,,,,,,,,,,,,,,,,,,,,,,,,,,,,,,,,,,,,961158.000000000,1705320518.571753025,-16.409999847,-19.670000076,158.199996948,4.635000229,-0.365999997,0.298999995
1705320518.588209,,,,,,,,,,,,,,,,,,,,,,,,,,,,,,,,,,,,,,,,,,,,,,,,,,,,,,,,,,,,,,,,,961159.000000000,1705320518.588024616,-16.350000381,-19.069999695,158.050003052,4.663000107,-0.381000012,0.354000002
1705320518.604475,,,,,,,,,,,,,,,,,,,,,,,,,,,,,,,,,,,,,,,,,,,,,,,,,,,,,,,,,,,,,,,,,961160.000000000,1705320518.604289532,-16.840000153,-20.100000381,158.160003662,4.591000080,-0.368000001,0.333000004
1705320518.620759,,,,,,,,,,,,,,,,,,,,,,,,,,,,,,,,,,,,,,,,,,,,,,,,,,,,,,,,,,,,,,,,,961161.000000000,1705320518.620576143,-16.809999466,-20.209999084,158.160003662,4.585999966,-0.375000000,0.347999990
1705320518.637047,,,,,,,,,,,,,,,,,,,,,,,,,,,,,,,,,,,,,,,,,,,,,,,,,,,,,,,,,,,,,,,,,961162.000000000,1705320518.636861324,-16.030000687,-19.190000534,158.320007324,4.624000072,-0.384000003,0.352999985
1705320518.653390,,,,,,,,,,,,,,,,,,,,,,,,,,,,,,,,,,,,,,,,,,,,,,,,,,,,,,,,,,,,,,,,,961163.000000000,1705320518.653244257,-15.920000076,-19.010000229,158.410003662,4.638000011,-0.379000008,0.361000001
1705320518.669626,,,,,,,,,,,,,,,,,,,,,,,,,,,,,,,,,,,,,,,,,,,,,,,,,,,,,,,,,,,,,,,,,961164.000000000,1705320518.669483662,-15.930000305,-18.799999237,158.330001831,4.631000042,-0.391999990,0.391999990
1705320518.686108,,,,,,,,,,,,,,,,,,,,,,,,,,,,,,,,,,,,,,,,,,,,,,,,,,,,,,,,,,,,,,,,,961165.000000000,1705320518.685791731,-15.800000191,-18.569999695,158.389999390,4.616000175,-0.381999999,0.388999999
1705320518.697902,2.000000000,1.000000000,-0.343429674,0.186151372,-1.571736529,21.825632039,-7.163148976,4.449989137,0.134966927,-0.250175070,0.000000000,0.000280874,-0.677448571,-0.000519673,0.000000000,0.000000000,0.000000000,0.000000000,0.000000000,0.000000000,1.825632039,-2.163148976,0.000000000,0.059965335,0.000000000,0.000000000,0.000000000,0.007021342,-0.000844582,0.000000000,0.000000000,0.000000000,0.000000000,0.000000000,0.243389010,0.000000000,0.000000000,0.000000000,0.000000000,0.000000000,0.000000000,0.000000000,0.000000000,0.000000000,0.000000000,0.000000000,0.000000000,0.000000000,0.000000000,0.000000000,0.000000000,0.000000000,0.000000000,0.000000000,0.000000000,-0.000421260,-0.677466057,-0.000435215,0.000000000,0.000000000,0.000000000,0.059952171,0.243443878,2.811045292,,,,,,,,
1705320518.701482,2.000000000,1.000000000,-0.343429674,0.186151372,-1.571736529,21.825632039,-7.163148976,4.449989137,0.134966927,-0.250175070,0.000000000,0.000421301,-0.677448571,-0.000536564,0.000000000,0.000000000,0.000000000,0.000000000,0.000000000,0.000000000,1.825632039,-2.163148976,0.000000000,0.059965335,0.000000000,0.000000000,0.000000000,0.001404268,-0.000168916,0.000000000,0.000000000,0.000000000,0.000000000,0.000000000,0.243389010,0.000000000,0.000000000,0.000000000,0.000000000,0.000000000,0.000000000,0.000000000,0.000000000,0.000000000,0.000000000,0.000000000,0.000000000,0.000000000,0.000000000,0.000000000,0.000000000,0.000000000,0.000000000,0.000000000,0.000000000,0.000280874,-0.677465737,-0.000519673,0.000000000,0.000000000,0.000000000,0.059939273,0.243449674,2.811045292,,,,,,,,
1705320518.702289,,,,,,,,,,,,,,,,,,,,,,,,,,,,,,,,,,,,,,,,,,,,,,,,,,,,,,,,,,,,,,,,,961166.000000000,1705320518.702198982,-15.810000420,-18.489999771,158.369995117,4.617000103,-0.381999999,0.386999995
1705320518.718710,,,,,,,,,,,,,,,,,,,,,,,,,,,,,,,,,,,,,,,,,,,,,,,,,,,,,,,,,,,,,,,,,961167.000000000,1705320518.718514442,-15.960000038,-18.700000763,158.210006714,4.602000237,-0.381999999,0.409999996
1705320518.734908,,,,,,,,,,,,,,,,,,,,,,,,,,,,,,,,,,,,,,,,,,,,,,,,,,,,,,,,,,,,,,,,,961168.000000000,1705320518.734774590,-15.920000076,-18.670000076,158.369995117,4.611000061,-0.375999987,0.435999990
1705320518.751145,,,,,,,,,,,,,,,,,,,,,,,,,,,,,,,,,,,,,,,,,,,,,,,,,,,,,,,,,,,,,,,,,961169.000000000,1705320518.751032591,-15.710000038,-18.440000534,158.449996948,4.607999802,-0.381000012,0.433999985
1705320518.767410,,,,,,,,,,,,,,,,,,,,,,,,,,,,,,,,,,,,,,,,,,,,,,,,,,,,,,,,,,,,,,,,,961170.000000000,1705320518.767294407,-15.810000420,-18.420000076,158.339996338,4.605000019,-0.379000008,0.465999991
1705320518.779665,,,,,,,,,,,,,,,,,,,,,,,,,,,,,,,,,,,,,,,,,,,,,,,,,,,,,,,,,,,,,,,,,961171.000000000,1705320518.779515505,-15.789999962,-18.569999695,158.429992676,4.597000122,-0.372999996,0.462000012
1705320518.795887,,,,,,,,,,,,,,,,,,,,,,,,,,,,,,,,,,,,,,,,,,,,,,,,,,,,,,,,,,,,,,,,,961172.000000000,1705320518.795789957,-15.689999580,-18.209999084,158.320007324,4.592999935,-0.375999987,0.463999987
1705320518.812281,,,,,,,,,,,,,,,,,,,,,,,,,,,,,,,,,,,,,,,,,,,,,,,,,,,,,,,,,,,,,,,,,961173.000000000,1705320518.812081099,-15.739999771,-18.319999695,158.369995117,4.592000008,-0.374000013,0.486000001
1705320518.828627,,,,,,,,,,,,,,,,,,,,,,,,,,,,,,,,,,,,,,,,,,,,,,,,,,,,,,,,,,,,,,,,,961174.000000000,1705320518.828430653,-15.840000153,-18.450000763,158.410003662,4.590000153,-0.365999997,0.505999982
1705320518.844829,,,,,,,,,,,,,,,,,,,,,,,,,,,,,,,,,,,,,,,,,,,,,,,,,,,,,,,,,,,,,,,,,961175.000000000,1705320518.844692230,-15.800000191,-18.159999847,158.330001831,4.598999977,-0.368999988,0.515999973
1705320518.861300,,,,,,,,,,,,,,,,,,,,,,,,,,,,,,,,,,,,,,,,,,,,,,,,,,,,,,,,,,,,,,,,,961176.000000000,1705320518.860967398,-15.829999924,-18.159999847,158.380004883,4.594999790,-0.363000005,0.508000016
1705320518.877550,,,,,,,,,,,,,,,,,,,,,,,,,,,,,,,,,,,,,,,,,,,,,,,,,,,,,,,,,,,,,,,,,961177.000000000,1705320518.877255917,-15.720000267,-18.110000610,158.289993286,4.578000069,-0.368999988,0.513999999
1705320518.893881,,,,,,,,,,,,,,,,,,,,,,,,,,,,,,,,,,,,,,,,,,,,,,,,,,,,,,,,,,,,,,,,,961178.000000000,1705320518.893594027,-15.800000191,-18.260000229,158.350006104,4.576000214,-0.367000014,0.529999971
1705320518.910186,,,,,,,,,,,,,,,,,,,,,,,,,,,,,,,,,,,,,,,,,,,,,,,,,,,,,,,,,,,,,,,,,961179.000000000,1705320518.909867287,-15.729999542,-17.989999771,158.330001831,4.584000111,-0.368000001,0.537000000
1705320518.926424,,,,,,,,,,,,,,,,,,,,,,,,,,,,,,,,,,,,,,,,,,,,,,,,,,,,,,,,,,,,,,,,,961180.000000000,1705320518.926164627,-15.710000038,-18.120000839,158.279998779,4.573999882,-0.370999992,0.540000021
1705320518.942760,,,,,,,,,,,,,,,,,,,,,,,,,,,,,,,,,,,,,,,,,,,,,,,,,,,,,,,,,,,,,,,,,961181.000000000,1705320518.942467928,-15.819999695,-18.100000381,158.389999390,4.568999767,-0.365000010,0.532999992
1705320518.959148,,,,,,,,,,,,,,,,,,,,,,,,,,,,,,,,,,,,,,,,,,,,,,,,,,,,,,,,,,,,,,,,,961182.000000000,1705320518.958769083,-15.800000191,-17.930000305,158.279998779,4.565999985,-0.365999997,0.540000021
1705320518.967038,2.000000000,1.000000000,-0.343429674,0.186151372,-0.598236421,23.594631997,-6.974150562,4.423639164,0.133516929,-0.083225068,0.000000000,0.000803187,-0.677459419,-0.000502143,0.000000000,0.000000000,0.000000000,0.000000000,0.000000000,0.000000000,3.594631997,-1.974150562,0.000000000,0.059948955,0.000000000,0.000000000,0.000000000,0.003818854,0.000344214,0.000000000,0.000000000,0.000000000,0.000000000,0.000000000,0.243427247,0.000000000,0.000000000,0.000000000,0.000000000,0.000000000,0.000000000,0.000000000,0.000000000,0.000000000,0.000000000,0.000000000,0.000000000,0.000000000,0.000000000,0.000000000,0.000000000,0.000000000,0.000000000,0.000000000,0.000000000,0.000421301,-0.677472717,-0.000536564,0.000000000,0.000000000,0.000000000,0.059885728,0.243496515,2.811045292,,,,,,,,
1705320518.975323,,,,,,,,,,,,,,,,,,,,,,,,,,,,,,,,,,,,,,,,,,,,,,,,,,,,,,,,,,,,,,,,,961183.000000000,1705320518.975066662,-15.699999809,-17.809999466,158.289993286,4.565999985,-0.370000005,0.541999996
1705320518.978328,2.000000000,1.000000000,-0.343429674,0.186151372,-0.587236407,23.654632036,-6.980151081,4.420039162,0.133966929,-0.074175068,0.000000000,0.000891564,-0.677462399,-0.000496459,0.000000000,0.000000000,0.000000000,0.000000000,0.000000000,0.000000000,3.654632036,-1.980151081,0.000000000,0.059944354,0.000000000,0.000000000,0.000000000,0.000883771,0.000056842,0.000000000,0.000000000,0.000000000,0.000000000,0.000000000,0.243437871,0.000000000,0.000000000,0.000000000,0.000000000,0.000000000,0.000000000,0.000000000,0.000000000,0.000000000,0.000000000,0.000000000,0.000000000,0.000000000,0.000000000,0.000000000,0.000000000,0.000000000,0.000000000,0.000000000,0.000000000,0.000803187,-0.677474887,-0.000502143,0.000000000,0.000000000,0.000000000,0.059872586,0.243509334,2.811045292,,,,,,,,
1705320518.987441,,,,,,,,,,,,,,,,,,,,,,,,,,,,,,,,,,,,,,,,,,,,,,,,,,,,,,,,,,,,,,,,,961184.000000000,1705320518.987305403,-15.659999847,-17.969999313,158.360000610,4.566999912,-0.365999997,0.541999996
1705320519.003683,,,,,,,,,,,,,,,,,,,,,,,,,,,,,,,,,,,,,,,,,,,,,,,,,,,,,,,,,,,,,,,,,961185.000000000,1705320519.003582478,-15.560000420,-17.629999161,158.330001831,4.567999840,-0.374000013,0.529999971
1705320519.020024,,,,,,,,,,,,,,,,,,,,,,,,,,,,,,,,,,,,,,,,,,,,,,,,,,,,,,,,,,,,,,,,,961186.000000000,1705320519.019844532,-15.569999695,-17.590000153,158.289993286,4.561999798,-0.368999988,0.532000005
1705320519.036223,,,,,,,,,,,,,,,,,,,,,,,,,,,,,,,,,,,,,,,,,,,,,,,,,,,,,,,,,,,,,,,,,961187.000000000,1705320519.036113262,-15.609999657,-17.600000381,158.270004272,4.552000046,-0.372999996,0.532999992
1705320519.041279,2.000000000,1.000000000,-0.343429674,0.186151372,-0.532236341,23.843132059,-6.982651234,4.409189114,0.136766929,-0.046225069,0.000000000,0.000946939,-0.677462935,-0.000495822,0.000000000,0.000000000,0.000000000,0.000000000,0.000000000,0.000000000,3.843132059,-1.982651234,0.000000000,0.059943505,0.000000000,0.000000000,0.000000000,0.000553754,0.000006368,0.000000000,0.000000000,0.000000000,0.000000000,0.000000000,0.243439853,0.000000000,0.000000000,0.000000000,0.000000000,0.000000000,0.000000000,0.000000000,0.000000000,0.000000000,0.000000000,0.000000000,0.000000000,0.000000000,0.000000000,0.000000000,0.000000000,0.000000000,0.000000000,0.000000000,0.000000000,0.000891564,-0.677475025,-0.000496459,0.000000000,0.000000000,0.000000000,0.059866461,0.243512952,2.811045292,,,,,,,,
1705320519.052444,,,,,,,,,,,,,,,,,,,,,,,,,,,,,,,,,,,,,,,,,,,,,,,,,,,,,,,,,,,,,,,,,961188.000000000,1705320519.052357197,-15.659999847,-17.670000076,158.369995117,4.556000233,-0.367000014,0.546000004
1705320519.068782,,,,,,,,,,,,,,,,,,,,,,,,,,,,,,,,,,,,,,,,,,,,,,,,,,,,,,,,,,,,,,,,,961189.000000000,1705320519.068612576,-15.600000381,-17.329999924,158.360000610,4.559999943,-0.372000009,0.538999975
1705320519.084944,,,,,,,,,,,,,,,,,,,,,,,,,,,,,,,,,,,,,,,,,,,,,,,,,,,,,,,,,,,,,,,,,961190.000000000,1705320519.084865570,-15.579999924,-17.250000000,158.289993286,4.553999901,-0.374000013,0.541999996
1705320519.101241,,,,,,,,,,,,,,,,,,,,,,,,,,,,,,,,,,,,,,,,,,,,,,,,,,,,,,,,,,,,,,,,,961191.000000000,1705320519.101114511,-15.640000343,-17.239999771,158.309997559,4.548999786,-0.368000001,0.541000009
1705320519.117519,,,,,,,,,,,,,,,,,,,,,,,,,,,,,,,,,,,,,,,,,,,,,,,,,,,,,,,,,,,,,,,,,961192.000000000,1705320519.117378712,-15.500000000,-17.030000687,158.289993286,4.547999859,-0.370999992,0.550999999
1705320519.123388,2.000000000,1.000000000,-0.343429674,0.186151372,-0.485236362,24.132632009,-6.997151661,4.396839103,0.138416927,-0.023375068,0.000000000,0.001015914,-0.677464724,-0.000498595,0.000000000,0.000000000,0.000000000,0.000000000,0.000000000,0.000000000,4.132632009,-1.997151661,0.000000000,0.059938062,0.000000000,0.000000000,0.000000000,0.000689751,-0.000027727,0.000000000,0.000000000,0.000000000,0.000000000,0.000000000,0.243447527,0.000000000,0.000000000,0.000000000,0.000000000,0.000000000,0.000000000,0.000000000,0.000000000,0.000000000,0.000000000,0.000000000,0.000000000,0.000000000,0.000000000,0.000000000,0.000000000,0.000000000,0.000000000,0.000000000,0.000000000,0.000946939,-0.677476450,-0.000495822,0.000000000,0.000000000,0.000000000,0.059854539,0.243522981,2.811045292,,,,,,,,
1705320519.133823,,,,,,,,,,,,,,,,,,,,,,,,,,,,,,,,,,,,,,,,,,,,,,,,,,,,,,,,,,,,,,,,,961193.000000000,1705320519.133656740,-15.649999619,-17.229999542,158.289993286,4.546999931,-0.367000014,0.561999977
1705320519.149945,,,,,,,,,,,,,,,,,,,,,,,,,,,,,,,,,,,,,,,,,,,,,,,,,,,,,,,,,,,,,,,,,961194.000000000,1705320519.149892569,-15.449999809,-17.370000839,158.419998169,4.545000076,-0.372999996,0.566999972
1705320519.166224,,,,,,,,,,,,,,,,,,,,,,,,,,,,,,,,,,,,,,,,,,,,,,,,,,,,,,,,,,,,,,,,,961195.000000000,1705320519.166132212,-15.579999924,-17.270000458,158.389999390,4.539000034,-0.365000010,0.565999985
1705320519.182660,,,,,,,,,,,,,,,,,,,,,,,,,,,,,,,,,,,,,,,,,,,,,,,,,,,,,,,,,,,,,,,,,961196.000000000,1705320519.182393312,-15.399999619,-17.010000229,158.240005493,4.527999878,-0.372000009,0.545000017
1705320519.198831,,,,,,,,,,,,,,,,,,,,,,,,,,,,,,,,,,,,,,,,,,,,,,,,,,,,,,,,,,,,,,,,,961197.000000000,1705320519.198654890,-15.529999733,-17.350000381,158.350006104,4.519999981,-0.368000001,0.570999980
1705320519.215248,,,,,,,,,,,,,,,,,,,,,,,,,,,,,,,,,,,,,,,,,,,,,,,,,,,,,,,,,,,,,,,,,961198.000000000,1705320519.215030909,-15.470000267,-17.270000458,158.309997559,4.519999981,-0.368999988,0.564999998
1705320519.224894,2.000000000,1.000000000,-0.343429674,0.186151372,-0.402736285,24.430631963,-7.003651905,4.380289087,0.138116926,-0.007575069,0.000000000,0.001089309,-0.677469730,-0.000500449,0.000000000,0.000000000,0.000000000,0.000000000,0.000000000,0.000000000,4.430631963,-2.003651905,0.000000000,0.059905071,0.000000000,0.000000000,0.000000000,0.000733950,-0.000018546,0.000000000,0.000000000,0.000000000,0.000000000,0.000000000,0.243478373,0.000000000,0.000000000,0.000000000,0.000000000,0.000000000,0.000000000,0.000000000,0.000000000,0.000000000,0.000000000,0.000000000,0.000000000,0.000000000,0.000000000,0.000000000,0.000000000,0.000000000,0.000000000,0.000000000,0.000000000,0.001015914,-0.677481030,-0.000498595,0.000000000,0.000000000,0.000000000,0.059814626,0.243556234,2.811045292,,,,,,,,
1705320519.227275,,,,,,,,,,,,,,,,,,,,,,,,,,,,,,,,,,,,,,,,,,,,,,,,,,,,,,,,,,,,,,,,,961199.000000000,1705320519.227234125,-15.460000038,-17.350000381,158.380004883,4.524000168,-0.370999992,0.574000001
1705320519.243723,,,,,,,,,,,,,,,,,,,,,,,,,,,,,,,,,,,,,,,,,,,,,,,,,,,,,,,,,,,,,,,,,961200.000000000,1705320519.243626833,-15.600000381,-17.270000458,158.380004883,4.519000053,-0.363000005,0.574999988
1705320519.260136,,,,,,,,,,,,,,,,,,,,,,,,,,,,,,,,,,,,,,,,,,,,,,,,,,,,,,,,,,,,,,,,,961201.000000000,1705320519.260031223,-15.279999733,-16.750000000,158.279998779,4.513000011,-0.377999991,0.563000023
1705320519.276358,,,,,,,,,,,,,,,,,,,,,,,,,,,,,,,,,,,,,,,,,,,,,,,,,,,,,,,,,,,,,,,,,961202.000000000,1705320519.276272535,-15.350000381,-16.959999084,158.270004272,4.518000126,-0.372000009,0.572000027
1705320519.292606,,,,,,,,,,,,,,,,,,,,,,,,,,,,,,,,,,,,,,,,,,,,,,,,,,,,,,,,,,,,,,,,,961203.000000000,1705320519.292488575,-15.369999886,-17.049999237,158.300003052,4.513999939,-0.372999996,0.573000014
1705320519.305282,2.000000000,1.000000000,-0.343429674,0.186151372,-0.317736343,24.659132043,-7.001650715,4.366739115,0.137266927,0.000674932,0.000000000,0.001149688,-0.677469730,-0.000500420,0.000000000,0.000000000,0.000000000,0.000000000,0.000000000,0.000000000,4.659132043,-2.001650715,0.000000000,0.059903771,0.000000000,0.000000000,0.000000000,0.000603790,0.000000293,0.000000000,0.000000000,0.000000000,0.000000000,0.000000000,0.243479043,0.000000000,0.000000000,0.000000000,0.000000000,0.000000000,0.000000000,0.000000000,0.000000000,0.000000000,0.000000000,0.000000000,0.000000000,0.000000000,0.000000000,0.000000000,0.000000000,0.000000000,0.000000000,0.000000000,0.000000000,0.001089309,-0.677480620,-0.000500449,0.000000000,0.000000000,0.000000000,0.059807590,0.243558748,2.811045292,,,,,,,,
1705320519.308814,,,,,,,,,,,,,,,,,,,,,,,,,,,,,,,,,,,,,,,,,,,,,,,,,,,,,,,,,,,,,,,,,961204.000000000,1705320519.308694839,-15.359999657,-17.069999695,158.360000610,4.513000011,-0.374000013,0.577000022
1705320519.325154,,,,,,,,,,,,,,,,,,,,,,,,,,,,,,,,,,,,,,,,,,,,,,,,,,,,,,,,,,,,,,,,,961205.000000000,1705320519.324976444,-15.409999847,-17.020000458,158.330001831,4.510000229,-0.370000005,0.580999970
1705320519.341475,,,,,,,,,,,,,,,,,,,,,,,,,,,,,,,,,,,,,,,,,,,,,,,,,,,,,,,,,,,,,,,,,961206.000000000,1705320519.341237068,-15.250000000,-16.739999771,158.250000000,4.506999969,-0.374000013,0.572000027
1705320519.357722,,,,,,,,,,,,,,,,,,,,,,,,,,,,,,,,,,,,,,,,,,,,,,,,,,,,,,,,,,,,,,,,,961207.000000000,1705320519.357488155,-15.270000458,-17.069999695,158.369995117,4.500000000,-0.375999987,0.580999970
1705320519.374127,,,,,,,,,,,,,,,,,,,,,,,,,,,,,,,,,,,,,,,,,,,,,,,,,,,,,,,,,,,,,,,,,961208.000000000,1705320519.373787880,-15.239999771,-17.000000000,158.339996338,4.506999969,-0.370999992,0.572000027
1705320519.390449,,,,,,,,,,,,,,,,,,,,,,,,,,,,,,,,,,,,,,,,,,,,,,,,,,,,,,,,,,,,,,,,,961209.000000000,1705320519.390070438,-15.310000420,-16.909999847,158.289993286,4.505000114,-0.377999991,0.579999983
1705320519.406820,,,,,,,,,,,,,,,,,,,,,,,,,,,,,,,,,,,,,,,,,,,,,,,,,,,,,,,,,,,,,,,,,961210.000000000,1705320519.406351566,-15.340000153,-16.950000763,158.279998779,4.495999813,-0.372000009,0.580999970
1705320519.406874,2.000000000,1.000000000,-0.343429674,0.186151372,-0.226736358,24.858132020,-7.003651142,4.350589141,0.136166928,0.012724935,0.000000000,0.001201564,-0.677470624,-0.000500814,0.000000000,0.000000000,0.000000000,0.000000000,0.000000000,0.000000000,4.858132020,-2.003651142,0.000000000,0.059897188,0.000000000,0.000000000,0.000000000,0.000518758,-0.000003942,0.000000000,0.000000000,0.000000000,0.000000000,0.000000000,0.243484885,0.000000000,0.000000000,0.000000000,0.000000000,0.000000000,0.000000000,0.000000000,0.000000000,0.000000000,0.000000000,0.000000000,0.000000000,0.000000000,0.000000000,0.000000000,0.000000000,0.000000000,0.000000000,0.000000000,0.000000000,0.001149688,-0.677481178,-0.000500420,0.000000000,0.000000000,0.000000000,0.059796091,0.243566209,2.811045292,,,,,,,,
1705320519.423070,,,,,,,,,,,,,,,,,,,,,,,,,,,,,,,,,,,,,,,,,,,,,,,,,,,,,,,,,,,,,,,,,961211.000000000,1705320519.422674417,-15.310000420,-16.649999619,158.309997559,4.497000217,-0.375000000,0.583999991
1705320519.439182,,,,,,,,,,,,,,,,,,,,,,,,,,,,,,,,,,,,,,,,,,,,,,,,,,,,,,,,,,,,,,,,,961212.000000000,1705320519.438962936,-15.350000381,-16.750000000,158.289993286,4.498000145,-0.375000000,0.578000009
1705320519.455360,,,,,,,,,,,,,,,,,,,,,,,,,,,,,,,,,,,,,,,,,,,,,,,,,,,,,,,,,,,,,,,,,961213.000000000,1705320519.455274582,-15.449999809,-16.909999847,158.369995117,4.500999928,-0.368999988,0.588999987
1705320519.467615,,,,,,,,,,,,,,,,,,,,,,,,,,,,,,,,,,,,,,,,,,,,,,,,,,,,,,,,,,,,,,,,,961214.000000000,1705320519.467447758,-15.180000305,-16.780000687,158.309997559,4.498000145,-0.375999987,0.582000017
1705320519.483995,,,,,,,,,,,,,,,,,,,,,,,,,,,,,,,,,,,,,,,,,,,,,,,,,,,,,,,,,,,,,,,,,961215.000000000,1705320519.483740330,-15.170000076,-16.700000763,158.250000000,4.495999813,-0.375000000,0.583999991
1705320519.500237,,,,,,,,,,,,,,,,,,,,,,,,,,,,,,,,,,,,,,,,,,,,,,,,,,,,,,,,,,,,,,,,,961216.000000000,1705320519.500024080,-15.170000076,-16.870000839,158.360000610,4.486000061,-0.372999996,0.583999991
1705320519.516530,,,,,,,,,,,,,,,,,,,,,,,,,,,,,,,,,,,,,,,,,,,,,,,,,,,,,,,,,,,,,,,,,961217.000000000,1705320519.516309977,-15.270000458,-16.909999847,158.259994507,4.487999916,-0.377999991,0.588999987
1705320519.532760,,,,,,,,,,,,,,,,,,,,,,,,,,,,,,,,,,,,,,,,,,,,,,,,,,,,,,,,,,,,,,,,,961218.000000000,1705320519.532612801,-15.270000458,-16.860000610,158.289993286,4.494999886,-0.374000013,0.592999995
1705320519.549147,,,,,,,,,,,,,,,,,,,,,,,,,,,,,,,,,,,,,,,,,,,,,,,,,,,,,,,,,,,,,,,,,961219.000000000,1705320519.548885107,-15.210000038,-16.909999847,158.350006104,4.488999844,-0.374000013,0.587000012
1705320519.549797,2.000000000,1.000000000,-0.343429674,0.186151372,-0.112236503,25.040131990,-7.012151814,4.330839166,0.134166929,0.025424936,0.000000000,0.001248339,-0.677472234,-0.000502593,0.000000000,0.000000000,0.000000000,0.000000000,0.000000000,0.000000000,5.040131990,-2.012151814,0.000000000,0.059881650,0.000000000,0.000000000,0.000000000,0.000467752,-0.000017790,0.000000000,0.000000000,0.000000000,0.000000000,0.000000000,0.243497357,0.000000000,0.000000000,0.000000000,0.000000000,0.000000000,0.000000000,0.000000000,0.000000000,0.000000000,0.000000000,0.000000000,0.000000000,0.000000000,0.000000000,0.000000000,0.000000000,0.000000000,0.000000000,0.000000000,0.000000000,0.001201564,-0.677482537,-0.000500814,0.000000000,0.000000000,0.000000000,0.059776157,0.243580270,2.811045292,,,,,,,,
1705320519.565455,,,,,,,,,,,,,,,,,,,,,,,,,,,,,,,,,,,,,,,,,,,,,,,,,,,,,,,,,,,,,,,,,961220.000000000,1705320519.565174580,-15.250000000,-16.870000839,158.300003052,4.485000134,-0.372000009,0.588999987
1705320519.581606,,,,,,,,,,,,,,,,,,,,,,,,,,,,,,,,,,,,,,,,,,,,,,,,,,,,,,,,,,,,,,,,,961221.000000000,1705320519.581422329,-15.449999809,-17.000000000,158.250000000,4.478000164,-0.372999996,0.583000004
1705320519.598123,,,,,,,,,,,,,,,,,,,,,,,,,,,,,,,,,,,,,,,,,,,,,,,,,,,,,,,,,,,,,,,,,961222.000000000,1705320519.597754478,-15.270000458,-17.040000916,158.320007324,4.484000206,-0.372999996,0.588000000
1705320519.614109,,,,,,,,,,,,,,,,,,,,,,,,,,,,,,,,,,,,,,,,,,,,,,,,,,,,,,,,,,,,,,,,,961223.000000000,1705320519.614021540,-15.229999542,-17.079999924,158.380004883,4.482999802,-0.375000000,0.589999974
1705320519.628618,2.000000000,1.000000000,-0.343429674,0.186151372,-0.079736474,25.064131872,-7.012651539,4.322389159,0.133666928,0.029424932,0.000000000,0.001262494,-0.677474499,-0.000503049,0.000000000,0.000000000,0.000000000,0.000000000,0.000000000,0.000000000,5.064131872,-2.012651539,0.000000000,0.059860017,0.000000000,0.000000000,0.000000000,0.000141550,-0.000004557,0.000000000,0.000000000,0.000000000,0.000000000,0.000000000,0.243514776,0.000000000,0.000000000,0.000000000,0.000000000,0.000000000,0.000000000,0.000000000,0.000000000,0.000000000,0.000000000,0.000000000,0.000000000,0.000000000,0.000000000,0.000000000,0.000000000,0.000000000,0.000000000,0.000000000,0.000000000,0.001248339,-0.677484723,-0.000502593,0.000000000,0.000000000,0.000000000,0.059753191,0.243598162,2.811045292,,,,,,,,
1705320519.630302,,,,,,,,,,,,,,,,,,,,,,,,,,,,,,,,,,,,,,,,,,,,,,,,,,,,,,,,,,,,,,,,,961224.000000000,1705320519.630255699,-15.460000038,-17.020000458,158.270004272,4.477000237,-0.370999992,0.586000025
1705320519.646575,,,,,,,,,,,,,,,,,,,,,,,,,,,,,,,,,,,,,,,,,,,,,,,,,,,,,,,,,,,,,,,,,961225.000000000,1705320519.646494865,-15.479999542,-17.079999924,158.289993286,4.473999977,-0.370000005,0.579999983
1705320519.662802,,,,,,,,,,,,,,,,,,,,,,,,,,,,,,,,,,,,,,,,,,,,,,,,,,,,,,,,,,,,,,,,,961226.000000000,1705320519.662727594,-15.460000038,-17.280000687,158.320007324,4.467000008,-0.372999996,0.584999979
1705320519.679040,,,,,,,,,,,,,,,,,,,,,,,,,,,,,,,,,,,,,,,,,,,,,,,,,,,,,,,,,,,,,,,,,961227.000000000,1705320519.678966761,-15.300000191,-16.899999619,158.339996338,4.480000019,-0.374000013,0.586000025
1705320519.695316,,,,,,,,,,,,,,,,,,,,,,,,,,,,,,,,,,,,,,,,,,,,,,,,,,,,,,,,,,,,,,,,,961228.000000000,1705320519.695202112,-15.300000191,-16.850000381,158.360000610,4.482999802,-0.372999996,0.589999974
1705320519.707622,,,,,,,,,,,,,,,,,,,,,,,,,,,,,,,,,,,,,,,,,,,,,,,,,,,,,,,,,,,,,,,,,961229.000000000,1705320519.707443714,-15.289999962,-17.110000610,158.350006104,4.472000122,-0.375999987,0.588000000
1705320519.723821,,,,,,,,,,,,,,,,,,,,,,,,,,,,,,,,,,,,,,,,,,,,,,,,,,,,,,,,,,,,,,,,,961230.000000000,1705320519.723731041,-15.289999962,-17.219999313,158.350006104,4.465000153,-0.372999996,0.586000025
1705320519.740124,,,,,,,,,,,,,,,,,,,,,,,,,,,,,,,,,,,,,,,,,,,,,,,,,,,,,,,,,,,,,,,,,961231.000000000,1705320519.740003347,-15.569999695,-17.340000153,158.309997559,4.462999821,-0.370999992,0.583999991
1705320519.756383,,,,,,,,,,,,,,,,,,,,,,,,,,,,,,,,,,,,,,,,,,,,,,,,,,,,,,,,,,,,,,,,,961232.000000000,1705320519.756276369,-15.500000000,-17.139999390,158.360000610,4.473999977,-0.370999992,0.575999975
1705320519.772718,,,,,,,,,,,,,,,,,,,,,,,,,,,,,,,,,,,,,,,,,,,,,,,,,,,,,,,,,,,,,,,,,961233.000000000,1705320519.772545576,-15.489999771,-17.159999847,158.429992676,4.473000050,-0.372999996,0.580999970
1705320519.788878,,,,,,,,,,,,,,,,,,,,,,,,,,,,,,,,,,,,,,,,,,,,,,,,,,,,,,,,,,,,,,,,,961234.000000000,1705320519.788787842,-15.619999886,-17.280000687,158.300003052,4.466000080,-0.370999992,0.578999996
1705320519.805313,,,,,,,,,,,,,,,,,,,,,,,,,,,,,,,,,,,,,,,,,,,,,,,,,,,,,,,,,,,,,,,,,961235.000000000,1705320519.805061102,-15.600000381,-17.409999847,158.350006104,4.464000225,-0.370999992,0.573000014
1705320519.821621,,,,,,,,,,,,,,,,,,,,,,,,,,,,,,,,,,,,,,,,,,,,,,,,,,,,,,,,,,,,,,,,,961236.000000000,1705320519.821392059,-15.729999542,-17.750000000,158.380004883,4.454999924,-0.368999988,0.568000019
1705320519.837893,,,,,,,,,,,,,,,,,,,,,,,,,,,,,,,,,,,,,,,,,,,,,,,,,,,,,,,,,,,,,,,,,961237.000000000,1705320519.837705851,-15.760000229,-17.590000153,158.330001831,4.460999966,-0.368999988,0.566999972
1705320519.844186,2.000000000,1.000000000,-0.343429674,0.186151372,-0.218236354,24.824131910,-6.994148731,4.300989160,0.135216931,0.029174932,0.000000000,0.001217325,-0.677477419,-0.000499440,0.000000000,0.000000000,0.000000000,0.000000000,0.000000000,0.000000000,4.824131910,-1.994148731,0.000000000,0.059829675,0.000000000,0.000000000,0.000000000,-0.000451690,0.000036094,0.000000000,0.000000000,0.000000000,0.000000000,0.000000000,0.243538439,0.000000000,0.000000000,0.000000000,0.000000000,0.000000000,0.000000000,0.000000000,0.000000000,0.000000000,0.000000000,0.000000000,0.000000000,0.000000000,0.000000000,0.000000000,0.000000000,0.000000000,0.000000000,0.000000000,0.000000000,0.001262494,-0.677487815,-0.000503049,0.000000000,0.000000000,0.000000000,0.059727045,0.243620123,2.811045292,,,,,,,,
1705320519.854021,,,,,,,,,,,,,,,,,,,,,,,,,,,,,,,,,,,,,,,,,,,,,,,,,,,,,,,,,,,,,,,,,961238.000000000,1705320519.853950977,-15.939999580,-17.780000687,158.259994507,4.454999924,-0.368000001,0.564000010
1705320519.860826,2.000000000,1.000000000,-0.343429674,0.186151372,-0.251736310,24.778131906,-6.995648670,4.298989162,0.135516931,0.027724933,0.000000000,0.001199091,-0.677477419,-0.000499018,0.000000000,0.000000000,0.000000000,0.000000000,0.000000000,0.000000000,4.778131906,-1.995648670,0.000000000,0.059829675,0.000000000,0.000000000,0.000000000,-0.000182338,0.000004219,0.000000000,0.000000000,0.000000000,0.000000000,0.000000000,0.243538439,0.000000000,0.000000000,0.000000000,0.000000000,0.000000000,0.000000000,0.000000000,0.000000000,0.000000000,0.000000000,0.000000000,0.000000000,0.000000000,0.000000000,0.000000000,0.000000000,0.000000000,0.000000000,0.000000000,0.000000000,0.001217325,-0.677487922,-0.000499440,0.000000000,0.000000000,0.000000000,0.059728766,0.243619529,2.811045292,,,,,,,,
1705320519.870238,,,,,,,,,,,,,,,,,,,,,,,,,,,,,,,,,,,,,,,,,,,,,,,,,,,,,,,,,,,,,,,,,961239.000000000,1705320519.870182753,-16.120000839,-18.120000839,158.369995117,4.445000172,-0.365000010,0.552999973
1705320519.886496,,,,,,,,,,,,,,,,,,,,,,,,,,,,,,,,,,,,,,,,,,,,,,,,,,,,,,,,,,,,,,,,,961240.000000000,1705320519.886415005,-16.090000153,-18.250000000,158.339996338,4.440999985,-0.365999997,0.554000020
1705320519.902790,,,,,,,,,,,,,,,,,,,,,,,,,,,,,,,,,,,,,,,,,,,,,,,,,,,,,,,,,,,,,,,,,961241.000000000,1705320519.902671576,-16.520000458,-18.700000763,158.389999390,4.431000233,-0.360000014,0.542999983
1705320519.917388,2.000000000,1.000000000,-0.343429674,0.186151372,-0.392736390,24.563631860,-6.985649586,4.292239174,0.136916931,0.022274931,0.000000000,0.001152545,-0.677480459,-0.000496933,0.000000000,0.000000000,0.000000000,0.000000000,0.000000000,0.000000000,4.563631860,-1.985649586,0.000000000,0.059798203,0.000000000,0.000000000,0.000000000,-0.000465468,0.000020842,0.000000000,0.000000000,0.000000000,0.000000000,0.000000000,0.243563026,0.000000000,0.000000000,0.000000000,0.000000000,0.000000000,0.000000000,0.000000000,0.000000000,0.000000000,0.000000000,0.000000000,0.000000000,0.000000000,0.000000000,0.000000000,0.000000000,0.000000000,0.000000000,0.000000000,0.000000000,0.001199091,-0.677491199,-0.000499018,0.000000000,0.000000000,0.000000000,0.059701661,0.243642507,2.811045292,,,,,,,,
1705320519.919039,,,,,,,,,,,,,,,,,,,,,,,,,,,,,,,,,,,,,,,,,,,,,,,,,,,,,,,,,,,,,,,,,961242.000000000,1705320519.918933868,-16.409999847,-18.540000916,158.440002441,4.434999943,-0.361999989,0.541000009
1705320519.935331,,,,,,,,,,,,,,,,,,,,,,,,,,,,,,,,,,,,,,,,,,,,,,,,,,,,,,,,,,,,,,,,,961243.000000000,1705320519.935213089,-16.549999237,-18.729999542,158.330001831,4.429999828,-0.361000001,0.540000021
1705320519.947454,,,,,,,,,,,,,,,,,,,,,,,,,,,,,,,,,,,,,,,,,,,,,,,,,,,,,,,,,,,,,,,,,961244.000000000,1705320519.947410345,-16.649999619,-18.899999619,158.360000610,4.426000118,-0.356999993,0.528999984
1705320519.963729,,,,,,,,,,,,,,,,,,,,,,,,,,,,,,,,,,,,,,,,,,,,,,,,,,,,,,,,,,,,,,,,,961245.000000000,1705320519.963649750,-16.719999313,-18.860000610,158.360000610,4.425000191,-0.354999989,0.528999984
1705320519.980083,,,,,,,,,,,,,,,,,,,,,,,,,,,,,,,,,,,,,,,,,,,,,,,,,,,,,,,,,,,,,,,,,961246.000000000,1705320519.979942560,-16.790000916,-19.139999390,158.399993896,4.419000149,-0.356999993,0.523000002
1705320519.996362,,,,,,,,,,,,,,,,,,,,,,,,,,,,,,,,,,,,,,,,,,,,,,,,,,,,,,,,,,,,,,,,,961247.000000000,1705320519.996250153,-16.600000381,-18.790000916,158.360000610,4.434000015,-0.361999989,0.532000005
1705320520.012756,,,,,,,,,,,,,,,,,,,,,,,,,,,,,,,,,,,,,,,,,,,,,,,,,,,,,,,,,,,,,,,,,961248.000000000,1705320520.012566328,-16.760000229,-18.940000534,158.350006104,4.433000088,-0.360000014,0.528999984
1705320520.028885,,,,,,,,,,,,,,,,,,,,,,,,,,,,,,,,,,,,,,,,,,,,,,,,,,,,,,,,,,,,,,,,,961249.000000000,1705320520.028774261,-16.760000229,-19.090000153,158.350006104,4.421999931,-0.360000014,0.508000016
