__time,/plot_data/data.0,/plot_data/data.1,/plot_data/data.10,/plot_data/data.11,/plot_data/data.12,/plot_data/data.13,/plot_data/data.14,/plot_data/data.15,/plot_data/data.16,/plot_data/data.17,/plot_data/data.18,/plot_data/data.19,/plot_data/data.2,/plot_data/data.20,/plot_data/data.21,/plot_data/data.22,/plot_data/data.23,/plot_data/data.24,/plot_data/data.25,/plot_data/data.26,/plot_data/data.27,/plot_data/data.28,/plot_data/data.29,/plot_data/data.3,/plot_data/data.30,/plot_data/data.31,/plot_data/data.32,/plot_data/data.33,/plot_data/data.34,/plot_data/data.35,/plot_data/data.36,/plot_data/data.37,/plot_data/data.38,/plot_data/data.39,/plot_data/data.4,/plot_data/data.40,/plot_data/data.41,/plot_data/data.42,/plot_data/data.43,/plot_data/data.44,/plot_data/data.45,/plot_data/data.46,/plot_data/data.47,/plot_data/data.48,/plot_data/data.49,/plot_data/data.5,/plot_data/data.50,/plot_data/data.51,/plot_data/data.52,/plot_data/data.53,/plot_data/data.54,/plot_data/data.55,/plot_data/data.56,/plot_data/data.57,/plot_data/data.58,/plot_data/data.59,/plot_data/data.6,/plot_data/data.60,/plot_data/data.61,/plot_data/data.62,/plot_data/data.63,/plot_data/data.7,/plot_data/data.8,/plot_data/data.9,/robotiq_ft_wrench/header/seq,/robotiq_ft_wrench/header/stamp,/robotiq_ft_wrench/wrench/force/x,/robotiq_ft_wrench/wrench/force/y,/robotiq_ft_wrench/wrench/force/z,/robotiq_ft_wrench/wrench/torque/x,/robotiq_ft_wrench/wrench/torque/y,/robotiq_ft_wrench/wrench/torque/z
1705321580.541039,2.000000000,1.000000000,-0.343429045,0.186150899,-1.356156849,21.164421129,-5.349867604,5.203299264,0.114062885,-0.199782093,0.000000000,0.000292109,-0.677252829,-0.000086534,0.000000000,0.000000000,0.000000000,0.000000000,0.000000000,0.000000000,1.164421129,-0.349867604,0.000000000,0.059660688,0.000000000,0.000000000,0.000000000,-0.000040167,-0.000037309,0.000000000,0.000000000,0.000000000,0.000000000,0.000000000,0.242984533,0.000000000,0.000000000,0.000000000,0.000000000,0.000000000,0.000000000,0.000000000,0.000000000,0.000000000,0.000000000,0.000000000,0.000000000,0.000000000,0.000000000,0.000000000,0.000000000,0.000000000,0.000000000,0.000000000,0.000000000,0.000296126,-0.677254081,-0.000082803,0.000000000,0.000000000,0.000000000,0.059635195,0.243001167,2.811046053,,,,,,,,
1705321580.640738,2.000000000,1.000000000,-0.343429045,0.186150899,-1.378656839,21.159421014,-5.356868336,5.202349261,0.113712885,-0.205532092,0.000000000,0.000290306,-0.677252889,-0.000088681,0.000000000,0.000000000,0.000000000,0.000000000,0.000000000,0.000000000,1.159421014,-0.356868336,0.000000000,0.059659760,0.000000000,0.000000000,0.000000000,-0.000018034,-0.000021463,0.000000000,0.000000000,0.000000000,0.000000000,0.000000000,0.242985144,0.000000000,0.000000000,0.000000000,0.000000000,0.000000000,0.000000000,0.000000000,0.000000000,0.000000000,0.000000000,0.000000000,0.000000000,0.000000000,0.000000000,0.000000000,0.000000000,0.000000000,0.000000000,0.000000000,0.000000000,0.000292109,-0.677254233,-0.000086534,0.000000000,0.000000000,0.000000000,0.059634494,0.243001914,2.811046053,,,,,,,,
1705321580.741434,2.000000000,1.000000000,-0.343429045,0.186150899,-1.405656933,21.135920953,-5.358868763,5.201449255,0.113512885,-0.211082092,0.000000000,0.000285245,-0.677253008,-0.000089510,0.000000000,0.000000000,0.000000000,0.000000000,0.000000000,0.000000000,1.135920953,-0.358868763,0.000000000,0.059657428,0.000000000,0.000000000,0.000000000,-0.000050607,-0.000008294,0.000000000,0.000000000,0.000000000,0.000000000,0.000000000,0.242986649,0.000000000,0.000000000,0.000000000,0.000000000,0.000000000,0.000000000,0.000000000,0.000000000,0.000000000,0.000000000,0.000000000,0.000000000,0.000000000,0.000000000,0.000000000,0.000000000,0.000000000,0.000000000,0.000000000,0.000000000,0.000290306,-0.677254417,-0.000088681,0.000000000,0.000000000,0.000000000,0.059632665,0.243003339,2.811046053,,,,,,,,
1705321580.841483,2.000000000,1.000000000,-0.343429045,0.186150899,-1.436157011,21.113920927,-5.354869435,5.200099234,0.113162883,-0.218282090,0.000000000,0.000279833,-0.677253067,-0.000088876,0.000000000,0.000000000,0.000000000,0.000000000,0.000000000,0.000000000,1.113920927,-0.354869435,0.000000000,0.059655264,0.000000000,0.000000000,0.000000000,-0.000054121,0.000006340,0.000000000,0.000000000,0.000000000,0.000000000,0.000000000,0.242988065,0.000000000,0.000000000,0.000000000,0.000000000,0.000000000,0.000000000,0.000000000,0.000000000,0.000000000,0.000000000,0.000000000,0.000000000,0.000000000,0.000000000,0.000000000,0.000000000,0.000000000,0.000000000,0.000000000,0.000000000,0.000285245,-0.677254490,-0.000089510,0.000000000,0.000000000,0.000000000,0.059630998,0.243004532,2.811046053,,,,,,,,
1705321580.941030,2.000000000,1.000000000,-0.343429045,0.186150899,-1.474156975,21.088420820,-5.345368550,5.198149184,0.112762883,-0.227032089,0.000000000,0.000273651,-0.677253187,-0.000086849,0.000000000,0.000000000,0.000000000,0.000000000,0.000000000,0.000000000,1.088420820,-0.345368550,0.000000000,0.059653632,0.000000000,0.000000000,0.000000000,-0.000061824,0.000020270,0.000000000,0.000000000,0.000000000,0.000000000,0.000000000,0.242989168,0.000000000,0.000000000,0.000000000,0.000000000,0.000000000,0.000000000,0.000000000,0.000000000,0.000000000,0.000000000,0.000000000,0.000000000,0.000000000,0.000000000,0.000000000,0.000000000,0.000000000,0.000000000,0.000000000,0.000000000,0.000279833,-0.677254575,-0.000088876,0.000000000,0.000000000,0.000000000,0.059629900,0.243005266,2.811046053,,,,,,,,
1705321581.041223,2.000000000,1.000000000,-0.343429045,0.186150899,-1.518656992,21.030920934,-5.333869526,5.194999174,0.111562882,-0.239032090,0.000000000,0.000260914,-0.677253485,-0.000084144,0.000000000,0.000000000,0.000000000,0.000000000,0.000000000,0.000000000,1.030920934,-0.333869526,0.000000000,0.059648354,0.000000000,0.000000000,0.000000000,-0.000127365,0.000027052,0.000000000,0.000000000,0.000000000,0.000000000,0.000000000,0.242992744,0.000000000,0.000000000,0.000000000,0.000000000,0.000000000,0.000000000,0.000000000,0.000000000,0.000000000,0.000000000,0.000000000,0.000000000,0.000000000,0.000000000,0.000000000,0.000000000,0.000000000,0.000000000,0.000000000,0.000000000,0.000273651,-0.677254858,-0.000086849,0.000000000,0.000000000,0.000000000,0.059625761,0.243008212,2.811046053,,,,,,,,
1705321581.140958,2.000000000,1.000000000,-0.343429045,0.186150899,-1.544657015,21.005921125,-5.320869038,5.192799191,0.110412884,-0.249132089,0.000000000,0.000253367,-0.677253664,-0.000081003,0.000000000,0.000000000,0.000000000,0.000000000,0.000000000,0.000000000,1.005921125,-0.320869038,0.000000000,0.059645809,0.000000000,0.000000000,0.000000000,-0.000075473,0.000031411,0.000000000,0.000000000,0.000000000,0.000000000,0.000000000,0.242994472,0.000000000,0.000000000,0.000000000,0.000000000,0.000000000,0.000000000,0.000000000,0.000000000,0.000000000,0.000000000,0.000000000,0.000000000,0.000000000,0.000000000,0.000000000,0.000000000,0.000000000,0.000000000,0.000000000,0.000000000,0.000260914,-0.677254971,-0.000084144,0.000000000,0.000000000,0.000000000,0.059623852,0.243009430,2.811046053,,,,,,,,
1705321581.241277,2.000000000,1.000000000,-0.343429045,0.186150899,-1.578157019,20.956921148,-5.301868794,5.190049199,0.109162883,-0.261582090,0.000000000,0.000242058,-0.677254021,-0.000076574,0.000000000,0.000000000,0.000000000,0.000000000,0.000000000,0.000000000,0.956921148,-0.301868794,0.000000000,0.059639793,0.000000000,0.000000000,0.000000000,-0.000113094,0.000044283,0.000000000,0.000000000,0.000000000,0.000000000,0.000000000,0.242998555,0.000000000,0.000000000,0.000000000,0.000000000,0.000000000,0.000000000,0.000000000,0.000000000,0.000000000,0.000000000,0.000000000,0.000000000,0.000000000,0.000000000,0.000000000,0.000000000,0.000000000,0.000000000,0.000000000,0.000000000,0.000253367,-0.677255240,-0.000081003,0.000000000,0.000000000,0.000000000,0.059618794,0.243012773,2.811046053,,,,,,,,
1705321581.340996,2.000000000,1.000000000,-0.343429045,0.186150899,-1.601656937,20.912921094,-5.287368367,5.187349252,0.107962883,-0.273982090,0.000000000,0.000230996,-0.677254081,-0.000072789,0.000000000,0.000000000,0.000000000,0.000000000,0.000000000,0.000000000,0.912921094,-0.287368367,0.000000000,0.059638515,0.000000000,0.000000000,0.000000000,-0.000110619,0.000037857,0.000000000,0.000000000,0.000000000,0.000000000,0.000000000,0.242999434,0.000000000,0.000000000,0.000000000,0.000000000,0.000000000,0.000000000,0.000000000,0.000000000,0.000000000,0.000000000,0.000000000,0.000000000,0.000000000,0.000000000,0.000000000,0.000000000,0.000000000,0.000000000,0.000000000,0.000000000,0.000242058,-0.677255233,-0.000076574,0.000000000,0.000000000,0.000000000,0.059618469,0.243012977,2.811046053,,,,,,,,
1705321581.441164,2.000000000,1.000000000,-0.343429045,0.186150899,-1.667157005,20.836421060,-5.278368733,5.183999232,0.107662883,-0.289982091,0.000000000,0.000213483,-0.677254319,-0.000070231,0.000000000,0.000000000,0.000000000,0.000000000,0.000000000,0.000000000,0.836421060,-0.278368733,0.000000000,0.059634257,0.000000000,0.000000000,0.000000000,-0.000175124,0.000025571,0.000000000,0.000000000,0.000000000,0.000000000,0.000000000,0.243002325,0.000000000,0.000000000,0.000000000,0.000000000,0.000000000,0.000000000,0.000000000,0.000000000,0.000000000,0.000000000,0.000000000,0.000000000,0.000000000,0.000000000,0.000000000,0.000000000,0.000000000,0.000000000,0.000000000,0.000000000,0.000230996,-0.677255495,-0.000072789,0.000000000,0.000000000,0.000000000,0.059615808,0.243015105,2.811046053,,,,,,,,
1705321581.541289,2.000000000,1.000000000,-0.343429045,0.186150899,-1.710657047,20.744421053,-5.292368672,5.181249217,0.107762883,-0.303732092,0.000000000,0.000191581,-0.677254319,-0.000072520,0.000000000,0.000000000,0.000000000,0.000000000,0.000000000,0.000000000,0.744421053,-0.292368672,0.000000000,0.059634622,0.000000000,0.000000000,0.000000000,-0.000219025,-0.000022886,0.000000000,0.000000000,0.000000000,0.000000000,0.000000000,0.243002072,0.000000000,0.000000000,0.000000000,0.000000000,0.000000000,0.000000000,0.000000000,0.000000000,0.000000000,0.000000000,0.000000000,0.000000000,0.000000000,0.000000000,0.000000000,0.000000000,0.000000000,0.000000000,0.000000000,0.000000000,0.000213483,-0.677255728,-0.000070231,0.000000000,0.000000000,0.000000000,0.059618312,0.243014386,2.811046053,,,,,,,,
1705321581.641118,2.000000000,1.000000000,-0.343429045,0.186150899,-1.786157011,20.645921182,-5.321868489,5.178449182,0.108612882,-0.318532093,0.000000000,0.000167500,-0.677254558,-0.000078878,0.000000000,0.000000000,0.000000000,0.000000000,0.000000000,0.000000000,0.645921182,-0.321868489,0.000000000,0.059630565,0.000000000,0.000000000,0.000000000,-0.000240805,-0.000063577,0.000000000,0.000000000,0.000000000,0.000000000,0.000000000,0.243004829,0.000000000,0.000000000,0.000000000,0.000000000,0.000000000,0.000000000,0.000000000,0.000000000,0.000000000,0.000000000,0.000000000,0.000000000,0.000000000,0.000000000,0.000000000,0.000000000,0.000000000,0.000000000,0.000000000,0.000000000,0.000191581,-0.677256367,-0.000072520,0.000000000,0.000000000,0.000000000,0.059616708,0.243016973,2.811046053,,,,,,,,
1705321581.741004,2.000000000,1.000000000,-0.343429045,0.186150899,-1.843656944,20.544421148,-5.347867176,5.175899176,0.109112880,-0.333182092,0.000000000,0.000142384,-0.677254558,-0.000085349,0.000000000,0.000000000,0.000000000,0.000000000,0.000000000,0.000000000,0.544421148,-0.347867176,0.000000000,0.059630435,0.000000000,0.000000000,0.000000000,-0.000251161,-0.000064713,0.000000000,0.000000000,0.000000000,0.000000000,0.000000000,0.243004978,0.000000000,0.000000000,0.000000000,0.000000000,0.000000000,0.000000000,0.000000000,0.000000000,0.000000000,0.000000000,0.000000000,0.000000000,0.000000000,0.000000000,0.000000000,0.000000000,0.000000000,0.000000000,0.000000000,0.000000000,0.000167500,-0.677256778,-0.000078878,0.000000000,0.000000000,0.000000000,0.059619131,0.243016931,2.811046053,,,,,,,,
1705321581.841283,2.000000000,1.000000000,-0.343429045,0.186150899,-1.921656918,20.417921114,-5.402366993,5.172699169,0.110362879,-0.351332093,0.000000000,0.000112061,-0.677254796,-0.000097543,0.000000000,0.000000000,0.000000000,0.000000000,0.000000000,0.000000000,0.417921114,-0.402366993,0.000000000,0.059628371,0.000000000,0.000000000,0.000000000,-0.000303232,-0.000121942,0.000000000,0.000000000,0.000000000,0.000000000,0.000000000,0.243006587,0.000000000,0.000000000,0.000000000,0.000000000,0.000000000,0.000000000,0.000000000,0.000000000,0.000000000,0.000000000,0.000000000,0.000000000,0.000000000,0.000000000,0.000000000,0.000000000,0.000000000,0.000000000,0.000000000,0.000000000,0.000142384,-0.677257677,-0.000085349,0.000000000,0.000000000,0.000000000,0.059620264,0.243018699,2.811046053,,,,,,,,
1705321581.941273,2.000000000,1.000000000,-0.343429045,0.186150899,-1.972156929,20.319921064,-5.431365559,5.170349149,0.110512879,-0.365432092,0.000000000,0.000086396,-0.677255154,-0.000105782,0.000000000,0.000000000,0.000000000,0.000000000,0.000000000,0.000000000,0.319921064,-0.431365559,0.000000000,0.059625648,0.000000000,0.000000000,0.000000000,-0.000256647,-0.000082386,0.000000000,0.000000000,0.000000000,0.000000000,0.000000000,0.243009135,0.000000000,0.000000000,0.000000000,0.000000000,0.000000000,0.000000000,0.000000000,0.000000000,0.000000000,0.000000000,0.000000000,0.000000000,0.000000000,0.000000000,0.000000000,0.000000000,0.000000000,0.000000000,0.000000000,0.000000000,0.000112061,-0.677258515,-0.000097543,0.000000000,0.000000000,0.000000000,0.059620193,0.243021197,2.811046053,,,,,,,,
1705321582.041100,2.000000000,1.000000000,-0.343429045,0.186150899,-2.032157015,20.222921133,-5.462366841,5.167799167,0.111212879,-0.379132092,0.000000000,0.000061864,-0.677255332,-0.000113630,0.000000000,0.000000000,0.000000000,0.000000000,0.000000000,0.000000000,0.222921133,-0.462366841,0.000000000,0.059625551,0.000000000,0.000000000,0.000000000,-0.000245329,-0.000078480,0.000000000,0.000000000,0.000000000,0.000000000,0.000000000,0.243009627,0.000000000,0.000000000,0.000000000,0.000000000,0.000000000,0.000000000,0.000000000,0.000000000,0.000000000,0.000000000,0.000000000,0.000000000,0.000000000,0.000000000,0.000000000,0.000000000,0.000000000,0.000000000,0.000000000,0.000000000,0.000086396,-0.677259153,-0.000105782,0.000000000,0.000000000,0.000000000,0.059622630,0.243021638,2.811046053,,,,,,,,
1705321582.141246,2.000000000,1.000000000,-0.343429045,0.186150899,-2.087657045,20.108421278,-5.480868123,5.165099196,0.111562880,-0.391032092,0.000000000,0.000034057,-0.677255630,-0.000118900,0.000000000,0.000000000,0.000000000,0.000000000,0.000000000,0.000000000,0.108421278,-0.480868123,0.000000000,0.059624813,0.000000000,0.000000000,0.000000000,-0.000278066,-0.000052698,0.000000000,0.000000000,0.000000000,0.000000000,0.000000000,0.243010789,0.000000000,0.000000000,0.000000000,0.000000000,0.000000000,0.000000000,0.000000000,0.000000000,0.000000000,0.000000000,0.000000000,0.000000000,0.000000000,0.000000000,0.000000000,0.000000000,0.000000000,0.000000000,0.000000000,0.000000000,0.000061864,-0.677259836,-0.000113630,0.000000000,0.000000000,0.000000000,0.059624670,0.243022420,2.811046053,,,,,,,,
1705321582.240821,2.000000000,1.000000000,-0.343429045,0.186150899,-2.133156990,19.951921129,-5.494367573,5.161249188,0.111762882,-0.401982091,0.000000000,-0.000002804,-0.677256465,-0.000122653,0.000000000,0.000000000,0.000000000,0.000000000,0.000000000,0.000000000,-0.048078871,-0.494367573,0.000000000,0.059623633,0.000000000,0.000000000,0.000000000,-0.000368613,-0.000037539,0.000000000,0.000000000,0.000000000,0.000000000,0.000000000,0.243013725,0.000000000,0.000000000,0.000000000,0.000000000,0.000000000,0.000000000,0.000000000,0.000000000,0.000000000,0.000000000,0.000000000,0.000000000,0.000000000,0.000000000,0.000000000,0.000000000,0.000000000,0.000000000,0.000000000,0.000000000,0.000034057,-0.677261060,-0.000118900,0.000000000,0.000000000,0.000000000,0.059627088,0.243024563,2.811046053,,,,,,,,
1705321582.341391,2.000000000,1.000000000,-0.343429045,0.186150899,-2.169156956,19.789420938,-5.504366658,5.157649139,0.112062881,-0.411382091,0.000000000,-0.000042677,-0.677256584,-0.000125404,0.000000000,0.000000000,0.000000000,0.000000000,0.000000000,0.000000000,-0.210579062,-0.504366658,0.000000000,0.059624098,0.000000000,0.000000000,0.000000000,-0.000398723,-0.000027506,0.000000000,0.000000000,0.000000000,0.000000000,0.000000000,0.243013814,0.000000000,0.000000000,0.000000000,0.000000000,0.000000000,0.000000000,0.000000000,0.000000000,0.000000000,0.000000000,0.000000000,0.000000000,0.000000000,0.000000000,0.000000000,0.000000000,0.000000000,0.000000000,0.000000000,0.000000000,-0.000002804,-0.677261551,-0.000122653,0.000000000,0.000000000,0.000000000,0.059631412,0.243023679,2.811046053,,,,,,,,
1705321582.441251,2.000000000,1.000000000,-0.343429045,0.186150899,-2.227156805,19.647420930,-5.521365712,5.154349164,0.112712883,-0.422132091,0.000000000,-0.000079051,-0.677257299,-0.000129354,0.000000000,0.000000000,0.000000000,0.000000000,0.000000000,0.000000000,-0.352579070,-0.521365712,0.000000000,0.059624162,0.000000000,0.000000000,0.000000000,-0.000363745,-0.000039499,0.000000000,0.000000000,0.000000000,0.000000000,0.000000000,0.243015707,0.000000000,0.000000000,0.000000000,0.000000000,0.000000000,0.000000000,0.000000000,0.000000000,0.000000000,0.000000000,0.000000000,0.000000000,0.000000000,0.000000000,0.000000000,0.000000000,0.000000000,0.000000000,0.000000000,0.000000000,-0.000042677,-0.677262660,-0.000125404,0.000000000,0.000000000,0.000000000,0.059635033,0.243024811,2.811046053,,,,,,,,
1705321582.541226,2.000000000,1.000000000,-0.343429045,0.186150899,-2.295156883,19.499421072,-5.540865681,5.150649170,0.113212884,-0.436532093,0.000000000,-0.000115926,-0.677257955,-0.000134044,0.000000000,0.000000000,0.000000000,0.000000000,0.000000000,0.000000000,-0.500578928,-0.540865681,0.000000000,0.059625018,0.000000000,0.000000000,0.000000000,-0.000368749,-0.000046900,0.000000000,0.000000000,0.000000000,0.000000000,0.000000000,0.243017152,0.000000000,0.000000000,0.000000000,0.000000000,0.000000000,0.000000000,0.000000000,0.000000000,0.000000000,0.000000000,0.000000000,0.000000000,0.000000000,0.000000000,0.000000000,0.000000000,0.000000000,0.000000000,0.000000000,0.000000000,-0.000079051,-0.677263740,-0.000129354,0.000000000,0.000000000,0.000000000,0.059639514,0.243025548,2.811046053,,,,,,,,
1705321582.640898,2.000000000,1.000000000,-0.343429045,0.186150899,-2.614156937,19.316421270,-5.699866078,5.140599207,0.113662884,-0.525932092,0.000000000,-0.000159901,-0.677258432,-0.000166782,0.000000000,0.000000000,0.000000000,0.000000000,0.000000000,0.000000000,-0.683578730,-0.699866078,0.000000000,0.059626058,0.000000000,0.000000000,0.000000000,-0.000439749,-0.000327381,0.000000000,0.000000000,0.000000000,0.000000000,0.000000000,0.243017942,0.000000000,0.000000000,0.000000000,0.000000000,0.000000000,0.000000000,0.000000000,0.000000000,0.000000000,0.000000000,0.000000000,0.000000000,0.000000000,0.000000000,0.000000000,0.000000000,0.000000000,0.000000000,0.000000000,0.000000000,-0.000115926,-0.677265736,-0.000134044,0.000000000,0.000000000,0.000000000,0.059645581,0.243027909,2.811046053,,,,,,,,
1705321582.740870,2.000000000,1.000000000,-0.343429045,0.186150899,-3.009657215,19.175921201,-5.907866261,5.128849200,0.112862886,-0.645882092,0.000000000,-0.000196796,-0.677258909,-0.000214930,0.000000000,0.000000000,0.000000000,0.000000000,0.000000000,0.000000000,-0.824078799,-0.907866261,0.000000000,0.059627313,0.000000000,0.000000000,0.000000000,-0.000368950,-0.000481477,0.000000000,0.000000000,0.000000000,0.000000000,0.000000000,0.243018612,0.000000000,0.000000000,0.000000000,0.000000000,0.000000000,0.000000000,0.000000000,0.000000000,0.000000000,0.000000000,0.000000000,0.000000000,0.000000000,0.000000000,0.000000000,0.000000000,0.000000000,0.000000000,0.000000000,0.000000000,-0.000159901,-0.677268258,-0.000166782,0.000000000,0.000000000,0.000000000,0.059651592,0.243031740,2.811046053,,,,,,,,
1705321582.841142,2.000000000,1.000000000,-0.343429045,0.186150899,-3.379157280,19.041921186,-6.108367512,5.117749218,0.112212885,-0.758132092,0.000000000,-0.000230975,-0.677259386,-0.000264659,0.000000000,0.000000000,0.000000000,0.000000000,0.000000000,0.000000000,-0.958078814,-1.108367512,0.000000000,0.059628490,0.000000000,0.000000000,0.000000000,-0.000341790,-0.000497298,0.000000000,0.000000000,0.000000000,0.000000000,0.000000000,0.243019193,0.000000000,0.000000000,0.000000000,0.000000000,0.000000000,0.000000000,0.000000000,0.000000000,0.000000000,0.000000000,0.000000000,0.000000000,0.000000000,0.000000000,0.000000000,0.000000000,0.000000000,0.000000000,0.000000000,0.000000000,-0.000196796,-0.677270822,-0.000214930,0.000000000,0.000000000,0.000000000,0.059657309,0.243035706,2.811046053,,,,,,,,
1705321582.941239,2.000000000,1.000000000,-0.343429045,0.186150899,-3.611657261,18.950921201,-6.244867299,5.110399202,0.111312885,-0.828432094,0.000000000,-0.000256011,-0.677260876,-0.000301905,0.000000000,0.000000000,0.000000000,0.000000000,0.000000000,0.000000000,-1.049078799,-1.244867299,0.000000000,0.059632383,0.000000000,0.000000000,0.000000000,-0.000250358,-0.000372459,0.000000000,0.000000000,0.000000000,0.000000000,0.000000000,0.243021265,0.000000000,0.000000000,0.000000000,0.000000000,0.000000000,0.000000000,0.000000000,0.000000000,0.000000000,0.000000000,0.000000000,0.000000000,0.000000000,0.000000000,0.000000000,0.000000000,0.000000000,0.000000000,0.000000000,0.000000000,-0.000230975,-0.677273871,-0.000264659,0.000000000,0.000000000,0.000000000,0.059664548,0.243040329,2.811046053,,,,,,,,
1705321583.041239,2.000000000,1.000000000,-0.343429045,0.186150899,-3.603156971,18.856421232,-6.250867054,5.108499197,0.111012883,-0.826432094,0.000000000,-0.000279918,-0.677262485,-0.000310554,0.000000000,0.000000000,0.000000000,0.000000000,0.000000000,0.000000000,-1.143578768,-1.250867054,0.000000000,0.059636615,0.000000000,0.000000000,0.000000000,-0.000239072,-0.000086491,0.000000000,0.000000000,0.000000000,0.000000000,0.000000000,0.243023634,0.000000000,0.000000000,0.000000000,0.000000000,0.000000000,0.000000000,0.000000000,0.000000000,0.000000000,0.000000000,0.000000000,0.000000000,0.000000000,0.000000000,0.000000000,0.000000000,0.000000000,0.000000000,0.000000000,0.000000000,-0.000256011,-0.677275964,-0.000301905,0.000000000,0.000000000,0.000000000,0.059671275,0.243042738,2.811046053,,,,,,,,
1705321583.140574,2.000000000,1.000000000,-0.343429045,0.186150899,-3.613156723,18.808921194,-6.269366810,5.107599215,0.111162881,-0.826282093,0.000000000,-0.000294199,-0.677264988,-0.000315984,0.000000000,0.000000000,0.000000000,0.000000000,0.000000000,0.000000000,-1.191078806,-1.269366810,0.000000000,0.059642788,0.000000000,0.000000000,0.000000000,-0.000142814,-0.000054298,0.000000000,0.000000000,0.000000000,0.000000000,0.000000000,0.243027270,0.000000000,0.000000000,0.000000000,0.000000000,0.000000000,0.000000000,0.000000000,0.000000000,0.000000000,0.000000000,0.000000000,0.000000000,0.000000000,0.000000000,0.000000000,0.000000000,0.000000000,0.000000000,0.000000000,0.000000000,-0.000279918,-0.677278767,-0.000310554,0.000000000,0.000000000,0.000000000,0.059678945,0.243046421,2.811046053,,,,,,,,
1705321583.240919,2.000000000,1.000000000,-0.343429045,0.186150899,-3.636656784,18.791921186,-6.306366322,5.107249216,0.111712880,-0.827882092,0.000000000,-0.000300456,-0.677266657,-0.000324470,0.000000000,0.000000000,0.000000000,0.000000000,0.000000000,0.000000000,-1.208078814,-1.306366322,0.000000000,0.059646968,0.000000000,0.000000000,0.000000000,-0.000062563,-0.000084859,0.000000000,0.000000000,0.000000000,0.000000000,0.000000000,0.243029729,0.000000000,0.000000000,0.000000000,0.000000000,0.000000000,0.000000000,0.000000000,0.000000000,0.000000000,0.000000000,0.000000000,0.000000000,0.000000000,0.000000000,0.000000000,0.000000000,0.000000000,0.000000000,0.000000000,0.000000000,-0.000294199,-0.677280795,-0.000315984,0.000000000,0.000000000,0.000000000,0.059683940,0.243049445,2.811046053,,,,,,,,
1705321583.340876,2.000000000,1.000000000,-0.343429045,0.186150899,-3.642156815,18.777421140,-6.327367756,5.106599239,0.111912879,-0.829982092,0.000000000,-0.000304607,-0.677267194,-0.000330368,0.000000000,0.000000000,0.000000000,0.000000000,0.000000000,0.000000000,-1.222578860,-1.327367756,0.000000000,0.059648346,0.000000000,0.000000000,0.000000000,-0.000041513,-0.000058975,0.000000000,0.000000000,0.000000000,0.000000000,0.000000000,0.243030399,0.000000000,0.000000000,0.000000000,0.000000000,0.000000000,0.000000000,0.000000000,0.000000000,0.000000000,0.000000000,0.000000000,0.000000000,0.000000000,0.000000000,0.000000000,0.000000000,0.000000000,0.000000000,0.000000000,0.000000000,-0.000300456,-0.677281579,-0.000324470,0.000000000,0.000000000,0.000000000,0.059685866,0.243050514,2.811046053,,,,,,,,
1705321583.441186,2.000000000,1.000000000,-0.343429045,0.186150899,-3.663157104,18.749421072,-6.351367543,5.105599193,0.111912882,-0.834632093,0.000000000,-0.000311037,-0.677269876,-0.000336347,0.000000000,0.000000000,0.000000000,0.000000000,0.000000000,0.000000000,-1.250578928,-1.351367543,0.000000000,0.059655435,0.000000000,0.000000000,0.000000000,-0.000064303,-0.000059794,0.000000000,0.000000000,0.000000000,0.000000000,0.000000000,0.243034214,0.000000000,0.000000000,0.000000000,0.000000000,0.000000000,0.000000000,0.000000000,0.000000000,0.000000000,0.000000000,0.000000000,0.000000000,0.000000000,0.000000000,0.000000000,0.000000000,0.000000000,0.000000000,0.000000000,0.000000000,-0.000304607,-0.677284528,-0.000330368,0.000000000,0.000000000,0.000000000,0.059693721,0.243054664,2.811046053,,,,,,,,
1705321583.541191,2.000000000,1.000000000,-0.343429045,0.186150899,-3.676657127,18.719420957,-6.355868123,5.104699186,0.111762883,-0.838582091,0.000000000,-0.000318323,-0.677271545,-0.000338443,0.000000000,0.000000000,0.000000000,0.000000000,0.000000000,0.000000000,-1.280579043,-1.355868123,0.000000000,0.059659783,0.000000000,0.000000000,0.000000000,-0.000072861,-0.000020960,0.000000000,0.000000000,0.000000000,0.000000000,0.000000000,0.243036538,0.000000000,0.000000000,0.000000000,0.000000000,0.000000000,0.000000000,0.000000000,0.000000000,0.000000000,0.000000000,0.000000000,0.000000000,0.000000000,0.000000000,0.000000000,0.000000000,0.000000000,0.000000000,0.000000000,0.000000000,-0.000311037,-0.677286325,-0.000336347,0.000000000,0.000000000,0.000000000,0.059698815,0.243056953,2.811046053,,,,,,,,
1705321583.641158,2.000000000,1.000000000,-0.343429045,0.186150899,-3.694657062,18.706421041,-6.354367421,5.103899173,0.111212883,-0.840882091,0.000000000,-0.000322380,-0.677273512,-0.000338562,0.000000000,0.000000000,0.000000000,0.000000000,0.000000000,0.000000000,-1.293578959,-1.354367421,0.000000000,0.059664872,0.000000000,0.000000000,0.000000000,-0.000040572,-0.000001191,0.000000000,0.000000000,0.000000000,0.000000000,0.000000000,0.243039250,0.000000000,0.000000000,0.000000000,0.000000000,0.000000000,0.000000000,0.000000000,0.000000000,0.000000000,0.000000000,0.000000000,0.000000000,0.000000000,0.000000000,0.000000000,0.000000000,0.000000000,0.000000000,0.000000000,0.000000000,-0.000318323,-0.677288323,-0.000338443,0.000000000,0.000000000,0.000000000,0.059704293,0.243059552,2.811046053,,,,,,,,
1705321583.741235,2.000000000,1.000000000,-0.343429045,0.186150899,-3.693157028,18.673421049,-6.324367878,5.102799181,0.110712882,-0.839932095,0.000000000,-0.000329792,-0.677277327,-0.000332586,0.000000000,0.000000000,0.000000000,0.000000000,0.000000000,0.000000000,-1.326578951,-1.324367878,0.000000000,0.059674900,0.000000000,0.000000000,0.000000000,-0.000074114,0.000059761,0.000000000,0.000000000,0.000000000,0.000000000,0.000000000,0.243044496,0.000000000,0.000000000,0.000000000,0.000000000,0.000000000,0.000000000,0.000000000,0.000000000,0.000000000,0.000000000,0.000000000,0.000000000,0.000000000,0.000000000,0.000000000,0.000000000,0.000000000,0.000000000,0.000000000,0.000000000,-0.000322380,-0.677291965,-0.000338562,0.000000000,0.000000000,0.000000000,0.059714870,0.243064038,2.811046053,,,,,,,,
1705321583.841203,2.000000000,1.000000000,-0.343429045,0.186150899,-3.653156876,18.644421053,-6.286368916,5.101349191,0.109162881,-0.833082098,0.000000000,-0.000337074,-0.677278399,-0.000323791,0.000000000,0.000000000,0.000000000,0.000000000,0.000000000,0.000000000,-1.355578947,-1.286368916,0.000000000,0.059677821,0.000000000,0.000000000,0.000000000,-0.000072823,0.000087950,0.000000000,0.000000000,0.000000000,0.000000000,0.000000000,0.243046016,0.000000000,0.000000000,0.000000000,0.000000000,0.000000000,0.000000000,0.000000000,0.000000000,0.000000000,0.000000000,0.000000000,0.000000000,0.000000000,0.000000000,0.000000000,0.000000000,0.000000000,0.000000000,0.000000000,0.000000000,-0.000329792,-0.677292759,-0.000332586,0.000000000,0.000000000,0.000000000,0.059718253,0.243064552,2.811046053,,,,,,,,
1705321583.941182,2.000000000,1.000000000,-0.343429045,0.186150899,-3.606656956,18.602920866,-6.229368946,5.099599198,0.107412881,-0.821932096,0.000000000,-0.000346831,-0.677278817,-0.000310632,0.000000000,0.000000000,0.000000000,0.000000000,0.000000000,0.000000000,-1.397079134,-1.229368946,0.000000000,0.059678920,0.000000000,0.000000000,0.000000000,-0.000097565,0.000131590,0.000000000,0.000000000,0.000000000,0.000000000,0.000000000,0.243046552,0.000000000,0.000000000,0.000000000,0.000000000,0.000000000,0.000000000,0.000000000,0.000000000,0.000000000,0.000000000,0.000000000,0.000000000,0.000000000,0.000000000,0.000000000,0.000000000,0.000000000,0.000000000,0.000000000,0.000000000,-0.000337074,-0.677292752,-0.000323791,0.000000000,0.000000000,0.000000000,0.059719937,0.243063618,2.811046053,,,,,,,,
1705321584.041176,2.000000000,1.000000000,-0.343429045,0.186150899,-3.500656818,18.550920915,-6.123368428,5.097799210,0.104412883,-0.805032093,0.000000000,-0.000359182,-0.677281201,-0.000286800,0.000000000,0.000000000,0.000000000,0.000000000,0.000000000,0.000000000,-1.449079085,-1.123368428,0.000000000,0.059685454,0.000000000,0.000000000,0.000000000,-0.000123513,0.000238319,0.000000000,0.000000000,0.000000000,0.000000000,0.000000000,0.243049726,0.000000000,0.000000000,0.000000000,0.000000000,0.000000000,0.000000000,0.000000000,0.000000000,0.000000000,0.000000000,0.000000000,0.000000000,0.000000000,0.000000000,0.000000000,0.000000000,0.000000000,0.000000000,0.000000000,0.000000000,-0.000346831,-0.677294330,-0.000310632,0.000000000,0.000000000,0.000000000,0.059727024,0.243064292,2.811046053,,,,,,,,
1705321584.141111,2.000000000,1.000000000,-0.343429045,0.186150899,-3.142656969,18.300420999,-5.678367970,5.088199190,0.091512882,-0.756882090,0.000000000,-0.000411752,-0.677283347,-0.000193034,0.000000000,0.000000000,0.000000000,0.000000000,0.000000000,0.000000000,-1.699579001,-0.678367970,0.000000000,0.059691895,0.000000000,0.000000000,0.000000000,-0.000525702,0.000937665,0.000000000,0.000000000,0.000000000,0.000000000,0.000000000,0.243052304,0.000000000,0.000000000,0.000000000,0.000000000,0.000000000,0.000000000,0.000000000,0.000000000,0.000000000,0.000000000,0.000000000,0.000000000,0.000000000,0.000000000,0.000000000,0.000000000,0.000000000,0.000000000,0.000000000,0.000000000,-0.000359182,-0.677293334,-0.000286800,0.000000000,0.000000000,0.000000000,0.059736020,0.243056913,2.811046053,,,,,,,,
1705321584.241260,2.000000000,1.000000000,-0.343429045,0.186150899,-2.514156984,17.912920999,-4.968368123,5.074749164,0.071312881,-0.663882091,0.000000000,-0.000499766,-0.677283943,-0.000032280,0.000000000,0.000000000,0.000000000,0.000000000,0.000000000,0.000000000,-2.087079001,0.031631877,0.000000000,0.059693657,0.000000000,0.000000000,0.000000000,-0.000880140,0.001607533,0.000000000,0.000000000,0.000000000,0.000000000,0.000000000,0.243053019,0.000000000,0.000000000,0.000000000,0.000000000,0.000000000,0.000000000,0.000000000,0.000000000,0.000000000,0.000000000,0.000000000,0.000000000,0.000000000,0.000000000,0.000000000,0.000000000,0.000000000,0.000000000,0.000000000,0.000000000,-0.000411752,-0.677288528,-0.000193034,0.000000000,0.000000000,0.000000000,0.059741961,0.243040621,2.811046053,,,,,,,,
1705321584.341225,2.000000000,1.000000000,-0.343429045,0.186150899,-1.618657087,17.599421072,-4.243867848,5.071749119,0.055012884,-0.489082090,0.000000000,-0.000580069,-0.677284837,0.000144770,0.000000000,0.000000000,0.000000000,0.000000000,0.000000000,0.000000000,-2.400578928,0.756132152,0.000000000,0.059697207,0.000000000,0.000000000,0.000000000,-0.000803028,0.001770507,0.000000000,0.000000000,0.000000000,0.000000000,0.000000000,0.243053630,0.000000000,0.000000000,0.000000000,0.000000000,0.000000000,0.000000000,0.000000000,0.000000000,0.000000000,0.000000000,0.000000000,0.000000000,0.000000000,0.000000000,0.000000000,0.000000000,0.000000000,0.000000000,0.000000000,0.000000000,-0.000499766,-0.677283361,-0.000032280,0.000000000,0.000000000,0.000000000,0.059748535,0.243023009,2.811046053,,,,,,,,
1705321584.441275,2.000000000,1.000000000,-0.343429045,0.186150899,-0.928657030,17.476921224,-3.805868123,5.075349144,0.046912887,-0.339082093,0.000000000,-0.000620630,-0.677285910,0.000267780,0.000000000,0.000000000,0.000000000,0.000000000,0.000000000,0.000000000,-2.523078776,1.194131877,0.000000000,0.059704397,0.000000000,0.000000000,0.000000000,-0.000405605,0.001230101,0.000000000,0.000000000,0.000000000,0.000000000,0.000000000,0.243052930,0.000000000,0.000000000,0.000000000,0.000000000,0.000000000,0.000000000,0.000000000,0.000000000,0.000000000,0.000000000,0.000000000,0.000000000,0.000000000,0.000000000,0.000000000,0.000000000,0.000000000,0.000000000,0.000000000,0.000000000,-0.000580069,-0.677280119,0.000144770,0.000000000,0.000000000,0.000000000,0.059756379,0.243010113,2.811046053,,,,,,,,
1705321584.540758,2.000000000,1.000000000,-0.343429045,0.186150899,-0.483657001,17.525921201,-3.646368763,5.086799149,0.048612890,-0.217932093,0.000000000,-0.000618942,-0.677286088,0.000324282,0.000000000,0.000000000,0.000000000,0.000000000,0.000000000,0.000000000,-2.474078799,1.353631237,0.000000000,0.059711721,0.000000000,0.000000000,0.000000000,0.000016879,0.000565019,0.000000000,0.000000000,0.000000000,0.000000000,0.000000000,0.243049577,0.000000000,0.000000000,0.000000000,0.000000000,0.000000000,0.000000000,0.000000000,0.000000000,0.000000000,0.000000000,0.000000000,0.000000000,0.000000000,0.000000000,0.000000000,0.000000000,0.000000000,0.000000000,0.000000000,0.000000000,-0.000620630,-0.677278179,0.000267780,0.000000000,0.000000000,0.000000000,0.059762073,0.243001780,2.811046053,,,,,,,,
1705321584.640950,2.000000000,1.000000000,-0.343429045,0.186150899,-0.338156961,17.608921098,-3.595368550,5.091249208,0.048512889,-0.184632091,0.000000000,-0.000602004,-0.677285612,0.000345783,0.000000000,0.000000000,0.000000000,0.000000000,0.000000000,0.000000000,-2.391078902,1.404631450,0.000000000,0.059714641,0.000000000,0.000000000,0.000000000,0.000169376,0.000215004,0.000000000,0.000000000,0.000000000,0.000000000,0.000000000,0.243046761,0.000000000,0.000000000,0.000000000,0.000000000,0.000000000,0.000000000,0.000000000,0.000000000,0.000000000,0.000000000,0.000000000,0.000000000,0.000000000,0.000000000,0.000000000,0.000000000,0.000000000,0.000000000,0.000000000,0.000000000,-0.000618942,-0.677276785,0.000324282,0.000000000,0.000000000,0.000000000,0.059762826,0.242997566,2.811046053,,,,,,,,
1705321584.741276,2.000000000,1.000000000,-0.343429045,0.186150899,-0.326657032,17.718421030,-3.587369130,5.093949226,0.048812885,-0.180582091,0.000000000,-0.000576717,-0.677285016,0.000351683,0.000000000,0.000000000,0.000000000,0.000000000,0.000000000,0.000000000,-2.281578970,1.412630870,0.000000000,0.059719000,0.000000000,0.000000000,0.000000000,0.000252875,0.000059000,0.000000000,0.000000000,0.000000000,0.000000000,0.000000000,0.243042886,0.000000000,0.000000000,0.000000000,0.000000000,0.000000000,0.000000000,0.000000000,0.000000000,0.000000000,0.000000000,0.000000000,0.000000000,0.000000000,0.000000000,0.000000000,0.000000000,0.000000000,0.000000000,0.000000000,0.000000000,-0.000602004,-0.677275798,0.000345783,0.000000000,0.000000000,0.000000000,0.059764630,0.242993939,2.811046053,,,,,,,,
1705321584.841208,2.000000000,1.000000000,-0.343429045,0.186150899,-0.312657093,17.832421064,-3.562868855,5.096099214,0.048362883,-0.174632092,0.000000000,-0.000548859,-0.677283645,0.000357763,0.000000000,0.000000000,0.000000000,0.000000000,0.000000000,0.000000000,-2.167578936,1.437131145,0.000000000,0.059726682,0.000000000,0.000000000,0.000000000,0.000278575,0.000060800,0.000000000,0.000000000,0.000000000,0.000000000,0.000000000,0.243035167,0.000000000,0.000000000,0.000000000,0.000000000,0.000000000,0.000000000,0.000000000,0.000000000,0.000000000,0.000000000,0.000000000,0.000000000,0.000000000,0.000000000,0.000000000,0.000000000,0.000000000,0.000000000,0.000000000,0.000000000,-0.000576717,-0.677274012,0.000351683,0.000000000,0.000000000,0.000000000,0.059769507,0.242986530,2.811046053,,,,,,,,
1705321584.941298,2.000000000,1.000000000,-0.343429045,0.186150899,-0.288157104,17.971421194,-3.549868367,5.098799209,0.048162880,-0.168532093,0.000000000,-0.000515488,-0.677282155,0.000361579,0.000000000,0.000000000,0.000000000,0.000000000,0.000000000,0.000000000,-2.028578806,1.450131633,0.000000000,0.059734035,0.000000000,0.000000000,0.000000000,0.000333715,0.000038161,0.000000000,0.000000000,0.000000000,0.000000000,0.000000000,0.243027270,0.000000000,0.000000000,0.000000000,0.000000000,0.000000000,0.000000000,0.000000000,0.000000000,0.000000000,0.000000000,0.000000000,0.000000000,0.000000000,0.000000000,0.000000000,0.000000000,0.000000000,0.000000000,0.000000000,0.000000000,-0.000548859,-0.677272153,0.000357763,0.000000000,0.000000000,0.000000000,0.059773592,0.242979313,2.811046053,,,,,,,,
1705321585.041186,2.000000000,1.000000000,-0.343429045,0.186150899,-0.243656992,18.152921247,-3.531369374,5.102349190,0.047312880,-0.159032093,0.000000000,-0.000472513,-0.677280903,0.000366042,0.000000000,0.000000000,0.000000000,0.000000000,0.000000000,0.000000000,-1.847078753,1.468630626,0.000000000,0.059739675,0.000000000,0.000000000,0.000000000,0.000429743,0.000044630,0.000000000,0.000000000,0.000000000,0.000000000,0.000000000,0.243020937,0.000000000,0.000000000,0.000000000,0.000000000,0.000000000,0.000000000,0.000000000,0.000000000,0.000000000,0.000000000,0.000000000,0.000000000,0.000000000,0.000000000,0.000000000,0.000000000,0.000000000,0.000000000,0.000000000,0.000000000,-0.000515488,-0.677270445,0.000361579,0.000000000,0.000000000,0.000000000,0.059775035,0.242973896,2.811046053,,,,,,,,
1705321585.140928,2.000000000,1.000000000,-0.343429045,0.186150899,-0.181156992,18.336921262,-3.516868184,5.105599193,0.045762879,-0.150582092,0.000000000,-0.000427118,-0.677279294,0.000369835,0.000000000,0.000000000,0.000000000,0.000000000,0.000000000,0.000000000,-1.663078738,1.483131816,0.000000000,0.059746280,0.000000000,0.000000000,0.000000000,0.000453949,0.000037928,0.000000000,0.000000000,0.000000000,0.000000000,0.000000000,0.243013099,0.000000000,0.000000000,0.000000000,0.000000000,0.000000000,0.000000000,0.000000000,0.000000000,0.000000000,0.000000000,0.000000000,0.000000000,0.000000000,0.000000000,0.000000000,0.000000000,0.000000000,0.000000000,0.000000000,0.000000000,-0.000472513,-0.677268387,0.000366042,0.000000000,0.000000000,0.000000000,0.059777230,0.242967107,2.811046053,,,,,,,,
1705321585.241259,2.000000000,1.000000000,-0.343429045,0.186150899,-0.131156944,18.604421281,-3.504368184,5.110599188,0.044212875,-0.141382092,0.000000000,-0.000364539,-0.677277923,0.000373093,0.000000000,0.000000000,0.000000000,0.000000000,0.000000000,0.000000000,-1.395578719,1.495631816,0.000000000,0.059751298,0.000000000,0.000000000,0.000000000,0.000625790,0.000032586,0.000000000,0.000000000,0.000000000,0.000000000,0.000000000,0.243006721,0.000000000,0.000000000,0.000000000,0.000000000,0.000000000,0.000000000,0.000000000,0.000000000,0.000000000,0.000000000,0.000000000,0.000000000,0.000000000,0.000000000,0.000000000,0.000000000,0.000000000,0.000000000,0.000000000,0.000000000,-0.000427118,-0.677266471,0.000369835,0.000000000,0.000000000,0.000000000,0.059776220,0.242962352,2.811046053,,,,,,,,
1705321585.341186,2.000000000,1.000000000,-0.343429045,0.186150899,-0.078157019,18.938921213,-3.494368336,5.116849212,0.042612875,-0.133482091,0.000000000,-0.000285124,-0.677276850,0.000375745,0.000000000,0.000000000,0.000000000,0.000000000,0.000000000,0.000000000,-1.061078787,1.505631664,0.000000000,0.059754230,0.000000000,0.000000000,0.000000000,0.000794158,0.000026517,0.000000000,0.000000000,0.000000000,0.000000000,0.000000000,0.243002191,0.000000000,0.000000000,0.000000000,0.000000000,0.000000000,0.000000000,0.000000000,0.000000000,0.000000000,0.000000000,0.000000000,0.000000000,0.000000000,0.000000000,0.000000000,0.000000000,0.000000000,0.000000000,0.000000000,0.000000000,-0.000364539,-0.677264762,0.000373093,0.000000000,0.000000000,0.000000000,0.059771540,0.242960013,2.811046053,,,,,,,,
1705321585.441170,2.000000000,1.000000000,-0.343429045,0.186150899,-0.036657022,19.364921236,-3.482869313,5.124599175,0.041412879,-0.122332093,0.000000000,-0.000184040,-0.677275300,0.000378575,0.000000000,0.000000000,0.000000000,0.000000000,0.000000000,0.000000000,-0.635078764,1.517130687,0.000000000,0.059758052,0.000000000,0.000000000,0.000000000,0.001010832,0.000028301,0.000000000,0.000000000,0.000000000,0.000000000,0.000000000,0.242995918,0.000000000,0.000000000,0.000000000,0.000000000,0.000000000,0.000000000,0.000000000,0.000000000,0.000000000,0.000000000,0.000000000,0.000000000,0.000000000,0.000000000,0.000000000,0.000000000,0.000000000,0.000000000,0.000000000,0.000000000,-0.000285124,-0.677262422,0.000375745,0.000000000,0.000000000,0.000000000,0.059765688,0.242956576,2.811046053,,,,,,,,
1705321585.541197,2.000000000,1.000000000,-0.343429045,0.186150899,0.034343029,19.749421167,-3.468870137,5.131849197,0.039812881,-0.110532092,0.000000000,-0.000086924,-0.677274466,0.000381941,0.000000000,0.000000000,0.000000000,0.000000000,0.000000000,0.000000000,-0.250578833,1.531129863,0.000000000,0.059759289,0.000000000,0.000000000,0.000000000,0.000971166,0.000033659,0.000000000,0.000000000,0.000000000,0.000000000,0.000000000,0.242993146,0.000000000,0.000000000,0.000000000,0.000000000,0.000000000,0.000000000,0.000000000,0.000000000,0.000000000,0.000000000,0.000000000,0.000000000,0.000000000,0.000000000,0.000000000,0.000000000,0.000000000,0.000000000,0.000000000,0.000000000,-0.000184040,-0.677260805,0.000378575,0.000000000,0.000000000,0.000000000,0.059757614,0.242956473,2.811046053,,,,,,,,
1705321585.640894,2.000000000,1.000000000,-0.343429045,0.186150899,0.129343058,20.065421152,-3.418369648,5.137899212,0.037762887,-0.092232090,0.000000000,-0.000004301,-0.677272260,0.000392714,0.000000000,0.000000000,0.000000000,0.000000000,0.000000000,0.000000000,0.065421152,1.581630352,0.000000000,0.059761945,0.000000000,0.000000000,0.000000000,0.000826233,0.000107733,0.000000000,0.000000000,0.000000000,0.000000000,0.000000000,0.242985636,0.000000000,0.000000000,0.000000000,0.000000000,0.000000000,0.000000000,0.000000000,0.000000000,0.000000000,0.000000000,0.000000000,0.000000000,0.000000000,0.000000000,0.000000000,0.000000000,0.000000000,0.000000000,0.000000000,0.000000000,-0.000086924,-0.677257639,0.000381941,0.000000000,0.000000000,0.000000000,0.059752143,0.242950528,2.811046053,,,,,,,,
1705321585.740758,2.000000000,1.000000000,-0.343429045,0.186150899,0.278843094,20.354921197,-3.304370472,5.142699222,0.034162886,-0.065582089,0.000000000,0.000070124,-0.677271783,0.000417669,0.000000000,0.000000000,0.000000000,0.000000000,0.000000000,0.000000000,0.354921197,1.695629528,0.000000000,0.059760869,0.000000000,0.000000000,0.000000000,0.000744247,0.000249545,0.000000000,0.000000000,0.000000000,0.000000000,0.000000000,0.242984816,0.000000000,0.000000000,0.000000000,0.000000000,0.000000000,0.000000000,0.000000000,0.000000000,0.000000000,0.000000000,0.000000000,0.000000000,0.000000000,0.000000000,0.000000000,0.000000000,0.000000000,0.000000000,0.000000000,0.000000000,-0.000004301,-0.677255727,0.000392714,0.000000000,0.000000000,0.000000000,0.059743349,0.242949761,2.811046053,,,,,,,,
1705321585.840957,2.000000000,1.000000000,-0.343429045,0.186150899,0.516843010,20.618921232,-3.164868519,5.148599247,0.031012884,-0.017332089,0.000000000,0.000137809,-0.677269518,0.000450560,0.000000000,0.000000000,0.000000000,0.000000000,0.000000000,0.000000000,0.618921232,1.835131481,0.000000000,0.059760466,0.000000000,0.000000000,0.000000000,0.000676849,0.000328913,0.000000000,0.000000000,0.000000000,0.000000000,0.000000000,0.242978945,0.000000000,0.000000000,0.000000000,0.000000000,0.000000000,0.000000000,0.000000000,0.000000000,0.000000000,0.000000000,0.000000000,0.000000000,0.000000000,0.000000000,0.000000000,0.000000000,0.000000000,0.000000000,0.000000000,0.000000000,0.000070124,-0.677251778,0.000417669,0.000000000,0.000000000,0.000000000,0.059735663,0.242943029,2.811046053,,,,,,,,
1705321585.941300,2.000000000,1.000000000,-0.343429045,0.186150899,0.716342999,20.914921236,-3.259367726,5.146949200,0.037162886,0.050867911,0.000000000,0.000210546,-0.677266896,0.000438238,0.000000000,0.000000000,0.000000000,0.000000000,0.000000000,0.000000000,0.914921236,1.740632274,0.000000000,0.059757929,0.000000000,0.000000000,0.000000000,0.000727370,-0.000123216,0.000000000,0.000000000,0.000000000,0.000000000,0.000000000,0.242972940,0.000000000,0.000000000,0.000000000,0.000000000,0.000000000,0.000000000,0.000000000,0.000000000,0.000000000,0.000000000,0.000000000,0.000000000,0.000000000,0.000000000,0.000000000,0.000000000,0.000000000,0.000000000,0.000000000,0.000000000,0.000137809,-0.677249122,0.000450560,0.000000000,0.000000000,0.000000000,0.059726538,0.242940344,2.811046053,,,,,,,,
1705321586.041248,2.000000000,1.000000000,-0.343429045,0.186150899,0.736843086,21.270421171,-3.713866017,5.135799197,0.056862885,0.119167903,0.000000000,0.000296193,-0.677266002,0.000344874,0.000000000,0.000000000,0.000000000,0.000000000,0.000000000,0.000000000,1.270421171,1.286133983,0.000000000,0.059756078,0.000000000,0.000000000,0.000000000,0.000856474,-0.000933640,0.000000000,0.000000000,0.000000000,0.000000000,0.000000000,0.242971495,0.000000000,0.000000000,0.000000000,0.000000000,0.000000000,0.000000000,0.000000000,0.000000000,0.000000000,0.000000000,0.000000000,0.000000000,0.000000000,0.000000000,0.000000000,0.000000000,0.000000000,0.000000000,0.000000000,0.000000000,0.000210546,-0.677251132,0.000438238,0.000000000,0.000000000,0.000000000,0.059718980,0.242949831,2.811046053,,,,,,,,
1705321586.141202,2.000000000,1.000000000,-0.343429045,0.186150899,0.535843111,21.723921251,-4.526366780,5.111549214,0.090362883,0.181267908,0.000000000,0.000404023,-0.677264035,0.000163702,0.000000000,0.000000000,0.000000000,0.000000000,0.000000000,0.000000000,1.723921251,0.473633220,0.000000000,0.059752591,0.000000000,0.000000000,0.000000000,0.001078295,-0.001811729,0.000000000,0.000000000,0.000000000,0.000000000,0.000000000,0.242967784,0.000000000,0.000000000,0.000000000,0.000000000,0.000000000,0.000000000,0.000000000,0.000000000,0.000000000,0.000000000,0.000000000,0.000000000,0.000000000,0.000000000,0.000000000,0.000000000,0.000000000,0.000000000,0.000000000,0.000000000,0.000296193,-0.677255194,0.000344874,0.000000000,0.000000000,0.000000000,0.059709962,0.242965552,2.811046053,,,,,,,,
1705321586.241312,2.000000000,1.000000000,-0.343429045,0.186150899,0.100843121,22.284921312,-5.588868306,5.078049187,0.133862884,0.222217908,0.000000000,0.000537789,-0.677260816,-0.000085033,0.000000000,0.000000000,0.000000000,0.000000000,0.000000000,0.000000000,2.284921312,-0.588868306,0.000000000,0.059746884,0.000000000,0.000000000,0.000000000,0.001337659,-0.002487349,0.000000000,0.000000000,0.000000000,0.000000000,0.000000000,0.242962003,0.000000000,0.000000000,0.000000000,0.000000000,0.000000000,0.000000000,0.000000000,0.000000000,0.000000000,0.000000000,0.000000000,0.000000000,0.000000000,0.000000000,0.000000000,0.000000000,0.000000000,0.000000000,0.000000000,0.000000000,0.000404023,-0.677260350,0.000163702,0.000000000,0.000000000,0.000000000,0.059698018,0.242986011,2.811046053,,,,,,,,
1705321586.341429,2.000000000,1.000000000,-0.343429045,0.186150899,-0.266656898,22.727421236,-6.350868580,5.054149202,0.165512883,0.248217916,0.000000000,0.000653042,-0.677260101,-0.000287180,0.000000000,0.000000000,0.000000000,0.000000000,0.000000000,0.000000000,2.727421236,-1.350868580,0.000000000,0.059742823,0.000000000,0.000000000,0.000000000,0.001152532,-0.002021470,0.000000000,0.000000000,0.000000000,0.000000000,0.000000000,0.242962033,0.000000000,0.000000000,0.000000000,0.000000000,0.000000000,0.000000000,0.000000000,0.000000000,0.000000000,0.000000000,0.000000000,0.000000000,0.000000000,0.000000000,0.000000000,0.000000000,0.000000000,0.000000000,0.000000000,0.000000000,0.000537789,-0.677266396,-0.000085033,0.000000000,0.000000000,0.000000000,0.059688267,0.243007567,2.811046053,,,,,,,,
1705321586.441155,2.000000000,1.000000000,-0.343429045,0.186150899,-0.507156967,23.064421129,-6.832869313,5.038499192,0.186162884,0.268267912,0.000000000,0.000743493,-0.677259147,-0.000424010,0.000000000,0.000000000,0.000000000,0.000000000,0.000000000,0.000000000,3.064421129,-1.832869313,0.000000000,0.059734985,0.000000000,0.000000000,0.000000000,0.000904506,-0.001368296,0.000000000,0.000000000,0.000000000,0.000000000,0.000000000,0.242963478,0.000000000,0.000000000,0.000000000,0.000000000,0.000000000,0.000000000,0.000000000,0.000000000,0.000000000,0.000000000,0.000000000,0.000000000,0.000000000,0.000000000,0.000000000,0.000000000,0.000000000,0.000000000,0.000000000,0.000000000,0.000653042,-0.677269935,-0.000287180,0.000000000,0.000000000,0.000000000,0.059675397,0.243023963,2.811046053,,,,,,,,
1705321586.541089,2.000000000,1.000000000,-0.343429045,0.186150899,-0.636656927,23.274920988,-7.095369313,5.030399183,0.197412885,0.281417906,0.000000000,0.000803683,-0.677259922,-0.000503876,0.000000000,0.000000000,0.000000000,0.000000000,0.000000000,0.000000000,3.274920988,-2.095369313,0.000000000,0.059729774,0.000000000,0.000000000,0.000000000,0.000601901,-0.000798659,0.000000000,0.000000000,0.000000000,0.000000000,0.000000000,0.242968425,0.000000000,0.000000000,0.000000000,0.000000000,0.000000000,0.000000000,0.000000000,0.000000000,0.000000000,0.000000000,0.000000000,0.000000000,0.000000000,0.000000000,0.000000000,0.000000000,0.000000000,0.000000000,0.000000000,0.000000000,0.000743493,-0.677273282,-0.000424010,0.000000000,0.000000000,0.000000000,0.059666545,0.243037863,2.811046053,,,,,,,,
1705321586.640876,2.000000000,1.000000000,-0.343429045,0.186150899,-0.696656918,23.356421136,-7.211369679,5.025199155,0.202862885,0.286467904,0.000000000,0.000832021,-0.677261412,-0.000543049,0.000000000,0.000000000,0.000000000,0.000000000,0.000000000,0.000000000,3.356421136,-2.211369679,0.000000000,0.059720922,0.000000000,0.000000000,0.000000000,0.000283380,-0.000391733,0.000000000,0.000000000,0.000000000,0.000000000,0.000000000,0.242976919,0.000000000,0.000000000,0.000000000,0.000000000,0.000000000,0.000000000,0.000000000,0.000000000,0.000000000,0.000000000,0.000000000,0.000000000,0.000000000,0.000000000,0.000000000,0.000000000,0.000000000,0.000000000,0.000000000,0.000000000,0.000803683,-0.677276041,-0.000503876,0.000000000,0.000000000,0.000000000,0.059656021,0.243050712,2.811046053,,,,,,,,
1705321586.741328,2.000000000,1.000000000,-0.343429045,0.186150899,-0.683156895,23.322421217,-7.217368672,5.023949126,0.202512885,0.282217908,0.000000000,0.000830888,-0.677263677,-0.000552084,0.000000000,0.000000000,0.000000000,0.000000000,0.000000000,0.000000000,3.322421217,-2.217368672,0.000000000,0.059709307,0.000000000,0.000000000,0.000000000,-0.000011324,-0.000090344,0.000000000,0.000000000,0.000000000,0.000000000,0.000000000,0.242989257,0.000000000,0.000000000,0.000000000,0.000000000,0.000000000,0.000000000,0.000000000,0.000000000,0.000000000,0.000000000,0.000000000,0.000000000,0.000000000,0.000000000,0.000000000,0.000000000,0.000000000,0.000000000,0.000000000,0.000000000,0.000832021,-0.677278651,-0.000543049,0.000000000,0.000000000,0.000000000,0.059644748,0.243063820,2.811046053,,,,,,,,
1705321586.841245,2.000000000,1.000000000,-0.343429045,0.186150899,-0.658156942,23.259921217,-7.172867939,5.024349145,0.200512884,0.273767906,0.000000000,0.000818162,-0.677264392,-0.000544990,0.000000000,0.000000000,0.000000000,0.000000000,0.000000000,0.000000000,3.259921217,-2.172867939,0.000000000,0.059706371,0.000000000,0.000000000,0.000000000,-0.000127265,0.000070933,0.000000000,0.000000000,0.000000000,0.000000000,0.000000000,0.242992789,0.000000000,0.000000000,0.000000000,0.000000000,0.000000000,0.000000000,0.000000000,0.000000000,0.000000000,0.000000000,0.000000000,0.000000000,0.000000000,0.000000000,0.000000000,0.000000000,0.000000000,0.000000000,0.000000000,0.000000000,0.000830888,-0.677279188,-0.000552084,0.000000000,0.000000000,0.000000000,0.059642836,0.243066331,2.811046053,,,,,,,,
1705321586.941220,2.000000000,1.000000000,-0.343429045,0.186150899,-0.622156977,23.150921011,-7.113367817,5.024999169,0.196312883,0.259217909,0.000000000,0.000793817,-0.677267671,-0.000531672,0.000000000,0.000000000,0.000000000,0.000000000,0.000000000,0.000000000,3.150921011,-2.113367817,0.000000000,0.059692137,0.000000000,0.000000000,0.000000000,-0.000243453,0.000133187,0.000000000,0.000000000,0.000000000,0.000000000,0.000000000,0.243009076,0.000000000,0.000000000,0.000000000,0.000000000,0.000000000,0.000000000,0.000000000,0.000000000,0.000000000,0.000000000,0.000000000,0.000000000,0.000000000,0.000000000,0.000000000,0.000000000,0.000000000,0.000000000,0.000000000,0.000000000,0.000818162,-0.677282134,-0.000544990,0.000000000,0.000000000,0.000000000,0.059630568,0.243080688,2.811046053,,,,,,,,
1705321587.041103,2.000000000,1.000000000,-0.343429045,0.186150899,-0.600156998,23.037920904,-6.967866871,5.028599218,0.189812883,0.236767909,0.000000000,0.000766347,-0.677267671,-0.000499908,0.000000000,0.000000000,0.000000000,0.000000000,0.000000000,0.000000000,3.037920904,-1.967866871,0.000000000,0.059692167,0.000000000,0.000000000,0.000000000,-0.000274691,0.000317639,0.000000000,0.000000000,0.000000000,0.000000000,0.000000000,0.243009105,0.000000000,0.000000000,0.000000000,0.000000000,0.000000000,0.000000000,0.000000000,0.000000000,0.000000000,0.000000000,0.000000000,0.000000000,0.000000000,0.000000000,0.000000000,0.000000000,0.000000000,0.000000000,0.000000000,0.000000000,0.000793817,-0.677281135,-0.000531672,0.000000000,0.000000000,0.000000000,0.059632381,0.243077049,2.811046053,,,,,,,,
1705321587.141000,2.000000000,1.000000000,-0.343429045,0.186150899,-0.581657051,22.943920946,-6.776867268,5.034849242,0.180762885,0.211067912,0.000000000,0.000742054,-0.677269459,-0.000455355,0.000000000,0.000000000,0.000000000,0.000000000,0.000000000,0.000000000,2.943920946,-1.776867268,0.000000000,0.059684508,0.000000000,0.000000000,0.000000000,-0.000242938,0.000445527,0.000000000,0.000000000,0.000000000,0.000000000,0.000000000,0.243017957,0.000000000,0.000000000,0.000000000,0.000000000,0.000000000,0.000000000,0.000000000,0.000000000,0.000000000,0.000000000,0.000000000,0.000000000,0.000000000,0.000000000,0.000000000,0.000000000,0.000000000,0.000000000,0.000000000,0.000000000,0.000766347,-0.677281425,-0.000499908,0.000000000,0.000000000,0.000000000,0.059625871,0.243081190,2.811046053,,,,,,,,
1705321587.241195,2.000000000,1.000000000,-0.343429045,0.186150899,-0.532157062,22.820421075,-6.483867237,5.044299249,0.167462883,0.182667911,0.000000000,0.000712495,-0.677271426,-0.000387844,0.000000000,0.000000000,0.000000000,0.000000000,0.000000000,0.000000000,2.820421075,-1.483867237,0.000000000,0.059675861,0.000000000,0.000000000,0.000000000,-0.000295587,0.000675105,0.000000000,0.000000000,0.000000000,0.000000000,0.000000000,0.243027776,0.000000000,0.000000000,0.000000000,0.000000000,0.000000000,0.000000000,0.000000000,0.000000000,0.000000000,0.000000000,0.000000000,0.000000000,0.000000000,0.000000000,0.000000000,0.000000000,0.000000000,0.000000000,0.000000000,0.000000000,0.000742054,-0.677281074,-0.000455355,0.000000000,0.000000000,0.000000000,0.059618276,0.243084094,2.811046053,,,,,,,,
1705321587.341222,2.000000000,1.000000000,-0.343429045,0.186150899,-0.449157070,22.670921182,-6.124866841,5.056149200,0.151062884,0.150467914,0.000000000,0.000676683,-0.677273393,-0.000302542,0.000000000,0.000000000,0.000000000,0.000000000,0.000000000,0.000000000,2.670921182,-1.124866841,0.000000000,0.059666835,0.000000000,0.000000000,0.000000000,-0.000358117,0.000853022,0.000000000,0.000000000,0.000000000,0.000000000,0.000000000,0.243037835,0.000000000,0.000000000,0.000000000,0.000000000,0.000000000,0.000000000,0.000000000,0.000000000,0.000000000,0.000000000,0.000000000,0.000000000,0.000000000,0.000000000,0.000000000,0.000000000,0.000000000,0.000000000,0.000000000,0.000000000,0.000712495,-0.677280101,-0.000387844,0.000000000,0.000000000,0.000000000,0.059610433,0.243085460,2.811046053,,,,,,,,
1705321587.441237,2.000000000,1.000000000,-0.343429045,0.186150899,-0.283156990,22.391920995,-5.538367817,5.074599175,0.125912883,0.111817908,0.000000000,0.000613721,-0.677274704,-0.000168182,0.000000000,0.000000000,0.000000000,0.000000000,0.000000000,0.000000000,2.391920995,-0.538367817,0.000000000,0.059659578,0.000000000,0.000000000,0.000000000,-0.000629624,0.001343602,0.000000000,0.000000000,0.000000000,0.000000000,0.000000000,0.243045211,0.000000000,0.000000000,0.000000000,0.000000000,0.000000000,0.000000000,0.000000000,0.000000000,0.000000000,0.000000000,0.000000000,0.000000000,0.000000000,0.000000000,0.000000000,0.000000000,0.000000000,0.000000000,0.000000000,0.000000000,0.000676683,-0.677276826,-0.000302542,0.000000000,0.000000000,0.000000000,0.059605663,0.243078945,2.811046053,,,,,,,,
1705321587.541326,2.000000000,1.000000000,-0.343429045,0.186150899,-0.086656927,22.087420988,-4.907367299,5.092999176,0.099962883,0.075117910,0.000000000,0.000540228,-0.677275181,-0.000015110,0.000000000,0.000000000,0.000000000,0.000000000,0.000000000,0.000000000,2.087420988,0.092632701,0.000000000,0.059655145,0.000000000,0.000000000,0.000000000,-0.000734925,0.001530722,0.000000000,0.000000000,0.000000000,0.000000000,0.000000000,0.243048906,0.000000000,0.000000000,0.000000000,0.000000000,0.000000000,0.000000000,0.000000000,0.000000000,0.000000000,0.000000000,0.000000000,0.000000000,0.000000000,0.000000000,0.000000000,0.000000000,0.000000000,0.000000000,0.000000000,0.000000000,0.000613721,-0.677272089,-0.000168182,0.000000000,0.000000000,0.000000000,0.059604229,0.243066762,2.811046053,,,,,,,,
1705321587.641081,2.000000000,1.000000000,-0.343429045,0.186150899,0.123343063,21.751421022,-4.205368397,5.113349203,0.071862882,0.037717906,0.000000000,0.000458330,-0.677275658,0.000155904,0.000000000,0.000000000,0.000000000,0.000000000,0.000000000,0.000000000,1.751421022,0.794631603,0.000000000,0.059647184,0.000000000,0.000000000,0.000000000,-0.000818985,0.001710142,0.000000000,0.000000000,0.000000000,0.000000000,0.000000000,0.243054286,0.000000000,0.000000000,0.000000000,0.000000000,0.000000000,0.000000000,0.000000000,0.000000000,0.000000000,0.000000000,0.000000000,0.000000000,0.000000000,0.000000000,0.000000000,0.000000000,0.000000000,0.000000000,0.000000000,0.000000000,0.000540228,-0.677266740,-0.000015110,0.000000000,0.000000000,0.000000000,0.059599600,0.243054407,2.811046053,,,,,,,,
