__time,/plot_data/data.0,/plot_data/data.1,/plot_data/data.10,/plot_data/data.11,/plot_data/data.12,/plot_data/data.13,/plot_data/data.14,/plot_data/data.15,/plot_data/data.16,/plot_data/data.17,/plot_data/data.18,/plot_data/data.19,/plot_data/data.2,/plot_data/data.20,/plot_data/data.21,/plot_data/data.22,/plot_data/data.23,/plot_data/data.24,/plot_data/data.25,/plot_data/data.26,/plot_data/data.27,/plot_data/data.28,/plot_data/data.29,/plot_data/data.3,/plot_data/data.30,/plot_data/data.31,/plot_data/data.32,/plot_data/data.33,/plot_data/data.34,/plot_data/data.35,/plot_data/data.36,/plot_data/data.37,/plot_data/data.38,/plot_data/data.39,/plot_data/data.4,/plot_data/data.40,/plot_data/data.41,/plot_data/data.42,/plot_data/data.43,/plot_data/data.44,/plot_data/data.45,/plot_data/data.46,/plot_data/data.47,/plot_data/data.48,/plot_data/data.49,/plot_data/data.5,/plot_data/data.50,/plot_data/data.51,/plot_data/data.52,/plot_data/data.53,/plot_data/data.54,/plot_data/data.55,/plot_data/data.56,/plot_data/data.57,/plot_data/data.58,/plot_data/data.59,/plot_data/data.6,/plot_data/data.60,/plot_data/data.61,/plot_data/data.62,/plot_data/data.63,/plot_data/data.7,/plot_data/data.8,/plot_data/data.9,/robotiq_ft_wrench/header/seq,/robotiq_ft_wrench/header/stamp,/robotiq_ft_wrench/wrench/force/x,/robotiq_ft_wrench/wrench/force/y,/robotiq_ft_wrench/wrench/force/z,/robotiq_ft_wrench/wrench/torque/x,/robotiq_ft_wrench/wrench/torque/y,/robotiq_ft_wrench/wrench/torque/z
1701093015.663065,,,,,,,,,,,,,,,,,,,,,,,,,,,,,,,,,,,,,,,,,,,,,,,,,,,,,,,,,,,,,,,,,144489.000000000,1701093015.662781239,-3.309999943,17.260000229,95.720001221,0.479000002,-0.409000009,-0.312999994
1701093015.675276,,,,,,,,,,,,,,,,,,,,,,,,,,,,,,,,,,,,,,,,,,,,,,,,,,,,,,,,,,,,,,,,,144490.000000000,1701093015.674977779,-3.250000000,17.290000916,95.730003357,0.476000011,-0.414000005,-0.312999994
1701093015.691531,,,,,,,,,,,,,,,,,,,,,,,,,,,,,,,,,,,,,,,,,,,,,,,,,,,,,,,,,,,,,,,,,144491.000000000,1701093015.691236019,-3.210000038,17.209999084,95.639999390,0.470999986,-0.412000000,-0.312000006
1701093015.707749,,,,,,,,,,,,,,,,,,,,,,,,,,,,,,,,,,,,,,,,,,,,,,,,,,,,,,,,,,,,,,,,,144492.000000000,1701093015.707489491,-3.200000048,17.219999313,95.629997253,0.474999994,-0.414000005,-0.312999994
1701093015.723990,,,,,,,,,,,,,,,,,,,,,,,,,,,,,,,,,,,,,,,,,,,,,,,,,,,,,,,,,,,,,,,,,144493.000000000,1701093015.723752260,-3.289999962,17.239999771,95.699996948,0.479999989,-0.409999996,-0.312999994
1701093015.740337,,,,,,,,,,,,,,,,,,,,,,,,,,,,,,,,,,,,,,,,,,,,,,,,,,,,,,,,,,,,,,,,,144494.000000000,1701093015.740014076,-3.200000048,17.219999313,95.690002441,0.472999990,-0.414000005,-0.312000006
1701093015.756405,,,,,,,,,,,,,,,,,,,,,,,,,,,,,,,,,,,,,,,,,,,,,,,,,,,,,,,,,,,,,,,,,144495.000000000,1701093015.756257534,-3.200000048,17.190000534,95.690002441,0.472000003,-0.412999988,-0.310999990
1701093015.772646,,,,,,,,,,,,,,,,,,,,,,,,,,,,,,,,,,,,,,,,,,,,,,,,,,,,,,,,,,,,,,,,,144496.000000000,1701093015.772458792,-3.240000010,17.250000000,95.709999084,0.479999989,-0.411000013,-0.308999985
1701093015.788988,,,,,,,,,,,,,,,,,,,,,,,,,,,,,,,,,,,,,,,,,,,,,,,,,,,,,,,,,,,,,,,,,144497.000000000,1701093015.788714647,-3.319999933,17.340000153,95.709999084,0.483000010,-0.409000009,-0.310999990
1701093015.797681,-0.699445069,0.007527950,-0.018821364,0.002363428,-1.315375522,2.689228215,-7.089390139,0.022666218,0.001473271,-0.223519259,0.000373692,-0.000346215,0.165945441,0.000658212,-0.000835317,-0.001398400,-0.000149013,1.000000000,1.000000000,-2.718966850,0.047511415,0.302630950,18.684624478,3.128861666,-17.310771785,32.910609861,-0.626487724,-0.699200146,-0.223519259,0.000000000,0.000000000,0.000000000,0.000000000,0.000000000,-0.015864268,0.000000000,0.000000000,0.000000000,0.000000000,0.000000000,0.000000000,0.000000000,0.000000000,0.000000000,0.000000000,0.787732840,0.000000000,0.000000000,0.000000000,0.000000000,0.000000000,0.000000000,0.000000000,0.000000000,0.000000000,32764.000000000,-0.698910801,-524315568.000000000,32764.000000000,0.000000000,0.000000000,0.007965455,0.165298742,-3.140214121,,,,,,,,
1701093015.805269,,,,,,,,,,,,,,,,,,,,,,,,,,,,,,,,,,,,,,,,,,,,,,,,,,,,,,,,,,,,,,,,,144498.000000000,1701093015.804992676,-3.339999914,17.319999695,95.709999084,0.476000011,-0.409000009,-0.312000006
1701093015.821357,,,,,,,,,,,,,,,,,,,,,,,,,,,,,,,,,,,,,,,,,,,,,,,,,,,,,,,,,,,,,,,,,144499.000000000,1701093015.821221352,-3.190000057,17.209999084,95.720001221,0.474000007,-0.416000009,-0.310999990
1701093015.837720,,,,,,,,,,,,,,,,,,,,,,,,,,,,,,,,,,,,,,,,,,,,,,,,,,,,,,,,,,,,,,,,,144500.000000000,1701093015.837459564,-3.220000029,17.149999619,95.720001221,0.477999985,-0.412000000,-0.310999990
1701093015.853985,,,,,,,,,,,,,,,,,,,,,,,,,,,,,,,,,,,,,,,,,,,,,,,,,,,,,,,,,,,,,,,,,144501.000000000,1701093015.853718042,-3.200000048,17.379999161,95.739997864,0.481999993,-0.416000009,-0.310000002
1701093015.870164,,,,,,,,,,,,,,,,,,,,,,,,,,,,,,,,,,,,,,,,,,,,,,,,,,,,,,,,,,,,,,,,,144502.000000000,1701093015.869953156,-3.180000067,17.350000381,95.790000916,0.476000011,-0.412000000,-0.312999994
1701093015.886502,,,,,,,,,,,,,,,,,,,,,,,,,,,,,,,,,,,,,,,,,,,,,,,,,,,,,,,,,,,,,,,,,144503.000000000,1701093015.886210442,-3.240000010,17.180000305,95.699996948,0.470999986,-0.414000005,-0.314000010
1701093015.897850,-0.699445069,0.007527950,-0.018820226,0.002363298,-1.310875526,2.673228040,-7.076890521,0.022416218,0.001073271,-0.223319259,0.000373782,-0.000346535,0.165945441,0.000658462,-0.000836450,-0.001399538,-0.000148880,1.000000000,1.000000000,-2.714777009,0.046953914,0.301030952,18.689124474,3.128861666,-17.326771960,32.923109479,-0.627337730,-0.699768897,-0.223319259,0.000000000,0.000000000,0.000000000,0.000000000,0.000000000,-0.015864268,0.000000000,0.000000000,0.000000000,0.000000000,0.000000000,0.000000000,0.000000000,0.000000000,0.000000000,0.000000000,0.787732840,0.000000000,0.000000000,0.000000000,0.000000000,0.000000000,0.000000000,0.000000000,0.000000000,0.000000000,32764.000000000,-0.698910586,-524315568.000000000,32764.000000000,0.000000000,0.000000000,0.007965897,0.165298497,-3.140215251,,,,,,,,
1701093015.902886,,,,,,,,,,,,,,,,,,,,,,,,,,,,,,,,,,,,,,,,,,,,,,,,,,,,,,,,,,,,,,,,,144504.000000000,1701093015.902480125,-3.240000010,17.180000305,95.660003662,0.479000002,-0.411000013,-0.310999990
1701093015.919054,,,,,,,,,,,,,,,,,,,,,,,,,,,,,,,,,,,,,,,,,,,,,,,,,,,,,,,,,,,,,,,,,144505.000000000,1701093015.918720961,-3.210000038,17.209999084,95.660003662,0.477999985,-0.414000005,-0.312000006
1701093015.935376,,,,,,,,,,,,,,,,,,,,,,,,,,,,,,,,,,,,,,,,,,,,,,,,,,,,,,,,,,,,,,,,,144506.000000000,1701093015.934972286,-3.240000010,17.270000458,95.680000305,0.474000007,-0.412999988,-0.312000006
1701093015.947516,,,,,,,,,,,,,,,,,,,,,,,,,,,,,,,,,,,,,,,,,,,,,,,,,,,,,,,,,,,,,,,,,144507.000000000,1701093015.947178364,-3.250000000,17.290000916,95.720001221,0.474000007,-0.412999988,-0.314000010
1701093015.963721,,,,,,,,,,,,,,,,,,,,,,,,,,,,,,,,,,,,,,,,,,,,,,,,,,,,,,,,,,,,,,,,,144508.000000000,1701093015.963590145,-3.250000000,17.299999237,95.709999084,0.479999989,-0.411000013,-0.312000006
1701093015.980338,,,,,,,,,,,,,,,,,,,,,,,,,,,,,,,,,,,,,,,,,,,,,,,,,,,,,,,,,,,,,,,,,144509.000000000,1701093015.980094194,-3.250000000,17.250000000,95.680000305,0.474000007,-0.412000000,-0.310000002
1701093015.996944,,,,,,,,,,,,,,,,,,,,,,,,,,,,,,,,,,,,,,,,,,,,,,,,,,,,,,,,,,,,,,,,,144510.000000000,1701093015.996622086,-3.250000000,17.260000229,95.669998169,0.472999990,-0.412000000,-0.310999990
1701093015.998063,-0.699445069,0.007527950,-0.018819638,0.002363232,-1.300375536,2.671227994,-7.086890750,0.022366216,0.001173269,-0.223219260,0.000373992,-0.000346575,0.165945441,0.000658262,-0.000836617,-0.001400125,-0.000148813,1.000000000,1.000000000,-2.718897104,0.046686413,0.296930955,18.699624464,3.128861666,-17.328772006,32.913109250,-0.627462734,-0.700062648,-0.223219260,0.000000000,0.000000000,0.000000000,0.000000000,0.000000000,-0.015864268,0.000000000,0.000000000,0.000000000,0.000000000,0.000000000,0.000000000,0.000000000,0.000000000,0.000000000,0.000000000,0.787732840,0.000000000,0.000000000,0.000000000,0.000000000,0.000000000,0.000000000,0.000000000,0.000000000,0.000000000,32764.000000000,-0.698910318,-524315568.000000000,32764.000000000,0.000000000,0.000000000,0.007965954,0.165298703,-3.140215417,,,,,,,,
1701093016.013089,,,,,,,,,,,,,,,,,,,,,,,,,,,,,,,,,,,,,,,,,,,,,,,,,,,,,,,,,,,,,,,,,144511.000000000,1701093016.012896299,-3.210000038,17.270000458,95.680000305,0.476000011,-0.412000000,-0.312000006
1701093016.029235,,,,,,,,,,,,,,,,,,,,,,,,,,,,,,,,,,,,,,,,,,,,,,,,,,,,,,,,,,,,,,,,,144512.000000000,1701093016.029119253,-3.180000067,17.250000000,95.690002441,0.477999985,-0.412999988,-0.312999994
1701093016.045642,,,,,,,,,,,,,,,,,,,,,,,,,,,,,,,,,,,,,,,,,,,,,,,,,,,,,,,,,,,,,,,,,144513.000000000,1701093016.045353174,-3.259999990,17.260000229,95.739997864,0.476999998,-0.412999988,-0.310000002
1701093016.061954,,,,,,,,,,,,,,,,,,,,,,,,,,,,,,,,,,,,,,,,,,,,,,,,,,,,,,,,,,,,,,,,,144514.000000000,1701093016.061634302,-3.180000067,17.309999466,95.660003662,0.476000011,-0.414999992,-0.314000010
1701093016.078148,,,,,,,,,,,,,,,,,,,,,,,,,,,,,,,,,,,,,,,,,,,,,,,,,,,,,,,,,,,,,,,,,144515.000000000,1701093016.077898502,-3.210000038,17.250000000,95.620002747,0.476000011,-0.414000005,-0.312999994
1701093016.094455,,,,,,,,,,,,,,,,,,,,,,,,,,,,,,,,,,,,,,,,,,,,,,,,,,,,,,,,,,,,,,,,,144516.000000000,1701093016.094155312,-3.230000019,17.299999237,95.709999084,0.477999985,-0.414000005,-0.310999990
1701093016.097988,-0.699445069,0.007527950,-0.018818676,0.002363334,-1.296875539,2.686728063,-7.084890322,0.022866219,0.000823271,-0.223369261,0.000374062,-0.000346265,0.165945441,0.000658302,-0.000835175,-0.001401088,-0.000148913,1.000000000,1.000000000,-2.717054428,0.046213915,0.295380955,18.703124461,3.128861666,-17.313271937,32.915109678,-0.626381479,-0.700543896,-0.223369261,0.000000000,0.000000000,0.000000000,0.000000000,0.000000000,-0.015864268,0.000000000,0.000000000,0.000000000,0.000000000,0.000000000,0.000000000,0.000000000,0.000000000,0.000000000,0.000000000,0.787732840,0.000000000,0.000000000,0.000000000,0.000000000,0.000000000,0.000000000,0.000000000,0.000000000,0.000000000,32764.000000000,-0.698910144,-524315568.000000000,32764.000000000,0.000000000,0.000000000,0.007965492,0.165298665,-3.140213977,,,,,,,,
1701093016.110724,,,,,,,,,,,,,,,,,,,,,,,,,,,,,,,,,,,,,,,,,,,,,,,,,,,,,,,,,,,,,,,,,144517.000000000,1701093016.110416651,-3.250000000,17.329999924,95.709999084,0.476999998,-0.412000000,-0.308999985
1701093016.126922,,,,,,,,,,,,,,,,,,,,,,,,,,,,,,,,,,,,,,,,,,,,,,,,,,,,,,,,,,,,,,,,,144518.000000000,1701093016.126678467,-3.289999962,17.299999237,95.669998169,0.476999998,-0.412000000,-0.312000006
1701093016.143069,,,,,,,,,,,,,,,,,,,,,,,,,,,,,,,,,,,,,,,,,,,,,,,,,,,,,,,,,,,,,,,,,144519.000000000,1701093016.142902613,-3.250000000,17.250000000,95.709999084,0.476999998,-0.412000000,-0.314000010
1701093016.155342,,,,,,,,,,,,,,,,,,,,,,,,,,,,,,,,,,,,,,,,,,,,,,,,,,,,,,,,,,,,,,,,,144520.000000000,1701093016.155082226,-3.200000048,17.260000229,95.699996948,0.476999998,-0.412999988,-0.312000006
1701093016.171634,,,,,,,,,,,,,,,,,,,,,,,,,,,,,,,,,,,,,,,,,,,,,,,,,,,,,,,,,,,,,,,,,144521.000000000,1701093016.171338081,-3.269999981,17.280000687,95.699996948,0.476999998,-0.412000000,-0.310999990
1701093016.187854,,,,,,,,,,,,,,,,,,,,,,,,,,,,,,,,,,,,,,,,,,,,,,,,,,,,,,,,,,,,,,,,,144522.000000000,1701093016.187594652,-3.269999981,17.260000229,95.699996948,0.477999985,-0.412999988,-0.310000002
1701093016.197235,-0.699445069,0.007527950,-0.018818976,0.002363334,-1.300875536,2.683228173,-7.094890933,0.022566216,0.000823274,-0.223369262,0.000373982,-0.000346335,0.165945441,0.000658102,-0.000835750,-0.001400788,-0.000148913,1.000000000,1.000000000,-2.721477171,0.046353918,0.296980952,18.699124464,3.128861666,-17.316771827,32.905109067,-0.626812727,-0.700393894,-0.223369262,0.000000000,0.000000000,0.000000000,0.000000000,0.000000000,-0.015864268,0.000000000,0.000000000,0.000000000,0.000000000,0.000000000,0.000000000,0.000000000,0.000000000,0.000000000,0.000000000,0.787732840,0.000000000,0.000000000,0.000000000,0.000000000,0.000000000,0.000000000,0.000000000,0.000000000,0.000000000,32764.000000000,-0.698910261,-524315568.000000000,32764.000000000,0.000000000,0.000000000,0.007965622,0.165298863,-3.140214552,,,,,,,,
1701093016.204156,,,,,,,,,,,,,,,,,,,,,,,,,,,,,,,,,,,,,,,,,,,,,,,,,,,,,,,,,,,,,,,,,144523.000000000,1701093016.203851461,-3.279999971,17.190000534,95.669998169,0.474999994,-0.412000000,-0.312999994
1701093016.220394,,,,,,,,,,,,,,,,,,,,,,,,,,,,,,,,,,,,,,,,,,,,,,,,,,,,,,,,,,,,,,,,,144524.000000000,1701093016.220115423,-3.319999933,17.319999695,95.699996948,0.476999998,-0.411000013,-0.312000006
1701093016.236651,,,,,,,,,,,,,,,,,,,,,,,,,,,,,,,,,,,,,,,,,,,,,,,,,,,,,,,,,,,,,,,,,144525.000000000,1701093016.236379147,-3.319999933,17.370000839,95.760002136,0.479000002,-0.409999996,-0.310999990
1701093016.252756,,,,,,,,,,,,,,,,,,,,,,,,,,,,,,,,,,,,,,,,,,,,,,,,,,,,,,,,,,,,,,,,,144526.000000000,1701093016.252577066,-3.230000019,17.219999313,95.699996948,0.477999985,-0.412999988,-0.312000006
1701093016.269128,,,,,,,,,,,,,,,,,,,,,,,,,,,,,,,,,,,,,,,,,,,,,,,,,,,,,,,,,,,,,,,,,144527.000000000,1701093016.268826723,-3.220000029,17.190000534,95.639999390,0.476000011,-0.412000000,-0.310000002
1701093016.285403,,,,,,,,,,,,,,,,,,,,,,,,,,,,,,,,,,,,,,,,,,,,,,,,,,,,,,,,,,,,,,,,,144528.000000000,1701093016.285091877,-3.220000029,17.250000000,95.709999084,0.472999990,-0.414000005,-0.312999994
1701093016.297883,-0.699445069,0.007527950,-0.018819976,0.002363198,-1.308875528,2.688728204,-7.092391543,0.022666217,0.001023274,-0.223169261,0.000373822,-0.000346225,0.165945441,0.000658152,-0.000835342,-0.001399788,-0.000148780,1.000000000,1.000000000,-2.720184913,0.046833918,0.300380951,18.691124472,3.128861666,-17.311271796,32.907608457,-0.626506476,-0.699893893,-0.223169261,0.000000000,0.000000000,0.000000000,0.000000000,0.000000000,-0.015864268,0.000000000,0.000000000,0.000000000,0.000000000,0.000000000,0.000000000,0.000000000,0.000000000,0.000000000,0.000000000,0.787732840,0.000000000,0.000000000,0.000000000,0.000000000,0.000000000,0.000000000,0.000000000,0.000000000,0.000000000,32764.000000000,-0.698910525,-524315568.000000000,32764.000000000,0.000000000,0.000000000,0.007965468,0.165298808,-3.140214141,,,,,,,,
1701093016.301638,,,,,,,,,,,,,,,,,,,,,,,,,,,,,,,,,,,,,,,,,,,,,,,,,,,,,,,,,,,,,,,,,144529.000000000,1701093016.301356077,-3.220000029,17.260000229,95.709999084,0.476999998,-0.412000000,-0.310999990
1701093016.317842,,,,,,,,,,,,,,,,,,,,,,,,,,,,,,,,,,,,,,,,,,,,,,,,,,,,,,,,,,,,,,,,,144530.000000000,1701093016.317605734,-3.279999971,17.180000305,95.730003357,0.476999998,-0.409999996,-0.312999994
1701093016.334163,,,,,,,,,,,,,,,,,,,,,,,,,,,,,,,,,,,,,,,,,,,,,,,,,,,,,,,,,,,,,,,,,144531.000000000,1701093016.333859921,-3.250000000,17.239999771,95.699996948,0.476000011,-0.412999988,-0.312000006
1701093016.350367,,,,,,,,,,,,,,,,,,,,,,,,,,,,,,,,,,,,,,,,,,,,,,,,,,,,,,,,,,,,,,,,,144532.000000000,1701093016.350117445,-3.230000019,17.239999771,95.680000305,0.474000007,-0.412999988,-0.312999994
1701093016.366478,,,,,,,,,,,,,,,,,,,,,,,,,,,,,,,,,,,,,,,,,,,,,,,,,,,,,,,,,,,,,,,,,144533.000000000,1701093016.366341591,-3.220000029,17.219999313,95.660003662,0.474999994,-0.414000005,-0.310999990
1701093016.382897,,,,,,,,,,,,,,,,,,,,,,,,,,,,,,,,,,,,,,,,,,,,,,,,,,,,,,,,,,,,,,,,,144534.000000000,1701093016.382580280,-3.250000000,17.200000763,95.699996948,0.477999985,-0.411000013,-0.310999990
1701093016.398107,-0.699445069,0.007527950,-0.018820826,0.002363230,-1.314875522,2.675728193,-7.089391665,0.022816216,0.001223273,-0.223219258,0.000373702,-0.000346485,0.165945441,0.000658212,-0.000835792,-0.001398938,-0.000148813,1.000000000,1.000000000,-2.719289963,0.047243917,0.302730950,18.685124478,3.128861666,-17.324271807,32.910608335,-0.626843977,-0.699468895,-0.223219258,0.000000000,0.000000000,0.000000000,0.000000000,0.000000000,-0.015864268,0.000000000,0.000000000,0.000000000,0.000000000,0.000000000,0.000000000,0.000000000,0.000000000,0.000000000,0.000000000,0.787732840,0.000000000,0.000000000,0.000000000,0.000000000,0.000000000,0.000000000,0.000000000,0.000000000,0.000000000,32764.000000000,-0.698910735,-524315568.000000000,32764.000000000,0.000000000,0.000000000,0.007965776,0.165298744,-3.140214592,,,,,,,,
1701093016.399140,,,,,,,,,,,,,,,,,,,,,,,,,,,,,,,,,,,,,,,,,,,,,,,,,,,,,,,,,,,,,,,,,144535.000000000,1701093016.398837566,-3.250000000,17.190000534,95.699996948,0.476000011,-0.414000005,-0.312000006
1701093016.415280,,,,,,,,,,,,,,,,,,,,,,,,,,,,,,,,,,,,,,,,,,,,,,,,,,,,,,,,,,,,,,,,,144536.000000000,1701093016.415094614,-3.269999981,17.250000000,95.680000305,0.472999990,-0.412000000,-0.312000006
1701093016.427351,,,,,,,,,,,,,,,,,,,,,,,,,,,,,,,,,,,,,,,,,,,,,,,,,,,,,,,,,,,,,,,,,144537.000000000,1701093016.427269459,-3.279999971,17.309999466,95.650001526,0.476999998,-0.414000005,-0.312000006
1701093016.443623,,,,,,,,,,,,,,,,,,,,,,,,,,,,,,,,,,,,,,,,,,,,,,,,,,,,,,,,,,,,,,,,,144538.000000000,1701093016.443490505,-3.299999952,17.260000229,95.699996948,0.479999989,-0.411000013,-0.310999990
1701093016.459934,,,,,,,,,,,,,,,,,,,,,,,,,,,,,,,,,,,,,,,,,,,,,,,,,,,,,,,,,,,,,,,,,144539.000000000,1701093016.459755898,-3.279999971,17.209999084,95.680000305,0.472999990,-0.412000000,-0.312999994
1701093016.476171,,,,,,,,,,,,,,,,,,,,,,,,,,,,,,,,,,,,,,,,,,,,,,,,,,,,,,,,,,,,,,,,,144540.000000000,1701093016.476016283,-3.240000010,17.239999771,95.650001526,0.472000003,-0.412999988,-0.312000006
1701093016.492417,,,,,,,,,,,,,,,,,,,,,,,,,,,,,,,,,,,,,,,,,,,,,,,,,,,,,,,,,,,,,,,,,144541.000000000,1701093016.492262125,-3.190000057,17.250000000,95.690002441,0.476999998,-0.414000005,-0.310999990
1701093016.508734,,,,,,,,,,,,,,,,,,,,,,,,,,,,,,,,,,,,,,,,,,,,,,,,,,,,,,,,,,,,,,,,,144542.000000000,1701093016.508538723,-3.259999990,17.319999695,95.709999084,0.479999989,-0.412000000,-0.312000006
1701093016.525011,,,,,,,,,,,,,,,,,,,,,,,,,,,,,,,,,,,,,,,,,,,,,,,,,,,,,,,,,,,,,,,,,144543.000000000,1701093016.524815559,-3.289999962,17.290000916,95.699996948,0.476000011,-0.412000000,-0.310999990
1701093016.526725,-0.699445069,0.007527950,-0.018821238,0.002363262,-1.320375517,2.670728173,-7.090891223,0.022416217,0.001223272,-0.223269259,0.000373592,-0.000346585,0.165945441,0.000658182,-0.000836575,-0.001398525,-0.000148846,1.000000000,1.000000000,-2.720464786,0.047436415,0.304880948,18.679624483,3.128861666,-17.329271827,32.909108777,-0.627431477,-0.699262646,-0.223269259,0.000000000,0.000000000,0.000000000,0.000000000,0.000000000,-0.015864268,0.000000000,0.000000000,0.000000000,0.000000000,0.000000000,0.000000000,0.000000000,0.000000000,0.000000000,0.000000000,0.787732840,0.000000000,0.000000000,0.000000000,0.000000000,0.000000000,0.000000000,0.000000000,0.000000000,0.000000000,32764.000000000,-0.698910890,-524315568.000000000,32764.000000000,0.000000000,0.000000000,0.007965959,0.165298772,-3.140215376,,,,,,,,
1701093016.541220,,,,,,,,,,,,,,,,,,,,,,,,,,,,,,,,,,,,,,,,,,,,,,,,,,,,,,,,,,,,,,,,,144544.000000000,1701093016.541091681,-3.210000038,17.360000610,95.660003662,0.474999994,-0.414999992,-0.310999990
1701093016.557544,,,,,,,,,,,,,,,,,,,,,,,,,,,,,,,,,,,,,,,,,,,,,,,,,,,,,,,,,,,,,,,,,144545.000000000,1701093016.557355404,-3.269999981,17.309999466,95.650001526,0.476999998,-0.412000000,-0.310999990
1701093016.573802,,,,,,,,,,,,,,,,,,,,,,,,,,,,,,,,,,,,,,,,,,,,,,,,,,,,,,,,,,,,,,,,,144546.000000000,1701093016.573616266,-3.289999962,17.319999695,95.690002441,0.481000006,-0.414000005,-0.312000006
1701093016.589931,,,,,,,,,,,,,,,,,,,,,,,,,,,,,,,,,,,,,,,,,,,,,,,,,,,,,,,,,,,,,,,,,144547.000000000,1701093016.589845181,-3.309999943,17.309999466,95.690002441,0.476000011,-0.411000013,-0.312999994
1701093016.595810,-0.699445069,0.007527950,-0.018820601,0.002363330,-1.319875517,2.680728116,-7.096390490,0.022366218,0.000923271,-0.223369258,0.000373602,-0.000346385,0.165945441,0.000658072,-0.000836142,-0.001399163,-0.000148913,1.000000000,1.000000000,-2.722364494,0.047118914,0.304580949,18.680124483,3.128861666,-17.319271884,32.903609510,-0.627106478,-0.699581397,-0.223369258,0.000000000,0.000000000,0.000000000,0.000000000,0.000000000,-0.015864268,0.000000000,0.000000000,0.000000000,0.000000000,0.000000000,0.000000000,0.000000000,0.000000000,0.000000000,0.000000000,0.787732840,0.000000000,0.000000000,0.000000000,0.000000000,0.000000000,0.000000000,0.000000000,0.000000000,0.000000000,32764.000000000,-0.698910814,-524315568.000000000,32764.000000000,0.000000000,0.000000000,0.007965713,0.165298883,-3.140214944,,,,,,,,
1701093016.606268,,,,,,,,,,,,,,,,,,,,,,,,,,,,,,,,,,,,,,,,,,,,,,,,,,,,,,,,,,,,,,,,,144548.000000000,1701093016.606080770,-3.269999981,17.209999084,95.720001221,0.472000003,-0.414000005,-0.310999990
1701093016.622541,,,,,,,,,,,,,,,,,,,,,,,,,,,,,,,,,,,,,,,,,,,,,,,,,,,,,,,,,,,,,,,,,144549.000000000,1701093016.622337341,-3.259999990,17.239999771,95.650001526,0.479999989,-0.412999988,-0.310999990
1701093016.638756,,,,,,,,,,,,,,,,,,,,,,,,,,,,,,,,,,,,,,,,,,,,,,,,,,,,,,,,,,,,,,,,,144550.000000000,1701093016.638592243,-3.259999990,17.260000229,95.669998169,0.479999989,-0.414000005,-0.310999990
1701093016.654977,,,,,,,,,,,,,,,,,,,,,,,,,,,,,,,,,,,,,,,,,,,,,,,,,,,,,,,,,,,,,,,,,144551.000000000,1701093016.654825211,-3.279999971,17.299999237,95.699996948,0.474000007,-0.412999988,-0.312999994
1701093016.671278,,,,,,,,,,,,,,,,,,,,,,,,,,,,,,,,,,,,,,,,,,,,,,,,,,,,,,,,,,,,,,,,,144552.000000000,1701093016.671065807,-3.240000010,17.270000458,95.699996948,0.469999999,-0.412999988,-0.314000010
1701093016.687543,,,,,,,,,,,,,,,,,,,,,,,,,,,,,,,,,,,,,,,,,,,,,,,,,,,,,,,,,,,,,,,,,144553.000000000,1701093016.687327862,-3.299999952,17.290000916,95.699996948,0.481000006,-0.411000013,-0.314999998
1701093016.697847,-0.699445069,0.007527950,-0.018821114,0.002363396,-1.329375508,2.689728131,-7.098891024,0.022616217,0.000823271,-0.223469258,0.000373412,-0.000346205,0.165945441,0.000658022,-0.000835359,-0.001398650,-0.000148980,1.000000000,1.000000000,-2.722799708,0.047351414,0.308280945,18.670624492,3.128861666,-17.310271869,32.901108976,-0.626518978,-0.699325148,-0.223469258,0.000000000,0.000000000,0.000000000,0.000000000,0.000000000,-0.015864268,0.000000000,0.000000000,0.000000000,0.000000000,0.000000000,0.000000000,0.000000000,0.000000000,0.000000000,0.000000000,0.787732840,0.000000000,0.000000000,0.000000000,0.000000000,0.000000000,0.000000000,0.000000000,0.000000000,0.000000000,32764.000000000,-0.698911058,-524315568.000000000,32764.000000000,0.000000000,0.000000000,0.007965449,0.165298927,-3.140214162,,,,,,,,
1701093016.699667,,,,,,,,,,,,,,,,,,,,,,,,,,,,,,,,,,,,,,,,,,,,,,,,,,,,,,,,,,,,,,,,,144554.000000000,1701093016.699526548,-3.329999924,17.219999313,95.650001526,0.476000011,-0.411000013,-0.307999998
1701093016.715962,,,,,,,,,,,,,,,,,,,,,,,,,,,,,,,,,,,,,,,,,,,,,,,,,,,,,,,,,,,,,,,,,144555.000000000,1701093016.715780497,-3.289999962,17.260000229,95.709999084,0.474000007,-0.411000013,-0.308999985
1701093016.732234,,,,,,,,,,,,,,,,,,,,,,,,,,,,,,,,,,,,,,,,,,,,,,,,,,,,,,,,,,,,,,,,,144556.000000000,1701093016.732045412,-3.269999981,17.329999924,95.779998779,0.476999998,-0.411000013,-0.314999998
1701093016.748443,,,,,,,,,,,,,,,,,,,,,,,,,,,,,,,,,,,,,,,,,,,,,,,,,,,,,,,,,,,,,,,,,144557.000000000,1701093016.748310089,-3.220000029,17.299999237,95.760002136,0.477999985,-0.412000000,-0.314999998
1701093016.764613,,,,,,,,,,,,,,,,,,,,,,,,,,,,,,,,,,,,,,,,,,,,,,,,,,,,,,,,,,,,,,,,,144558.000000000,1701093016.764510393,-3.259999990,17.250000000,95.629997253,0.476000011,-0.412000000,-0.310000002
1701093016.780934,,,,,,,,,,,,,,,,,,,,,,,,,,,,,,,,,,,,,,,,,,,,,,,,,,,,,,,,,,,,,,,,,144559.000000000,1701093016.780755520,-3.220000029,17.299999237,95.730003357,0.474999994,-0.412999988,-0.307999998
1701093016.797306,,,,,,,,,,,,,,,,,,,,,,,,,,,,,,,,,,,,,,,,,,,,,,,,,,,,,,,,,,,,,,,,,144560.000000000,1701093016.797024727,-3.279999971,17.239999771,95.720001221,0.474999994,-0.411000013,-0.312000006
1701093016.797853,-0.699445069,0.007527950,-0.018821713,0.002363194,-1.329375508,2.701728025,-7.087890582,0.022716219,0.001123270,-0.223169258,0.000373412,-0.000345965,0.165945441,0.000658242,-0.000834625,-0.001398050,-0.000148780,1.000000000,1.000000000,-2.717879533,0.047651413,0.308580946,18.670624492,3.128861666,-17.298271975,32.912109418,-0.625968980,-0.699025148,-0.223169258,0.000000000,0.000000000,0.000000000,0.000000000,0.000000000,-0.015864268,0.000000000,0.000000000,0.000000000,0.000000000,0.000000000,0.000000000,0.000000000,0.000000000,0.000000000,0.000000000,0.787732840,0.000000000,0.000000000,0.000000000,0.000000000,0.000000000,0.000000000,0.000000000,0.000000000,0.000000000,32764.000000000,-0.698911117,-524315568.000000000,32764.000000000,0.000000000,0.000000000,0.007965131,0.165298705,-3.140213424,,,,,,,,
1701093016.813453,,,,,,,,,,,,,,,,,,,,,,,,,,,,,,,,,,,,,,,,,,,,,,,,,,,,,,,,,,,,,,,,,144561.000000000,1701093016.813296080,-3.299999952,17.340000153,95.779998779,0.479999989,-0.412000000,-0.314999998
1701093016.829774,,,,,,,,,,,,,,,,,,,,,,,,,,,,,,,,,,,,,,,,,,,,,,,,,,,,,,,,,,,,,,,,,144562.000000000,1701093016.829555511,-3.210000038,17.280000687,95.730003357,0.474999994,-0.412000000,-0.312000006
1701093016.846122,,,,,,,,,,,,,,,,,,,,,,,,,,,,,,,,,,,,,,,,,,,,,,,,,,,,,,,,,,,,,,,,,144563.000000000,1701093016.845816374,-3.269999981,17.170000076,95.620002747,0.476000011,-0.414000005,-0.307000011
1701093016.862232,,,,,,,,,,,,,,,,,,,,,,,,,,,,,,,,,,,,,,,,,,,,,,,,,,,,,,,,,,,,,,,,,144564.000000000,1701093016.862106800,-3.259999990,17.180000305,95.709999084,0.479000002,-0.409999996,-0.314000010
1701093016.878526,,,,,,,,,,,,,,,,,,,,,,,,,,,,,,,,,,,,,,,,,,,,,,,,,,,,,,,,,,,,,,,,,144565.000000000,1701093016.878338099,-3.160000086,17.209999084,95.750000000,0.474000007,-0.414000005,-0.316000015
1701093016.894755,,,,,,,,,,,,,,,,,,,,,,,,,,,,,,,,,,,,,,,,,,,,,,,,,,,,,,,,,,,,,,,,,144566.000000000,1701093016.894591331,-3.230000019,17.299999237,95.730003357,0.472000003,-0.409999996,-0.312999994
1701093016.910932,,,,,,,,,,,,,,,,,,,,,,,,,,,,,,,,,,,,,,,,,,,,,,,,,,,,,,,,,,,,,,,,,144567.000000000,1701093016.910805941,-3.210000038,17.270000458,95.730003357,0.476999998,-0.412000000,-0.310000002
1701093016.927310,,,,,,,,,,,,,,,,,,,,,,,,,,,,,,,,,,,,,,,,,,,,,,,,,,,,,,,,,,,,,,,,,144568.000000000,1701093016.927071333,-3.299999952,17.110000610,95.709999084,0.479000002,-0.409000009,-0.310000002
1701093016.936412,-0.699445069,0.007527950,-0.018822251,0.002363360,-1.321875516,2.676228109,-7.075390582,0.022616219,0.001673270,-0.223419262,0.000373562,-0.000346475,0.165945441,0.000658492,-0.000836034,-0.001397513,-0.000148946,1.000000000,1.000000000,-2.713872030,0.047938913,0.305330944,18.678124484,3.128861666,-17.323771891,32.924609418,-0.627025227,-0.698756398,-0.223419262,0.000000000,0.000000000,0.000000000,0.000000000,0.000000000,-0.015864268,0.000000000,0.000000000,0.000000000,0.000000000,0.000000000,0.000000000,0.000000000,0.000000000,0.000000000,0.000000000,0.787732840,0.000000000,0.000000000,0.000000000,0.000000000,0.000000000,0.000000000,0.000000000,0.000000000,0.000000000,32764.000000000,-0.698911020,-524315568.000000000,32764.000000000,0.000000000,0.000000000,0.007965792,0.165298459,-3.140214836,,,,,,,,
1701093016.943523,,,,,,,,,,,,,,,,,,,,,,,,,,,,,,,,,,,,,,,,,,,,,,,,,,,,,,,,,,,,,,,,,144569.000000000,1701093016.943332672,-3.299999952,17.239999771,95.660003662,0.470999986,-0.411000013,-0.314999998
1701093016.955614,,,,,,,,,,,,,,,,,,,,,,,,,,,,,,,,,,,,,,,,,,,,,,,,,,,,,,,,,,,,,,,,,144570.000000000,1701093016.955515623,-3.339999914,17.309999466,95.709999084,0.469999999,-0.407999992,-0.314000010
1701093016.971907,,,,,,,,,,,,,,,,,,,,,,,,,,,,,,,,,,,,,,,,,,,,,,,,,,,,,,,,,,,,,,,,,144571.000000000,1701093016.971742630,-3.349999905,17.299999237,95.699996948,0.481000006,-0.409000009,-0.310000002
1701093016.988213,,,,,,,,,,,,,,,,,,,,,,,,,,,,,,,,,,,,,,,,,,,,,,,,,,,,,,,,,,,,,,,,,144572.000000000,1701093016.987993240,-3.299999952,17.180000305,95.720001221,0.483000010,-0.409000009,-0.307999998
1701093016.996149,-0.699445069,0.007527950,-0.018824788,0.002363287,-1.334375504,2.674228063,-7.071890216,0.022666220,0.002473268,-0.223319263,0.000373312,-0.000346515,0.165945441,0.000658562,-0.000836067,-0.001394975,-0.000148880,1.000000000,1.000000000,-2.712491884,0.049176410,0.310430938,18.665624496,3.128861666,-17.325771937,32.928109784,-0.627050228,-0.697487651,-0.223319263,0.000000000,0.000000000,0.000000000,0.000000000,0.000000000,-0.015864268,0.000000000,0.000000000,0.000000000,0.000000000,0.000000000,0.000000000,0.000000000,0.000000000,0.000000000,0.000000000,0.787732840,0.000000000,0.000000000,0.000000000,0.000000000,0.000000000,0.000000000,0.000000000,0.000000000,0.000000000,32764.000000000,-0.698911538,-524315568.000000000,32764.000000000,0.000000000,0.000000000,0.007965834,0.165298379,-3.140214868,,,,,,,,
1701093017.004368,,,,,,,,,,,,,,,,,,,,,,,,,,,,,,,,,,,,,,,,,,,,,,,,,,,,,,,,,,,,,,,,,144573.000000000,1701093017.004230022,-3.250000000,17.149999619,95.690002441,0.472000003,-0.412000000,-0.314000010
1701093017.020683,,,,,,,,,,,,,,,,,,,,,,,,,,,,,,,,,,,,,,,,,,,,,,,,,,,,,,,,,,,,,,,,,144574.000000000,1701093017.020478725,-3.269999981,17.229999542,95.660003662,0.467999995,-0.412999988,-0.310999990
1701093017.036950,,,,,,,,,,,,,,,,,,,,,,,,,,,,,,,,,,,,,,,,,,,,,,,,,,,,,,,,,,,,,,,,,144575.000000000,1701093017.036744833,-3.319999933,17.290000916,95.610000610,0.476000011,-0.407999992,-0.308999985
1701093017.053220,,,,,,,,,,,,,,,,,,,,,,,,,,,,,,,,,,,,,,,,,,,,,,,,,,,,,,,,,,,,,,,,,144576.000000000,1701093017.053011417,-3.170000076,17.159999847,95.699996948,0.481999993,-0.416000009,-0.310999990
1701093017.069357,,,,,,,,,,,,,,,,,,,,,,,,,,,,,,,,,,,,,,,,,,,,,,,,,,,,,,,,,,,,,,,,,144577.000000000,1701093017.069242954,-3.240000010,17.209999084,95.720001221,0.474999994,-0.412000000,-0.310999990
1701093017.085703,,,,,,,,,,,,,,,,,,,,,,,,,,,,,,,,,,,,,,,,,,,,,,,,,,,,,,,,,,,,,,,,,144578.000000000,1701093017.085482121,-3.220000029,17.340000153,95.709999084,0.469999999,-0.416000009,-0.314000010
1701093017.097648,-0.699445069,0.007527950,-0.018823138,0.002363224,-1.324375513,2.660728040,-7.078889804,0.021716218,0.002023270,-0.223219263,0.000373512,-0.000346785,0.165945441,0.000658422,-0.000838009,-0.001396625,-0.000148813,1.000000000,1.000000000,-2.716714222,0.048376413,0.306530942,18.675624487,3.128861666,-17.339271960,32.921110196,-0.628506480,-0.698312648,-0.223219263,0.000000000,0.000000000,0.000000000,0.000000000,0.000000000,-0.015864268,0.000000000,0.000000000,0.000000000,0.000000000,0.000000000,0.000000000,0.000000000,0.000000000,0.000000000,0.000000000,0.787732840,0.000000000,0.000000000,0.000000000,0.000000000,0.000000000,0.000000000,0.000000000,0.000000000,0.000000000,32764.000000000,-0.698911167,-524315568.000000000,32764.000000000,0.000000000,0.000000000,0.007966311,0.165298527,-3.140216808,,,,,,,,
1701093017.101954,,,,,,,,,,,,,,,,,,,,,,,,,,,,,,,,,,,,,,,,,,,,,,,,,,,,,,,,,,,,,,,,,144579.000000000,1701093017.101734877,-3.299999952,17.250000000,95.709999084,0.481999993,-0.409999996,-0.314999998
1701093017.118110,,,,,,,,,,,,,,,,,,,,,,,,,,,,,,,,,,,,,,,,,,,,,,,,,,,,,,,,,,,,,,,,,144580.000000000,1701093017.117985249,-3.279999971,17.200000763,95.709999084,0.481000006,-0.414000005,-0.312000006
1701093017.134337,,,,,,,,,,,,,,,,,,,,,,,,,,,,,,,,,,,,,,,,,,,,,,,,,,,,,,,,,,,,,,,,,144581.000000000,1701093017.134207726,-3.329999924,17.250000000,95.690002441,0.470999986,-0.411000013,-0.310999990
1701093017.150669,,,,,,,,,,,,,,,,,,,,,,,,,,,,,,,,,,,,,,,,,,,,,,,,,,,,,,,,,,,,,,,,,144582.000000000,1701093017.150452375,-3.279999971,17.260000229,95.720001221,0.470999986,-0.414999992,-0.312000006
1701093017.166931,,,,,,,,,,,,,,,,,,,,,,,,,,,,,,,,,,,,,,,,,,,,,,,,,,,,,,,,,,,,,,,,,144583.000000000,1701093017.166711807,-3.250000000,17.209999084,95.720001221,0.479999989,-0.412000000,-0.312000006
1701093017.183125,,,,,,,,,,,,,,,,,,,,,,,,,,,,,,,,,,,,,,,,,,,,,,,,,,,,,,,,,,,,,,,,,144584.000000000,1701093017.182963133,-3.200000048,17.180000305,95.739997864,0.479999989,-0.414999992,-0.310999990
1701093017.199414,,,,,,,,,,,,,,,,,,,,,,,,,,,,,,,,,,,,,,,,,,,,,,,,,,,,,,,,,,,,,,,,,144585.000000000,1701093017.199205399,-3.230000019,17.239999771,95.730003357,0.472999990,-0.412999988,-0.312000006
1701093017.206645,-0.699445069,0.007527950,-0.018823376,0.002363257,-1.332875505,2.654228082,-7.079890017,0.021916216,0.001823271,-0.223269261,0.000373342,-0.000346915,0.165945441,0.000658402,-0.000838067,-0.001396388,-0.000148846,1.000000000,1.000000000,-2.717141808,0.048473914,0.309880941,18.667124495,3.128861666,-17.345771918,32.920109983,-0.628550231,-0.698193897,-0.223269261,0.000000000,0.000000000,0.000000000,0.000000000,0.000000000,-0.015864268,0.000000000,0.000000000,0.000000000,0.000000000,0.000000000,0.000000000,0.000000000,0.000000000,0.000000000,0.000000000,0.787732840,0.000000000,0.000000000,0.000000000,0.000000000,0.000000000,0.000000000,0.000000000,0.000000000,0.000000000,32764.000000000,-0.698911363,-524315568.000000000,32764.000000000,0.000000000,0.000000000,0.007966446,0.165298543,-3.140216867,,,,,,,,
1701093017.211521,,,,,,,,,,,,,,,,,,,,,,,,,,,,,,,,,,,,,,,,,,,,,,,,,,,,,,,,,,,,,,,,,144586.000000000,1701093017.211394787,-3.299999952,17.239999771,95.660003662,0.472000003,-0.409999996,-0.310999990
1701093017.227866,,,,,,,,,,,,,,,,,,,,,,,,,,,,,,,,,,,,,,,,,,,,,,,,,,,,,,,,,,,,,,,,,144587.000000000,1701093017.227650642,-3.289999962,17.170000076,95.690002441,0.476000011,-0.412000000,-0.312000006
1701093017.244001,,,,,,,,,,,,,,,,,,,,,,,,,,,,,,,,,,,,,,,,,,,,,,,,,,,,,,,,,,,,,,,,,144588.000000000,1701093017.243899822,-3.269999981,17.299999237,95.680000305,0.479999989,-0.409000009,-0.312999994
1701093017.260342,,,,,,,,,,,,,,,,,,,,,,,,,,,,,,,,,,,,,,,,,,,,,,,,,,,,,,,,,,,,,,,,,144589.000000000,1701093017.260146618,-3.329999924,17.299999237,95.690002441,0.474000007,-0.409999996,-0.310999990
1701093017.276597,,,,,,,,,,,,,,,,,,,,,,,,,,,,,,,,,,,,,,,,,,,,,,,,,,,,,,,,,,,,,,,,,144590.000000000,1701093017.276417494,-3.380000114,17.329999924,95.730003357,0.476000011,-0.409000009,-0.310999990
1701093017.292766,,,,,,,,,,,,,,,,,,,,,,,,,,,,,,,,,,,,,,,,,,,,,,,,,,,,,,,,,,,,,,,,,144591.000000000,1701093017.292648792,-3.289999962,17.229999542,95.669998169,0.479999989,-0.412999988,-0.310000002
1701093017.296162,-0.699445069,0.007527950,-0.018823463,0.002363124,-1.339375511,2.656228032,-7.085889773,0.022316217,0.001623273,-0.223069259,0.000373212,-0.000346875,0.165945441,0.000658282,-0.000837434,-0.001396300,-0.000148713,1.000000000,1.000000000,-2.719071711,0.048501415,0.312680945,18.660624489,3.128861666,-17.343771968,32.914110227,-0.628075232,-0.698150146,-0.223069259,0.000000000,0.000000000,0.000000000,0.000000000,0.000000000,-0.015864268,0.000000000,0.000000000,0.000000000,0.000000000,0.000000000,0.000000000,0.000000000,0.000000000,0.000000000,0.000000000,0.787732840,0.000000000,0.000000000,0.000000000,0.000000000,0.000000000,0.000000000,0.000000000,0.000000000,0.000000000,32764.000000000,-0.698911504,-524315568.000000000,32764.000000000,0.000000000,0.000000000,0.007966338,0.165298660,-3.140216231,,,,,,,,
1701093017.309126,,,,,,,,,,,,,,,,,,,,,,,,,,,,,,,,,,,,,,,,,,,,,,,,,,,,,,,,,,,,,,,,,144592.000000000,1701093017.308907747,-3.339999914,17.229999542,95.669998169,0.476999998,-0.409999996,-0.310000002
1701093017.325372,,,,,,,,,,,,,,,,,,,,,,,,,,,,,,,,,,,,,,,,,,,,,,,,,,,,,,,,,,,,,,,,,144593.000000000,1701093017.325177193,-3.220000029,17.319999695,95.730003357,0.474000007,-0.412999988,-0.312000006
1701093017.341527,,,,,,,,,,,,,,,,,,,,,,,,,,,,,,,,,,,,,,,,,,,,,,,,,,,,,,,,,,,,,,,,,144594.000000000,1701093017.341417313,-3.210000038,17.270000458,95.690002441,0.474999994,-0.412000000,-0.314000010
1701093017.357803,,,,,,,,,,,,,,,,,,,,,,,,,,,,,,,,,,,,,,,,,,,,,,,,,,,,,,,,,,,,,,,,,144595.000000000,1701093017.357643127,-3.259999990,17.239999771,95.629997253,0.481000006,-0.412999988,-0.312000006
1701093017.374125,,,,,,,,,,,,,,,,,,,,,,,,,,,,,,,,,,,,,,,,,,,,,,,,,,,,,,,,,,,,,,,,,144596.000000000,1701093017.373899937,-3.269999981,17.209999084,95.699996948,0.474999994,-0.411000013,-0.310000002
1701093017.390364,,,,,,,,,,,,,,,,,,,,,,,,,,,,,,,,,,,,,,,,,,,,,,,,,,,,,,,,,,,,,,,,,144597.000000000,1701093017.390158176,-3.250000000,17.270000458,95.709999084,0.474000007,-0.412999988,-0.312000006
1701093017.396385,-0.699445069,0.007527950,-0.018823264,0.002363324,-1.339375511,2.672228017,-7.084390216,0.022316217,0.001523274,-0.223369262,0.000373212,-0.000346555,0.165945441,0.000658312,-0.000836634,-0.001396500,-0.000148913,1.000000000,1.000000000,-2.717911889,0.048401417,0.312380942,18.660624489,3.128861666,-17.327771983,32.915609784,-0.627475233,-0.698250145,-0.223369262,0.000000000,0.000000000,0.000000000,0.000000000,0.000000000,-0.015864268,0.000000000,0.000000000,0.000000000,0.000000000,0.000000000,0.000000000,0.000000000,0.000000000,0.000000000,0.000000000,0.787732840,0.000000000,0.000000000,0.000000000,0.000000000,0.000000000,0.000000000,0.000000000,0.000000000,0.000000000,32764.000000000,-0.698911482,-524315568.000000000,32764.000000000,0.000000000,0.000000000,0.007965934,0.165298630,-3.140215435,,,,,,,,
1701093017.406590,,,,,,,,,,,,,,,,,,,,,,,,,,,,,,,,,,,,,,,,,,,,,,,,,,,,,,,,,,,,,,,,,144598.000000000,1701093017.406395912,-3.299999952,17.270000458,95.669998169,0.476999998,-0.411000013,-0.310999990
1701093017.422863,,,,,,,,,,,,,,,,,,,,,,,,,,,,,,,,,,,,,,,,,,,,,,,,,,,,,,,,,,,,,,,,,144599.000000000,1701093017.422652960,-3.299999952,17.239999771,95.639999390,0.477999985,-0.412000000,-0.310999990
1701093017.439133,,,,,,,,,,,,,,,,,,,,,,,,,,,,,,,,,,,,,,,,,,,,,,,,,,,,,,,,,,,,,,,,,144600.000000000,1701093017.438913107,-3.269999981,17.180000305,95.669998169,0.472999990,-0.412000000,-0.310999990
1701093017.455297,,,,,,,,,,,,,,,,,,,,,,,,,,,,,,,,,,,,,,,,,,,,,,,,,,,,,,,,,,,,,,,,,144601.000000000,1701093017.455176353,-3.289999962,17.280000687,95.669998169,0.474000007,-0.412000000,-0.310999990
1701093017.471614,,,,,,,,,,,,,,,,,,,,,,,,,,,,,,,,,,,,,,,,,,,,,,,,,,,,,,,,,,,,,,,,,144602.000000000,1701093017.471410990,-3.250000000,17.250000000,95.720001221,0.476000011,-0.412000000,-0.312999994
1701093017.487917,,,,,,,,,,,,,,,,,,,,,,,,,,,,,,,,,,,,,,,,,,,,,,,,,,,,,,,,,,,,,,,,,144603.000000000,1701093017.487676859,-3.240000010,17.200000763,95.699996948,0.476000011,-0.411000013,-0.310999990
1701093017.497695,-0.699445069,0.007527950,-0.018824025,0.002363056,-1.338875511,2.667728105,-7.093890719,0.022266219,0.001923273,-0.222969259,0.000373222,-0.000346645,0.165945441,0.000658122,-0.000836925,-0.001395738,-0.000148646,1.000000000,1.000000000,-2.721919585,0.048783916,0.312580946,18.661124489,3.128861666,-17.332271895,32.906109281,-0.627693977,-0.697868895,-0.222969259,0.000000000,0.000000000,0.000000000,0.000000000,0.000000000,-0.015864268,0.000000000,0.000000000,0.000000000,0.000000000,0.000000000,0.000000000,0.000000000,0.000000000,0.000000000,0.000000000,0.787732840,0.000000000,0.000000000,0.000000000,0.000000000,0.000000000,0.000000000,0.000000000,0.000000000,0.000000000,32764.000000000,-0.698911557,-524315568.000000000,32764.000000000,0.000000000,0.000000000,0.007966054,0.165298819,-3.140215722,,,,,,,,
1701093017.500143,,,,,,,,,,,,,,,,,,,,,,,,,,,,,,,,,,,,,,,,,,,,,,,,,,,,,,,,,,,,,,,,,144604.000000000,1701093017.499881506,-3.250000000,17.209999084,95.680000305,0.474999994,-0.412000000,-0.308999985
1701093017.516224,,,,,,,,,,,,,,,,,,,,,,,,,,,,,,,,,,,,,,,,,,,,,,,,,,,,,,,,,,,,,,,,,144605.000000000,1701093017.516123295,-3.240000010,17.280000687,95.699996948,0.477999985,-0.412999988,-0.310999990
1701093017.532587,,,,,,,,,,,,,,,,,,,,,,,,,,,,,,,,,,,,,,,,,,,,,,,,,,,,,,,,,,,,,,,,,144606.000000000,1701093017.532354116,-3.269999981,17.280000687,95.690002441,0.476999998,-0.412000000,-0.312999994
1701093017.548900,,,,,,,,,,,,,,,,,,,,,,,,,,,,,,,,,,,,,,,,,,,,,,,,,,,,,,,,,,,,,,,,,144607.000000000,1701093017.548595190,-3.279999971,17.209999084,95.660003662,0.474000007,-0.412999988,-0.312000006
1701093017.565104,,,,,,,,,,,,,,,,,,,,,,,,,,,,,,,,,,,,,,,,,,,,,,,,,,,,,,,,,,,,,,,,,144608.000000000,1701093017.564861298,-3.269999981,17.239999771,95.739997864,0.474999994,-0.411000013,-0.310999990
1701093017.581315,,,,,,,,,,,,,,,,,,,,,,,,,,,,,,,,,,,,,,,,,,,,,,,,,,,,,,,,,,,,,,,,,144609.000000000,1701093017.581114531,-3.289999962,17.250000000,95.720001221,0.477999985,-0.409999996,-0.310999990
1701093017.597579,,,,,,,,,,,,,,,,,,,,,,,,,,,,,,,,,,,,,,,,,,,,,,,,,,,,,,,,,,,,,,,,,144610.000000000,1701093017.597392797,-3.230000019,17.200000763,95.699996948,0.477999985,-0.412999988,-0.312999994
1701093017.597944,-0.699445069,0.007527950,-0.018823750,0.002362956,-1.337875512,2.669728151,-7.093891101,0.022366218,0.001823273,-0.222819258,0.000373242,-0.000346605,0.165945441,0.000658122,-0.000836692,-0.001396013,-0.000148546,1.000000000,1.000000000,-2.721749737,0.048648916,0.312330947,18.662124488,3.128861666,-17.330271849,32.906108899,-0.627518977,-0.698006395,-0.222819258,0.000000000,0.000000000,0.000000000,0.000000000,0.000000000,-0.015864268,0.000000000,0.000000000,0.000000000,0.000000000,0.000000000,0.000000000,0.000000000,0.000000000,0.000000000,0.000000000,0.787732840,0.000000000,0.000000000,0.000000000,0.000000000,0.000000000,0.000000000,0.000000000,0.000000000,0.000000000,32764.000000000,-0.698911507,-524315568.000000000,32764.000000000,0.000000000,0.000000000,0.007965989,0.165298820,-3.140215486,,,,,,,,
1701093017.613885,,,,,,,,,,,,,,,,,,,,,,,,,,,,,,,,,,,,,,,,,,,,,,,,,,,,,,,,,,,,,,,,,144611.000000000,1701093017.613656998,-3.339999914,17.399999619,95.680000305,0.476000011,-0.409999996,-0.310000002
1701093017.630040,,,,,,,,,,,,,,,,,,,,,,,,,,,,,,,,,,,,,,,,,,,,,,,,,,,,,,,,,,,,,,,,,144612.000000000,1701093017.629908562,-3.279999971,17.379999161,95.699996948,0.476999998,-0.412000000,-0.308999985
1701093017.646271,,,,,,,,,,,,,,,,,,,,,,,,,,,,,,,,,,,,,,,,,,,,,,,,,,,,,,,,,,,,,,,,,144613.000000000,1701093017.646136045,-3.349999905,17.190000534,95.699996948,0.479000002,-0.409000009,-0.310000002
1701093017.662665,,,,,,,,,,,,,,,,,,,,,,,,,,,,,,,,,,,,,,,,,,,,,,,,,,,,,,,,,,,,,,,,,144614.000000000,1701093017.662385464,-3.299999952,17.229999542,95.699996948,0.477999985,-0.412000000,-0.312999994
1701093017.678923,,,,,,,,,,,,,,,,,,,,,,,,,,,,,,,,,,,,,,,,,,,,,,,,,,,,,,,,,,,,,,,,,144615.000000000,1701093017.678645134,-3.299999952,17.290000916,95.690002441,0.472000003,-0.409000009,-0.310999990
1701093017.695074,,,,,,,,,,,,,,,,,,,,,,,,,,,,,,,,,,,,,,,,,,,,,,,,,,,,,,,,,,,,,,,,,144616.000000000,1701093017.694892406,-3.250000000,17.260000229,95.669998169,0.479000002,-0.412000000,-0.310000002
1701093017.696224,-0.699445069,0.007527950,-0.018824450,0.002362855,-1.341875496,2.675728288,-7.092891650,0.022416217,0.002023272,-0.222669255,0.000373162,-0.000346485,0.165945441,0.000658142,-0.000836325,-0.001395313,-0.000148446,1.000000000,1.000000000,-2.721089953,0.048988914,0.314080944,18.658124504,3.128861666,-17.324271712,32.907108350,-0.627243972,-0.697656397,-0.222669255,0.000000000,0.000000000,0.000000000,0.000000000,0.000000000,-0.015864268,0.000000000,0.000000000,0.000000000,0.000000000,0.000000000,0.000000000,0.000000000,0.000000000,0.000000000,0.000000000,0.787732840,0.000000000,0.000000000,0.000000000,0.000000000,0.000000000,0.000000000,0.000000000,0.000000000,0.000000000,32764.000000000,-0.698911661,-524315568.000000000,32764.000000000,0.000000000,0.000000000,0.007965830,0.165298796,-3.140215117,,,,,,,,
1701093017.711408,,,,,,,,,,,,,,,,,,,,,,,,,,,,,,,,,,,,,,,,,,,,,,,,,,,,,,,,,,,,,,,,,144617.000000000,1701093017.711140394,-3.279999971,17.280000687,95.669998169,0.481999993,-0.409000009,-0.312000006
1701093017.727563,,,,,,,,,,,,,,,,,,,,,,,,,,,,,,,,,,,,,,,,,,,,,,,,,,,,,,,,,,,,,,,,,144618.000000000,1701093017.727403879,-3.289999962,17.239999771,95.680000305,0.472999990,-0.412999988,-0.312999994
1701093017.743740,,,,,,,,,,,,,,,,,,,,,,,,,,,,,,,,,,,,,,,,,,,,,,,,,,,,,,,,,,,,,,,,,144619.000000000,1701093017.743628740,-3.309999943,17.219999313,95.680000305,0.470999986,-0.411000013,-0.312999994
1701093017.756030,,,,,,,,,,,,,,,,,,,,,,,,,,,,,,,,,,,,,,,,,,,,,,,,,,,,,,,,,,,,,,,,,144620.000000000,1701093017.755810022,-3.269999981,17.239999771,95.709999084,0.476999998,-0.411000013,-0.310999990
1701093017.772326,,,,,,,,,,,,,,,,,,,,,,,,,,,,,,,,,,,,,,,,,,,,,,,,,,,,,,,,,,,,,,,,,144621.000000000,1701093017.772070646,-3.240000010,17.280000687,95.730003357,0.479999989,-0.414000005,-0.312000006
1701093017.788550,,,,,,,,,,,,,,,,,,,,,,,,,,,,,,,,,,,,,,,,,,,,,,,,,,,,,,,,,,,,,,,,,144622.000000000,1701093017.788335323,-3.250000000,17.280000687,95.709999084,0.474000007,-0.412999988,-0.312000006
1701093017.796800,-0.699445069,0.007527950,-0.018824475,0.002362988,-1.340875497,2.678228250,-7.087891345,0.022666215,0.002073271,-0.222869257,0.000373182,-0.000346435,0.165945441,0.000658242,-0.000835867,-0.001395288,-0.000148580,1.000000000,1.000000000,-2.718752334,0.049003914,0.313480942,18.659124503,3.128861666,-17.321771750,32.912108655,-0.626900225,-0.697643898,-0.222869257,0.000000000,0.000000000,0.000000000,0.000000000,0.000000000,-0.015864268,0.000000000,0.000000000,0.000000000,0.000000000,0.000000000,0.000000000,0.000000000,0.000000000,0.000000000,0.000000000,0.787732840,0.000000000,0.000000000,0.000000000,0.000000000,0.000000000,0.000000000,0.000000000,0.000000000,0.000000000,32764.000000000,-0.698911641,-524315568.000000000,32764.000000000,0.000000000,0.000000000,0.007965732,0.165298697,-3.140214662,,,,,,,,
1701093017.804754,,,,,,,,,,,,,,,,,,,,,,,,,,,,,,,,,,,,,,,,,,,,,,,,,,,,,,,,,,,,,,,,,144623.000000000,1701093017.804578066,-3.240000010,17.290000916,95.639999390,0.469999999,-0.412999988,-0.312999994
1701093017.821021,,,,,,,,,,,,,,,,,,,,,,,,,,,,,,,,,,,,,,,,,,,,,,,,,,,,,,,,,,,,,,,,,144624.000000000,1701093017.820841551,-3.240000010,17.250000000,95.639999390,0.474999994,-0.412999988,-0.312000006
1701093017.837306,,,,,,,,,,,,,,,,,,,,,,,,,,,,,,,,,,,,,,,,,,,,,,,,,,,,,,,,,,,,,,,,,144625.000000000,1701093017.837113380,-3.259999990,17.229999542,95.709999084,0.481999993,-0.414000005,-0.312000006
1701093017.853423,,,,,,,,,,,,,,,,,,,,,,,,,,,,,,,,,,,,,,,,,,,,,,,,,,,,,,,,,,,,,,,,,144626.000000000,1701093017.853358269,-3.279999971,17.250000000,95.699996948,0.472000003,-0.409999996,-0.312000006
1701093017.869782,,,,,,,,,,,,,,,,,,,,,,,,,,,,,,,,,,,,,,,,,,,,,,,,,,,,,,,,,,,,,,,,,144627.000000000,1701093017.869586945,-3.289999962,17.250000000,95.690002441,0.469999999,-0.412999988,-0.312000006
1701093017.886048,,,,,,,,,,,,,,,,,,,,,,,,,,,,,,,,,,,,,,,,,,,,,,,,,,,,,,,,,,,,,,,,,144628.000000000,1701093017.885844469,-3.349999905,17.280000687,95.709999084,0.481999993,-0.407999992,-0.312000006
1701093017.896642,-0.699445069,0.007527950,-0.018824988,0.002363187,-1.346375492,2.684728303,-7.091891436,0.022466215,0.002123274,-0.223169261,0.000373072,-0.000346305,0.165945441,0.000658162,-0.000835809,-0.001394775,-0.000148780,1.000000000,1.000000000,-2.720324869,0.049246416,0.315380936,18.653624508,3.128861666,-17.315271697,32.908108564,-0.626856474,-0.697387645,-0.223169261,0.000000000,0.000000000,0.000000000,0.000000000,0.000000000,-0.015864268,0.000000000,0.000000000,0.000000000,0.000000000,0.000000000,0.000000000,0.000000000,0.000000000,0.000000000,0.000000000,0.787732840,0.000000000,0.000000000,0.000000000,0.000000000,0.000000000,0.000000000,0.000000000,0.000000000,0.000000000,32764.000000000,-0.698911807,-524315568.000000000,32764.000000000,0.000000000,0.000000000,0.007965595,0.165298773,-3.140214607,,,,,,,,
1701093017.902154,,,,,,,,,,,,,,,,,,,,,,,,,,,,,,,,,,,,,,,,,,,,,,,,,,,,,,,,,,,,,,,,,144629.000000000,1701093017.902083635,-3.319999933,17.309999466,95.680000305,0.483999997,-0.412000000,-0.310999990
1701093017.918575,,,,,,,,,,,,,,,,,,,,,,,,,,,,,,,,,,,,,,,,,,,,,,,,,,,,,,,,,,,,,,,,,144630.000000000,1701093017.918331623,-3.319999933,17.319999695,95.709999084,0.474000007,-0.409000009,-0.312999994
1701093017.934773,,,,,,,,,,,,,,,,,,,,,,,,,,,,,,,,,,,,,,,,,,,,,,,,,,,,,,,,,,,,,,,,,144631.000000000,1701093017.934589386,-3.269999981,17.319999695,95.720001221,0.474999994,-0.412000000,-0.312999994
1701093017.950875,,,,,,,,,,,,,,,,,,,,,,,,,,,,,,,,,,,,,,,,,,,,,,,,,,,,,,,,,,,,,,,,,144632.000000000,1701093017.950819254,-3.269999981,17.319999695,95.690002441,0.479999989,-0.409999996,-0.312000006
1701093017.967170,,,,,,,,,,,,,,,,,,,,,,,,,,,,,,,,,,,,,,,,,,,,,,,,,,,,,,,,,,,,,,,,,144633.000000000,1701093017.967051506,-3.250000000,17.329999924,95.690002441,0.481000006,-0.412000000,-0.310000002
1701093017.983594,,,,,,,,,,,,,,,,,,,,,,,,,,,,,,,,,,,,,,,,,,,,,,,,,,,,,,,,,,,,,,,,,144634.000000000,1701093017.983307600,-3.299999952,17.340000153,95.699996948,0.474999994,-0.409999996,-0.310999990
1701093017.997856,-0.699445069,0.007527950,-0.018824864,0.002363321,-1.343375495,2.699228254,-7.092390780,0.022616216,0.002173273,-0.223369261,0.000373132,-0.000346015,0.165945441,0.000658152,-0.000834884,-0.001394900,-0.000148913,1.000000000,1.000000000,-2.719867107,0.049191415,0.313980937,18.656624505,3.128861666,-17.300771746,32.907609220,-0.626162725,-0.697450146,-0.223369261,0.000000000,0.000000000,0.000000000,0.000000000,0.000000000,-0.015864268,0.000000000,0.000000000,0.000000000,0.000000000,0.000000000,0.000000000,0.000000000,0.000000000,0.000000000,0.000000000,0.787732840,0.000000000,0.000000000,0.000000000,0.000000000,0.000000000,0.000000000,0.000000000,0.000000000,0.000000000,32764.000000000,-0.698911733,-524315568.000000000,32764.000000000,0.000000000,0.000000000,0.007965207,0.165298784,-3.140213685,,,,,,,,
1701093017.999717,,,,,,,,,,,,,,,,,,,,,,,,,,,,,,,,,,,,,,,,,,,,,,,,,,,,,,,,,,,,,,,,,144635.000000000,1701093017.999565601,-3.299999952,17.299999237,95.669998169,0.472999990,-0.412000000,-0.310999990
1701093018.016023,,,,,,,,,,,,,,,,,,,,,,,,,,,,,,,,,,,,,,,,,,,,,,,,,,,,,,,,,,,,,,,,,144636.000000000,1701093018.015803337,-3.259999990,17.260000229,95.699996948,0.483000010,-0.412999988,-0.310000002
1701093018.028228,,,,,,,,,,,,,,,,,,,,,,,,,,,,,,,,,,,,,,,,,,,,,,,,,,,,,,,,,,,,,,,,,144637.000000000,1701093018.028005362,-3.309999943,17.209999084,95.690002441,0.479999989,-0.411000013,-0.312000006
1701093018.044472,,,,,,,,,,,,,,,,,,,,,,,,,,,,,,,,,,,,,,,,,,,,,,,,,,,,,,,,,,,,,,,,,144638.000000000,1701093018.044271469,-3.170000076,17.350000381,95.699996948,0.470999986,-0.416000009,-0.312999994
1701093018.060663,,,,,,,,,,,,,,,,,,,,,,,,,,,,,,,,,,,,,,,,,,,,,,,,,,,,,,,,,,,,,,,,,144639.000000000,1701093018.060537815,-3.210000038,17.329999924,95.720001221,0.472000003,-0.412000000,-0.312999994
1701093018.076952,,,,,,,,,,,,,,,,,,,,,,,,,,,,,,,,,,,,,,,,,,,,,,,,,,,,,,,,,,,,,,,,,144640.000000000,1701093018.076775312,-3.210000038,17.260000229,95.709999084,0.483000010,-0.414999992,-0.312000006
1701093018.093119,,,,,,,,,,,,,,,,,,,,,,,,,,,,,,,,,,,,,,,,,,,,,,,,,,,,,,,,,,,,,,,,,144641.000000000,1701093018.093024254,-3.259999990,17.209999084,95.699996948,0.474999994,-0.411000013,-0.310999990
1701093018.095845,-0.699445069,0.007527950,-0.018822939,0.002363325,-1.332375506,2.704728093,-7.089391284,0.022766217,0.001623274,-0.223369261,0.000373352,-0.000345905,0.165945441,0.000658212,-0.000834409,-0.001396825,-0.000148913,1.000000000,1.000000000,-2.718324813,0.048256417,0.309580941,18.667624494,3.128861666,-17.295271907,32.910608716,-0.625806480,-0.698412645,-0.223369261,0.000000000,0.000000000,0.000000000,0.000000000,0.000000000,-0.015864268,0.000000000,0.000000000,0.000000000,0.000000000,0.000000000,0.000000000,0.000000000,0.000000000,0.000000000,0.000000000,0.787732840,0.000000000,0.000000000,0.000000000,0.000000000,0.000000000,0.000000000,0.000000000,0.000000000,0.000000000,32764.000000000,-0.698911307,-524315568.000000000,32764.000000000,0.000000000,0.000000000,0.007965048,0.165298732,-3.140213210,,,,,,,,
1701093018.109453,,,,,,,,,,,,,,,,,,,,,,,,,,,,,,,,,,,,,,,,,,,,,,,,,,,,,,,,,,,,,,,,,144642.000000000,1701093018.109257698,-3.250000000,17.209999084,95.709999084,0.470999986,-0.414000005,-0.310999990
1701093018.125755,,,,,,,,,,,,,,,,,,,,,,,,,,,,,,,,,,,,,,,,,,,,,,,,,,,,,,,,,,,,,,,,,144643.000000000,1701093018.125519753,-3.220000029,17.290000916,95.680000305,0.476999998,-0.412000000,-0.312000006
1701093018.142000,,,,,,,,,,,,,,,,,,,,,,,,,,,,,,,,,,,,,,,,,,,,,,,,,,,,,,,,,,,,,,,,,144644.000000000,1701093018.141780376,-3.210000038,17.250000000,95.690002441,0.479999989,-0.414000005,-0.310999990
1701093018.158114,,,,,,,,,,,,,,,,,,,,,,,,,,,,,,,,,,,,,,,,,,,,,,,,,,,,,,,,,,,,,,,,,144645.000000000,1701093018.158028603,-3.220000029,17.170000076,95.720001221,0.474999994,-0.412000000,-0.310999990
1701093018.174450,,,,,,,,,,,,,,,,,,,,,,,,,,,,,,,,,,,,,,,,,,,,,,,,,,,,,,,,,,,,,,,,,144646.000000000,1701093018.174257994,-3.210000038,17.219999313,95.739997864,0.469999999,-0.412000000,-0.312000006
1701093018.190669,,,,,,,,,,,,,,,,,,,,,,,,,,,,,,,,,,,,,,,,,,,,,,,,,,,,,,,,,,,,,,,,,144647.000000000,1701093018.190510273,-3.220000029,17.219999313,95.739997864,0.474000007,-0.412000000,-0.312999994
1701093018.197328,-0.699445069,0.007527950,-0.018822076,0.002363227,-1.320875516,2.695227971,-7.079891162,0.022966216,0.001623271,-0.223219258,0.000373582,-0.000346095,0.165945441,0.000658402,-0.000834617,-0.001397688,-0.000148813,1.000000000,1.000000000,-2.714657270,0.047853914,0.305130948,18.679124484,3.128861666,-17.304772029,32.920108838,-0.625962735,-0.698843897,-0.223219258,0.000000000,0.000000000,0.000000000,0.000000000,0.000000000,-0.015864268,0.000000000,0.000000000,0.000000000,0.000000000,0.000000000,0.000000000,0.000000000,0.000000000,0.000000000,0.000000000,0.787732840,0.000000000,0.000000000,0.000000000,0.000000000,0.000000000,0.000000000,0.000000000,0.000000000,0.000000000,32764.000000000,-0.698910982,-524315568.000000000,32764.000000000,0.000000000,0.000000000,0.007965261,0.165298548,-3.140213417,,,,,,,,
1701093018.206860,,,,,,,,,,,,,,,,,,,,,,,,,,,,,,,,,,,,,,,,,,,,,,,,,,,,,,,,,,,,,,,,,144648.000000000,1701093018.206740379,-3.279999971,17.229999542,95.739997864,0.481000006,-0.411000013,-0.312999994
1701093018.223209,,,,,,,,,,,,,,,,,,,,,,,,,,,,,,,,,,,,,,,,,,,,,,,,,,,,,,,,,,,,,,,,,144649.000000000,1701093018.222986221,-3.319999933,17.270000458,95.709999084,0.477999985,-0.409999996,-0.312999994
1701093018.239486,,,,,,,,,,,,,,,,,,,,,,,,,,,,,,,,,,,,,,,,,,,,,,,,,,,,,,,,,,,,,,,,,144650.000000000,1701093018.239248276,-3.279999971,17.229999542,95.699996948,0.469999999,-0.411000013,-0.312999994
1701093018.255682,,,,,,,,,,,,,,,,,,,,,,,,,,,,,,,,,,,,,,,,,,,,,,,,,,,,,,,,,,,,,,,,,144651.000000000,1701093018.255531073,-3.299999952,17.340000153,95.720001221,0.479999989,-0.412000000,-0.312999994
1701093018.271877,,,,,,,,,,,,,,,,,,,,,,,,,,,,,,,,,,,,,,,,,,,,,,,,,,,,,,,,,,,,,,,,,144652.000000000,1701093018.271763325,-3.289999962,17.329999924,95.730003357,0.481999993,-0.409999996,-0.312000006
1701093018.288208,,,,,,,,,,,,,,,,,,,,,,,,,,,,,,,,,,,,,,,,,,,,,,,,,,,,,,,,,,,,,,,,,144653.000000000,1701093018.288021326,-3.259999990,17.219999313,95.690002441,0.474000007,-0.414000005,-0.310999990
1701093018.297930,-0.699445069,0.007527950,-0.018821389,0.002363362,-1.318375519,2.682227960,-7.075391345,0.022416215,0.001373270,-0.223419257,0.000373632,-0.000346355,0.165945441,0.000658492,-0.000836000,-0.001398375,-0.000148946,1.000000000,1.000000000,-2.713862344,0.047516413,0.303930950,18.681624481,3.128861666,-17.317772040,32.924608655,-0.627000236,-0.699187648,-0.223419257,0.000000000,0.000000000,0.000000000,0.000000000,0.000000000,-0.015864268,0.000000000,0.000000000,0.000000000,0.000000000,0.000000000,0.000000000,0.000000000,0.000000000,0.000000000,0.000000000,0.787732840,0.000000000,0.000000000,0.000000000,0.000000000,0.000000000,0.000000000,0.000000000,0.000000000,0.000000000,32764.000000000,-0.698910859,-524315568.000000000,32764.000000000,0.000000000,0.000000000,0.007965668,0.165298462,-3.140214803,,,,,,,,
1701093018.300404,,,,,,,,,,,,,,,,,,,,,,,,,,,,,,,,,,,,,,,,,,,,,,,,,,,,,,,,,,,,,,,,,144654.000000000,1701093018.300233841,-3.359999895,17.290000916,95.699996948,0.470999986,-0.407999992,-0.314000010
1701093018.316504,,,,,,,,,,,,,,,,,,,,,,,,,,,,,,,,,,,,,,,,,,,,,,,,,,,,,,,,,,,,,,,,,144655.000000000,1701093018.316455841,-3.259999990,17.299999237,95.669998169,0.476999998,-0.414000005,-0.312000006
1701093018.332867,,,,,,,,,,,,,,,,,,,,,,,,,,,,,,,,,,,,,,,,,,,,,,,,,,,,,,,,,,,,,,,,,144656.000000000,1701093018.332693100,-3.309999943,17.250000000,95.660003662,0.479999989,-0.409999996,-0.312000006
1701093018.349185,,,,,,,,,,,,,,,,,,,,,,,,,,,,,,,,,,,,,,,,,,,,,,,,,,,,,,,,,,,,,,,,,144657.000000000,1701093018.348956585,-3.309999943,17.239999771,95.720001221,0.474999994,-0.412000000,-0.310999990
1701093018.365507,,,,,,,,,,,,,,,,,,,,,,,,,,,,,,,,,,,,,,,,,,,,,,,,,,,,,,,,,,,,,,,,,144658.000000000,1701093018.365228891,-3.289999962,17.319999695,95.629997253,0.472999990,-0.411000013,-0.312999994
1701093018.381836,,,,,,,,,,,,,,,,,,,,,,,,,,,,,,,,,,,,,,,,,,,,,,,,,,,,,,,,,,,,,,,,,144659.000000000,1701093018.381667614,-3.269999981,17.280000687,95.669998169,0.476000011,-0.412999988,-0.314000010
1701093018.397831,-0.699445069,0.007527950,-0.018822927,0.002363558,-1.330875507,2.676728025,-7.081891207,0.022316215,0.001673270,-0.223719259,0.000373382,-0.000346465,0.165945441,0.000658362,-0.000836409,-0.001396838,-0.000149146,1.000000000,1.000000000,-2.716754787,0.048253913,0.308630943,18.669124493,3.128861666,-17.323271975,32.918108793,-0.627306484,-0.698418898,-0.223719259,0.000000000,0.000000000,0.000000000,0.000000000,0.000000000,-0.015864268,0.000000000,0.000000000,0.000000000,0.000000000,0.000000000,0.000000000,0.000000000,0.000000000,0.000000000,0.000000000,0.787732840,0.000000000,0.000000000,0.000000000,0.000000000,0.000000000,0.000000000,0.000000000,0.000000000,0.000000000,32764.000000000,-0.698911275,-524315568.000000000,32764.000000000,0.000000000,0.000000000,0.007965820,0.165298584,-3.140215215,,,,,,,,
1701093018.398343,,,,,,,,,,,,,,,,,,,,,,,,,,,,,,,,,,,,,,,,,,,,,,,,,,,,,,,,,,,,,,,,,144660.000000000,1701093018.398070812,-3.329999924,17.219999313,95.660003662,0.477999985,-0.409999996,-0.310999990
1701093018.414677,,,,,,,,,,,,,,,,,,,,,,,,,,,,,,,,,,,,,,,,,,,,,,,,,,,,,,,,,,,,,,,,,144661.000000000,1701093018.414340734,-3.319999933,17.270000458,95.660003662,0.474000007,-0.411000013,-0.312999994
1701093018.430759,,,,,,,,,,,,,,,,,,,,,,,,,,,,,,,,,,,,,,,,,,,,,,,,,,,,,,,,,,,,,,,,,144662.000000000,1701093018.430593491,-3.269999981,17.309999466,95.699996948,0.474000007,-0.412999988,-0.312999994
1701093018.446953,,,,,,,,,,,,,,,,,,,,,,,,,,,,,,,,,,,,,,,,,,,,,,,,,,,,,,,,,,,,,,,,,144663.000000000,1701093018.446817398,-3.269999981,17.250000000,95.709999084,0.477999985,-0.412000000,-0.310999990
1701093018.463417,,,,,,,,,,,,,,,,,,,,,,,,,,,,,,,,,,,,,,,,,,,,,,,,,,,,,,,,,,,,,,,,,144664.000000000,1701093018.463118792,-3.230000019,17.200000763,95.699996948,0.477999985,-0.414000005,-0.308999985
1701093018.479666,,,,,,,,,,,,,,,,,,,,,,,,,,,,,,,,,,,,,,,,,,,,,,,,,,,,,,,,,,,,,,,,,144665.000000000,1701093018.479403734,-3.329999924,17.219999313,95.680000305,0.476000011,-0.409999996,-0.312999994
1701093018.495779,,,,,,,,,,,,,,,,,,,,,,,,,,,,,,,,,,,,,,,,,,,,,,,,,,,,,,,,,,,,,,,,,144666.000000000,1701093018.495674133,-3.309999943,17.239999771,95.680000305,0.474999994,-0.411000013,-0.312999994
1701093018.496223,-0.699445069,0.007527950,-0.018825627,0.002363652,-1.354875484,2.681728044,-7.089891009,0.022416215,0.002123271,-0.223869257,0.000372902,-0.000346365,0.165945441,0.000658202,-0.000836025,-0.001394138,-0.000149246,1.000000000,1.000000000,-2.719679707,0.049543913,0.318080936,18.645124516,3.128861666,-17.318271956,32.910108991,-0.627018983,-0.697068899,-0.223869257,0.000000000,0.000000000,0.000000000,0.000000000,0.000000000,-0.015864268,0.000000000,0.000000000,0.000000000,0.000000000,0.000000000,0.000000000,0.000000000,0.000000000,0.000000000,0.000000000,0.787732840,0.000000000,0.000000000,0.000000000,0.000000000,0.000000000,0.000000000,0.000000000,0.000000000,0.000000000,32764.000000000,-0.698912044,-524315568.000000000,32764.000000000,0.000000000,0.000000000,0.007965678,0.165298728,-3.140214834,,,,,,,,
