__time,/plot_data/data.0,/plot_data/data.1,/plot_data/data.10,/plot_data/data.11,/plot_data/data.12,/plot_data/data.13,/plot_data/data.14,/plot_data/data.15,/plot_data/data.16,/plot_data/data.17,/plot_data/data.18,/plot_data/data.19,/plot_data/data.2,/plot_data/data.20,/plot_data/data.21,/plot_data/data.22,/plot_data/data.23,/plot_data/data.24,/plot_data/data.25,/plot_data/data.26,/plot_data/data.27,/plot_data/data.28,/plot_data/data.29,/plot_data/data.3,/plot_data/data.30,/plot_data/data.31,/plot_data/data.32,/plot_data/data.33,/plot_data/data.34,/plot_data/data.35,/plot_data/data.36,/plot_data/data.37,/plot_data/data.38,/plot_data/data.39,/plot_data/data.4,/plot_data/data.40,/plot_data/data.41,/plot_data/data.42,/plot_data/data.43,/plot_data/data.44,/plot_data/data.45,/plot_data/data.46,/plot_data/data.47,/plot_data/data.48,/plot_data/data.49,/plot_data/data.5,/plot_data/data.50,/plot_data/data.51,/plot_data/data.52,/plot_data/data.53,/plot_data/data.54,/plot_data/data.55,/plot_data/data.56,/plot_data/data.57,/plot_data/data.58,/plot_data/data.59,/plot_data/data.6,/plot_data/data.60,/plot_data/data.61,/plot_data/data.62,/plot_data/data.63,/plot_data/data.7,/plot_data/data.8,/plot_data/data.9,/robotiq_ft_wrench/header/seq,/robotiq_ft_wrench/header/stamp,/robotiq_ft_wrench/wrench/force/x,/robotiq_ft_wrench/wrench/force/y,/robotiq_ft_wrench/wrench/force/z,/robotiq_ft_wrench/wrench/torque/x,/robotiq_ft_wrench/wrench/torque/y,/robotiq_ft_wrench/wrench/torque/z
1701093325.860742,,,,,,,,,,,,,,,,,,,,,,,,,,,,,,,,,,,,,,,,,,,,,,,,,,,,,,,,,,,,,,,,,163867.000000000,1701093325.860380173,0.000000000,14.760000229,94.660003662,0.238000005,-0.446999997,-0.138999999
1701093325.877024,,,,,,,,,,,,,,,,,,,,,,,,,,,,,,,,,,,,,,,,,,,,,,,,,,,,,,,,,,,,,,,,,163868.000000000,1701093325.876670361,0.010000000,14.670000076,94.699996948,0.232999995,-0.446999997,-0.137999997
1701093325.893281,,,,,,,,,,,,,,,,,,,,,,,,,,,,,,,,,,,,,,,,,,,,,,,,,,,,,,,,,,,,,,,,,163869.000000000,1701093325.892941952,0.000000000,14.699999809,94.750000000,0.231999993,-0.448000014,-0.136999995
1701093325.909518,,,,,,,,,,,,,,,,,,,,,,,,,,,,,,,,,,,,,,,,,,,,,,,,,,,,,,,,,,,,,,,,,163870.000000000,1701093325.909253359,0.020000000,14.779999733,94.730003357,0.236000001,-0.446999997,-0.141000003
1701093325.925871,,,,,,,,,,,,,,,,,,,,,,,,,,,,,,,,,,,,,,,,,,,,,,,,,,,,,,,,,,,,,,,,,163871.000000000,1701093325.925525188,0.020000000,14.760000229,94.760002136,0.236000001,-0.448000014,-0.138999999
1701093325.942059,,,,,,,,,,,,,,,,,,,,,,,,,,,,,,,,,,,,,,,,,,,,,,,,,,,,,,,,,,,,,,,,,163872.000000000,1701093325.941785336,0.010000000,14.779999733,94.720001221,0.234999999,-0.446999997,-0.138999999
1701093325.958269,,,,,,,,,,,,,,,,,,,,,,,,,,,,,,,,,,,,,,,,,,,,,,,,,,,,,,,,,,,,,,,,,163873.000000000,1701093325.958021164,0.010000000,14.850000381,94.699996948,0.236000001,-0.448000014,-0.138999999
1701093325.974596,,,,,,,,,,,,,,,,,,,,,,,,,,,,,,,,,,,,,,,,,,,,,,,,,,,,,,,,,,,,,,,,,163874.000000000,1701093325.974277020,0.070000000,14.840000153,94.730003357,0.237000003,-0.449999988,-0.140000001
1701093325.990803,,,,,,,,,,,,,,,,,,,,,,,,,,,,,,,,,,,,,,,,,,,,,,,,,,,,,,,,,,,,,,,,,163875.000000000,1701093325.990545988,0.020000000,14.779999733,94.720001221,0.238000005,-0.448000014,-0.141000003
1701093325.997559,-0.699445069,0.007527950,-0.018507134,0.002248738,1.937624477,0.213728252,-8.073889880,-0.217933780,-0.033526734,-0.050469260,0.000438752,-0.000395725,0.165945441,0.000638522,-0.001279892,-0.001712375,-0.000033646,1.000000000,1.000000000,-3.440009243,-0.101343591,-0.825519051,21.937624477,3.128861666,-19.786271748,31.926110120,-0.959918971,-0.856187652,-0.050469260,0.000000000,0.000000000,0.000000000,0.000000000,0.000000000,-0.015864268,0.000000000,0.000000000,0.000000000,0.000000000,0.000000000,0.000000000,0.000000000,0.000000000,0.000000000,0.000000000,0.787732840,0.000000000,0.000000000,0.000000000,0.000000000,0.000000000,0.000000000,0.000000000,0.000000000,0.000000000,32764.000000000,-0.698813054,-524315568.000000000,32764.000000000,0.000000000,0.000000000,0.008062291,0.165320530,-3.140656376,,,,,,,,
1701093326.006909,,,,,,,,,,,,,,,,,,,,,,,,,,,,,,,,,,,,,,,,,,,,,,,,,,,,,,,,,,,,,,,,,163876.000000000,1701093326.006795883,0.000000000,14.859999657,94.750000000,0.234999999,-0.448000014,-0.140000001
1701093326.019243,,,,,,,,,,,,,,,,,,,,,,,,,,,,,,,,,,,,,,,,,,,,,,,,,,,,,,,,,,,,,,,,,163877.000000000,1701093326.018969059,0.000000000,14.859999657,94.769996643,0.234999999,-0.446999997,-0.140000001
1701093326.035490,,,,,,,,,,,,,,,,,,,,,,,,,,,,,,,,,,,,,,,,,,,,,,,,,,,,,,,,,,,,,,,,,163878.000000000,1701093326.035237074,0.029999999,14.789999962,94.760002136,0.237000003,-0.446000010,-0.137999997
1701093326.051594,,,,,,,,,,,,,,,,,,,,,,,,,,,,,,,,,,,,,,,,,,,,,,,,,,,,,,,,,,,,,,,,,163879.000000000,1701093326.051486731,0.010000000,14.739999771,94.769996643,0.237000003,-0.444999993,-0.137999997
1701093326.067930,,,,,,,,,,,,,,,,,,,,,,,,,,,,,,,,,,,,,,,,,,,,,,,,,,,,,,,,,,,,,,,,,163880.000000000,1701093326.067721605,0.029999999,14.760000229,94.699996948,0.234999999,-0.446999997,-0.141000003
1701093326.084217,,,,,,,,,,,,,,,,,,,,,,,,,,,,,,,,,,,,,,,,,,,,,,,,,,,,,,,,,,,,,,,,,163881.000000000,1701093326.083981037,-0.039999999,14.739999771,94.760002136,0.233999997,-0.444999993,-0.138999999
1701093326.100327,,,,,,,,,,,,,,,,,,,,,,,,,,,,,,,,,,,,,,,,,,,,,,,,,,,,,,,,,,,,,,,,,163882.000000000,1701093326.100233793,-0.010000000,14.789999962,94.769996643,0.237000003,-0.446999997,-0.138999999
1701093326.102127,-0.699445069,0.007527950,-0.018506709,0.002248905,1.944624477,0.203728166,-8.052890734,-0.217733780,-0.033476732,-0.050719260,0.000438892,-0.000395925,0.165945441,0.000638942,-0.001280125,-0.001712800,-0.000033813,1.000000000,1.000000000,-3.431759588,-0.101538588,-0.828569051,21.944624477,3.128861666,-19.796271834,31.947109266,-0.960093974,-0.856400149,-0.050719260,0.000000000,0.000000000,0.000000000,0.000000000,0.000000000,-0.015864268,0.000000000,0.000000000,0.000000000,0.000000000,0.000000000,0.000000000,0.000000000,0.000000000,0.000000000,0.000000000,0.787732840,0.000000000,0.000000000,0.000000000,0.000000000,0.000000000,0.000000000,0.000000000,0.000000000,0.000000000,32764.000000000,-0.698812861,-524315568.000000000,32764.000000000,0.000000000,0.000000000,0.008062518,0.165320114,-3.140656612,,,,,,,,
1701093326.116665,,,,,,,,,,,,,,,,,,,,,,,,,,,,,,,,,,,,,,,,,,,,,,,,,,,,,,,,,,,,,,,,,163883.000000000,1701093326.116483212,0.000000000,14.890000343,94.709999084,0.238000005,-0.446000010,-0.137999997
1701093326.133047,,,,,,,,,,,,,,,,,,,,,,,,,,,,,,,,,,,,,,,,,,,,,,,,,,,,,,,,,,,,,,,,,163884.000000000,1701093326.132774115,0.020000000,14.859999657,94.709999084,0.238000005,-0.446000010,-0.138999999
1701093326.149142,,,,,,,,,,,,,,,,,,,,,,,,,,,,,,,,,,,,,,,,,,,,,,,,,,,,,,,,,,,,,,,,,163885.000000000,1701093326.149025679,-0.029999999,14.770000458,94.709999084,0.233999997,-0.446000010,-0.140000001
1701093326.165530,,,,,,,,,,,,,,,,,,,,,,,,,,,,,,,,,,,,,,,,,,,,,,,,,,,,,,,,,,,,,,,,,163886.000000000,1701093326.165281296,-0.050000001,14.859999657,94.709999084,0.238000005,-0.446000010,-0.140000001
1701093326.181793,,,,,,,,,,,,,,,,,,,,,,,,,,,,,,,,,,,,,,,,,,,,,,,,,,,,,,,,,,,,,,,,,163887.000000000,1701093326.181555271,-0.010000000,14.800000191,94.730003357,0.238000005,-0.446999997,-0.140000001
1701093326.197301,-0.699445069,0.007527950,-0.018507172,0.002248971,1.941124477,0.214228120,-8.050390963,-0.217833780,-0.033376731,-0.050819261,0.000438822,-0.000395715,0.165945441,0.000638992,-0.001279734,-0.001712338,-0.000033880,1.000000000,1.000000000,-3.430492181,-0.101316088,-0.827269052,21.941124477,3.128861666,-19.785771880,31.949609037,-0.959800225,-0.856168899,-0.050819261,0.000000000,0.000000000,0.000000000,0.000000000,0.000000000,-0.015864268,0.000000000,0.000000000,0.000000000,0.000000000,0.000000000,0.000000000,0.000000000,0.000000000,0.000000000,0.000000000,0.787732840,0.000000000,0.000000000,0.000000000,0.000000000,0.000000000,0.000000000,0.000000000,0.000000000,0.000000000,32764.000000000,-0.698812979,-524315568.000000000,32764.000000000,0.000000000,0.000000000,0.008062266,0.165320061,-3.140656222,,,,,,,,
1701093326.198005,,,,,,,,,,,,,,,,,,,,,,,,,,,,,,,,,,,,,,,,,,,,,,,,,,,,,,,,,,,,,,,,,163888.000000000,1701093326.197823524,-0.010000000,14.739999771,94.790000916,0.233999997,-0.446000010,-0.137999997
1701093326.214343,,,,,,,,,,,,,,,,,,,,,,,,,,,,,,,,,,,,,,,,,,,,,,,,,,,,,,,,,,,,,,,,,163889.000000000,1701093326.214082241,0.010000000,14.760000229,94.790000916,0.233999997,-0.446000010,-0.136999995
1701093326.230610,,,,,,,,,,,,,,,,,,,,,,,,,,,,,,,,,,,,,,,,,,,,,,,,,,,,,,,,,,,,,,,,,163890.000000000,1701093326.230366945,0.000000000,14.819999695,94.750000000,0.239999995,-0.444000006,-0.136999995
1701093326.246831,,,,,,,,,,,,,,,,,,,,,,,,,,,,,,,,,,,,,,,,,,,,,,,,,,,,,,,,,,,,,,,,,163891.000000000,1701093326.246639729,-0.010000000,14.859999657,94.660003662,0.238000005,-0.446999997,-0.143000007
1701093326.262999,,,,,,,,,,,,,,,,,,,,,,,,,,,,,,,,,,,,,,,,,,,,,,,,,,,,,,,,,,,,,,,,,163892.000000000,1701093326.262871504,-0.010000000,14.800000191,94.720001221,0.231999993,-0.444999993,-0.142000005
1701093326.275312,,,,,,,,,,,,,,,,,,,,,,,,,,,,,,,,,,,,,,,,,,,,,,,,,,,,,,,,,,,,,,,,,163893.000000000,1701093326.275068760,0.000000000,14.729999542,94.860000610,0.234999999,-0.446000010,-0.136999995
1701093326.291682,,,,,,,,,,,,,,,,,,,,,,,,,,,,,,,,,,,,,,,,,,,,,,,,,,,,,,,,,,,,,,,,,163894.000000000,1701093326.291332960,-0.010000000,14.720000267,94.839996338,0.239999995,-0.444000006,-0.134000003
1701093326.297588,-0.699445069,0.007527950,-0.018509509,0.002248799,1.932624477,0.216728082,-8.034390979,-0.217433780,-0.032526732,-0.050569261,0.000438652,-0.000395665,0.165945441,0.000639312,-0.001279075,-0.001710000,-0.000033713,1.000000000,1.000000000,-3.423604689,-0.100168589,-0.823619052,21.932624477,3.128861666,-19.783271918,31.965609021,-0.959306477,-0.855000150,-0.050569261,0.000000000,0.000000000,0.000000000,0.000000000,0.000000000,-0.015864268,0.000000000,0.000000000,0.000000000,0.000000000,0.000000000,0.000000000,0.000000000,0.000000000,0.000000000,0.000000000,0.787732840,0.000000000,0.000000000,0.000000000,0.000000000,0.000000000,0.000000000,0.000000000,0.000000000,0.000000000,32764.000000000,-0.698813390,-524315568.000000000,32764.000000000,0.000000000,0.000000000,0.008062146,0.165319733,-3.140655560,,,,,,,,
1701093326.307866,,,,,,,,,,,,,,,,,,,,,,,,,,,,,,,,,,,,,,,,,,,,,,,,,,,,,,,,,,,,,,,,,163895.000000000,1701093326.307603359,-0.010000000,14.810000420,94.669998169,0.240999997,-0.446000010,-0.137999997
1701093326.324220,,,,,,,,,,,,,,,,,,,,,,,,,,,,,,,,,,,,,,,,,,,,,,,,,,,,,,,,,,,,,,,,,163896.000000000,1701093326.323864460,-0.020000000,14.939999580,94.730003357,0.231999993,-0.449000001,-0.141000003
1701093326.340470,,,,,,,,,,,,,,,,,,,,,,,,,,,,,,,,,,,,,,,,,,,,,,,,,,,,,,,,,,,,,,,,,163897.000000000,1701093326.340148926,-0.029999999,14.890000343,94.730003357,0.231999993,-0.446000010,-0.142000005
1701093326.356591,,,,,,,,,,,,,,,,,,,,,,,,,,,,,,,,,,,,,,,,,,,,,,,,,,,,,,,,,,,,,,,,,163898.000000000,1701093326.356406927,0.039999999,14.739999771,94.760002136,0.241999999,-0.449000001,-0.137999997
1701093326.372870,,,,,,,,,,,,,,,,,,,,,,,,,,,,,,,,,,,,,,,,,,,,,,,,,,,,,,,,,,,,,,,,,163899.000000000,1701093326.372626543,0.000000000,14.720000267,94.769996643,0.243000001,-0.446000010,-0.134000003
1701093326.389175,,,,,,,,,,,,,,,,,,,,,,,,,,,,,,,,,,,,,,,,,,,,,,,,,,,,,,,,,,,,,,,,,163900.000000000,1701093326.388892651,0.000000000,14.779999733,94.680000305,0.231999993,-0.448000014,-0.141000003
1701093326.405292,,,,,,,,,,,,,,,,,,,,,,,,,,,,,,,,,,,,,,,,,,,,,,,,,,,,,,,,,,,,,,,,,163901.000000000,1701093326.405144930,0.000000000,14.789999962,94.750000000,0.234999999,-0.446000010,-0.140000001
1701093326.421505,,,,,,,,,,,,,,,,,,,,,,,,,,,,,,,,,,,,,,,,,,,,,,,,,,,,,,,,,,,,,,,,,163902.000000000,1701093326.421403885,0.029999999,14.779999733,94.769996643,0.240999997,-0.449000001,-0.140000001
1701093326.435841,-0.699445069,0.007527950,-0.018509022,0.002248733,1.931124477,0.223228135,-8.041390567,-0.216933782,-0.032826734,-0.050469261,0.000438622,-0.000395535,0.165945441,0.000639172,-0.001278084,-0.001710488,-0.000033646,1.000000000,1.000000000,-3.425677024,-0.100416091,-0.822919052,21.931124477,3.128861666,-19.776771865,31.958609433,-0.958562727,-0.855243902,-0.050469261,0.000000000,0.000000000,0.000000000,0.000000000,0.000000000,-0.015864268,0.000000000,0.000000000,0.000000000,0.000000000,0.000000000,0.000000000,0.000000000,0.000000000,0.000000000,0.000000000,0.787732840,0.000000000,0.000000000,0.000000000,0.000000000,0.000000000,0.000000000,0.000000000,0.000000000,0.000000000,32764.000000000,-0.698813370,-524315568.000000000,32764.000000000,0.000000000,0.000000000,0.008061910,0.165319873,-3.140654567,,,,,,,,
1701093326.437876,,,,,,,,,,,,,,,,,,,,,,,,,,,,,,,,,,,,,,,,,,,,,,,,,,,,,,,,,,,,,,,,,163903.000000000,1701093326.437671661,0.000000000,14.850000381,94.730003357,0.238999993,-0.446000010,-0.136999995
1701093326.454140,,,,,,,,,,,,,,,,,,,,,,,,,,,,,,,,,,,,,,,,,,,,,,,,,,,,,,,,,,,,,,,,,163904.000000000,1701093326.453933954,0.010000000,14.859999657,94.739997864,0.236000001,-0.449000001,-0.138999999
1701093326.470331,,,,,,,,,,,,,,,,,,,,,,,,,,,,,,,,,,,,,,,,,,,,,,,,,,,,,,,,,,,,,,,,,163905.000000000,1701093326.470214367,-0.020000000,14.840000153,94.769996643,0.236000001,-0.446000010,-0.141000003
1701093326.486808,,,,,,,,,,,,,,,,,,,,,,,,,,,,,,,,,,,,,,,,,,,,,,,,,,,,,,,,,,,,,,,,,163906.000000000,1701093326.486492395,-0.090000004,14.750000000,94.739997864,0.239999995,-0.442999989,-0.140000001
1701093326.496955,-0.699445069,0.007527950,-0.018509172,0.002248733,1.929124477,0.219228139,-8.034390597,-0.216783784,-0.032826732,-0.050469261,0.000438582,-0.000395615,0.165945441,0.000639312,-0.001278084,-0.001710338,-0.000033646,1.000000000,1.000000000,-3.422867038,-0.100346089,-0.822119052,21.929124477,3.128861666,-19.780771861,31.965609403,-0.958562728,-0.855168900,-0.050469261,0.000000000,0.000000000,0.000000000,0.000000000,0.000000000,-0.015864268,0.000000000,0.000000000,0.000000000,0.000000000,0.000000000,0.000000000,0.000000000,0.000000000,0.000000000,0.000000000,0.787732840,0.000000000,0.000000000,0.000000000,0.000000000,0.000000000,0.000000000,0.000000000,0.000000000,0.000000000,32764.000000000,-0.698813424,-524315568.000000000,32764.000000000,0.000000000,0.000000000,0.008061991,0.165319732,-3.140654567,,,,,,,,
1701093326.502856,,,,,,,,,,,,,,,,,,,,,,,,,,,,,,,,,,,,,,,,,,,,,,,,,,,,,,,,,,,,,,,,,163907.000000000,1701093326.502737045,-0.070000000,14.760000229,94.769996643,0.238999993,-0.442999989,-0.138999999
1701093326.519208,,,,,,,,,,,,,,,,,,,,,,,,,,,,,,,,,,,,,,,,,,,,,,,,,,,,,,,,,,,,,,,,,163908.000000000,1701093326.518977642,-0.010000000,14.869999886,94.800003052,0.236000001,-0.444999993,-0.138999999
1701093326.531453,,,,,,,,,,,,,,,,,,,,,,,,,,,,,,,,,,,,,,,,,,,,,,,,,,,,,,,,,,,,,,,,,163909.000000000,1701093326.531181812,-0.039999999,14.850000381,94.739997864,0.237000003,-0.442999989,-0.142000005
1701093326.547738,,,,,,,,,,,,,,,,,,,,,,,,,,,,,,,,,,,,,,,,,,,,,,,,,,,,,,,,,,,,,,,,,163910.000000000,1701093326.547461033,0.000000000,14.829999924,94.760002136,0.241999999,-0.444999993,-0.136999995
1701093326.563768,,,,,,,,,,,,,,,,,,,,,,,,,,,,,,,,,,,,,,,,,,,,,,,,,,,,,,,,,,,,,,,,,163911.000000000,1701093326.563712120,0.000000000,14.800000191,94.779998779,0.237000003,-0.446000010,-0.137999997
1701093326.580045,,,,,,,,,,,,,,,,,,,,,,,,,,,,,,,,,,,,,,,,,,,,,,,,,,,,,,,,,,,,,,,,,163912.000000000,1701093326.579948664,0.000000000,14.779999733,94.709999084,0.232999995,-0.444999993,-0.137999997
1701093326.596622,,,,,,,,,,,,,,,,,,,,,,,,,,,,,,,,,,,,,,,,,,,,,,,,,,,,,,,,,,,,,,,,,163913.000000000,1701093326.596313953,-0.039999999,14.770000458,94.750000000,0.236000001,-0.444999993,-0.143000007
1701093326.597644,-0.699445069,0.007527950,-0.018510559,0.002248797,1.922624477,0.226728215,-8.033891253,-0.216333783,-0.032376729,-0.050569262,0.000438452,-0.000395465,0.165945441,0.000639322,-0.001277109,-0.001708950,-0.000033713,1.000000000,1.000000000,-3.421954797,-0.099668586,-0.819619053,21.922624477,3.128861666,-19.773271785,31.966108747,-0.957831475,-0.854475147,-0.050569262,0.000000000,0.000000000,0.000000000,0.000000000,0.000000000,-0.015864268,0.000000000,0.000000000,0.000000000,0.000000000,0.000000000,0.000000000,0.000000000,0.000000000,0.000000000,0.000000000,0.787732840,0.000000000,0.000000000,0.000000000,0.000000000,0.000000000,0.000000000,0.000000000,0.000000000,0.000000000,32764.000000000,-0.698813700,-524315568.000000000,32764.000000000,0.000000000,0.000000000,0.008061736,0.165319717,-3.140653594,,,,,,,,
1701093326.612990,,,,,,,,,,,,,,,,,,,,,,,,,,,,,,,,,,,,,,,,,,,,,,,,,,,,,,,,,,,,,,,,,163914.000000000,1701093326.612767935,-0.050000001,14.789999962,94.769996643,0.238999993,-0.442999989,-0.142000005
1701093326.629172,,,,,,,,,,,,,,,,,,,,,,,,,,,,,,,,,,,,,,,,,,,,,,,,,,,,,,,,,,,,,,,,,163915.000000000,1701093326.629055738,0.010000000,14.850000381,94.819999695,0.238999993,-0.446999997,-0.136000007
1701093326.645694,,,,,,,,,,,,,,,,,,,,,,,,,,,,,,,,,,,,,,,,,,,,,,,,,,,,,,,,,,,,,,,,,163916.000000000,1701093326.645466566,0.039999999,14.819999695,94.769996643,0.238000005,-0.446000010,-0.137999997
1701093326.662019,,,,,,,,,,,,,,,,,,,,,,,,,,,,,,,,,,,,,,,,,,,,,,,,,,,,,,,,,,,,,,,,,163917.000000000,1701093326.661800623,0.000000000,14.840000153,94.760002136,0.238000005,-0.444999993,-0.140000001
1701093326.678354,,,,,,,,,,,,,,,,,,,,,,,,,,,,,,,,,,,,,,,,,,,,,,,,,,,,,,,,,,,,,,,,,163918.000000000,1701093326.678190470,-0.050000001,14.779999733,94.730003357,0.236000001,-0.444999993,-0.141000003
1701093326.694839,,,,,,,,,,,,,,,,,,,,,,,,,,,,,,,,,,,,,,,,,,,,,,,,,,,,,,,,,,,,,,,,,163919.000000000,1701093326.694502115,-0.029999999,14.779999733,94.809997559,0.237000003,-0.444999993,-0.136000007
1701093326.697371,-0.699445069,0.007527950,-0.018511647,0.002248994,1.920124477,0.228728166,-8.025891452,-0.216483782,-0.031926726,-0.050869262,0.000438402,-0.000395425,0.165945441,0.000639482,-0.001277209,-0.001707863,-0.000033913,1.000000000,1.000000000,-3.418834877,-0.099131083,-0.818919053,21.920124477,3.128861666,-19.771271834,31.974108548,-0.957906476,-0.853931394,-0.050869262,0.000000000,0.000000000,0.000000000,0.000000000,0.000000000,-0.015864268,0.000000000,0.000000000,0.000000000,0.000000000,0.000000000,0.000000000,0.000000000,0.000000000,0.000000000,0.000000000,0.787732840,0.000000000,0.000000000,0.000000000,0.000000000,0.000000000,0.000000000,0.000000000,0.000000000,0.000000000,32764.000000000,-0.698813862,-524315568.000000000,32764.000000000,0.000000000,0.000000000,0.008061707,0.165319553,-3.140653698,,,,,,,,
1701093326.711115,,,,,,,,,,,,,,,,,,,,,,,,,,,,,,,,,,,,,,,,,,,,,,,,,,,,,,,,,,,,,,,,,163920.000000000,1701093326.710792780,0.039999999,14.819999695,94.769996643,0.238000005,-0.446000010,-0.137999997
1701093326.727418,,,,,,,,,,,,,,,,,,,,,,,,,,,,,,,,,,,,,,,,,,,,,,,,,,,,,,,,,,,,,,,,,163921.000000000,1701093326.727058411,-0.020000000,14.819999695,94.779998779,0.239999995,-0.444999993,-0.138999999
1701093326.739454,,,,,,,,,,,,,,,,,,,,,,,,,,,,,,,,,,,,,,,,,,,,,,,,,,,,,,,,,,,,,,,,,163922.000000000,1701093326.739235640,-0.029999999,14.819999695,94.790000916,0.238999993,-0.444000006,-0.140000001
1701093326.755828,,,,,,,,,,,,,,,,,,,,,,,,,,,,,,,,,,,,,,,,,,,,,,,,,,,,,,,,,,,,,,,,,163923.000000000,1701093326.755479813,-0.010000000,14.880000114,94.720001221,0.236000001,-0.444000006,-0.136999995
1701093326.772011,,,,,,,,,,,,,,,,,,,,,,,,,,,,,,,,,,,,,,,,,,,,,,,,,,,,,,,,,,,,,,,,,163924.000000000,1701093326.771745682,-0.029999999,14.859999657,94.699996948,0.238000005,-0.442999989,-0.136999995
1701093326.788254,,,,,,,,,,,,,,,,,,,,,,,,,,,,,,,,,,,,,,,,,,,,,,,,,,,,,,,,,,,,,,,,,163925.000000000,1701093326.788012505,0.000000000,14.829999924,94.830001831,0.241999999,-0.444999993,-0.136999995
1701093326.797035,-0.699445069,0.007527950,-0.018513609,0.002248657,1.916624477,0.235228124,-8.018391375,-0.215783782,-0.031076724,-0.050369261,0.000438332,-0.000395295,0.165945441,0.000639632,-0.001275950,-0.001705900,-0.000033580,1.000000000,1.000000000,-3.414907347,-0.098158580,-0.817019052,21.916624477,3.128861666,-19.764771876,31.981608625,-0.956962727,-0.852950142,-0.050369261,0.000000000,0.000000000,0.000000000,0.000000000,0.000000000,-0.015864268,0.000000000,0.000000000,0.000000000,0.000000000,0.000000000,0.000000000,0.000000000,0.000000000,0.000000000,0.000000000,0.787732840,0.000000000,0.000000000,0.000000000,0.000000000,0.000000000,0.000000000,0.000000000,0.000000000,0.000000000,32764.000000000,-0.698814137,-524315568.000000000,32764.000000000,0.000000000,0.000000000,0.008061443,0.165319398,-3.140652432,,,,,,,,
1701093326.804735,,,,,,,,,,,,,,,,,,,,,,,,,,,,,,,,,,,,,,,,,,,,,,,,,,,,,,,,,,,,,,,,,163926.000000000,1701093326.804491043,0.000000000,14.859999657,94.819999695,0.241999999,-0.444999993,-0.136999995
1701093326.821068,,,,,,,,,,,,,,,,,,,,,,,,,,,,,,,,,,,,,,,,,,,,,,,,,,,,,,,,,,,,,,,,,163927.000000000,1701093326.820791245,0.039999999,14.829999924,94.769996643,0.237000003,-0.446999997,-0.140000001
1701093326.837315,,,,,,,,,,,,,,,,,,,,,,,,,,,,,,,,,,,,,,,,,,,,,,,,,,,,,,,,,,,,,,,,,163928.000000000,1701093326.837072372,-0.050000001,14.899999619,94.779998779,0.243000001,-0.444999993,-0.137999997
1701093326.853454,,,,,,,,,,,,,,,,,,,,,,,,,,,,,,,,,,,,,,,,,,,,,,,,,,,,,,,,,,,,,,,,,163929.000000000,1701093326.853308916,-0.050000001,14.930000305,94.750000000,0.243000001,-0.444000006,-0.142000005
1701093326.869793,,,,,,,,,,,,,,,,,,,,,,,,,,,,,,,,,,,,,,,,,,,,,,,,,,,,,,,,,,,,,,,,,163930.000000000,1701093326.869558811,-0.010000000,14.920000076,94.830001831,0.238000005,-0.446999997,-0.137999997
1701093326.886093,,,,,,,,,,,,,,,,,,,,,,,,,,,,,,,,,,,,,,,,,,,,,,,,,,,,,,,,,,,,,,,,,163931.000000000,1701093326.885820389,0.029999999,14.840000153,94.839996338,0.236000001,-0.446999997,-0.137999997
1701093326.902187,,,,,,,,,,,,,,,,,,,,,,,,,,,,,,,,,,,,,,,,,,,,,,,,,,,,,,,,,,,,,,,,,163932.000000000,1701093326.902086020,0.020000000,14.829999924,94.830001831,0.241999999,-0.446999997,-0.138999999
1701093326.917662,-0.699445069,0.007527950,-0.018511696,0.002248627,1.926124477,0.258728090,-8.002391391,-0.214933781,-0.031676725,-0.050319261,0.000438522,-0.000394825,0.165945441,0.000639952,-0.001273642,-0.001707813,-0.000033546,1.000000000,1.000000000,-3.406834854,-0.099091082,-0.820769052,21.926124477,3.128861666,-19.741271910,31.997608609,-0.955231477,-0.853906393,-0.050319261,0.000000000,0.000000000,0.000000000,0.000000000,0.000000000,-0.015864268,0.000000000,0.000000000,0.000000000,0.000000000,0.000000000,0.000000000,0.000000000,0.000000000,0.000000000,0.000000000,0.787732840,0.000000000,0.000000000,0.000000000,0.000000000,0.000000000,0.000000000,0.000000000,0.000000000,0.000000000,32764.000000000,-0.698813736,-524315568.000000000,32764.000000000,0.000000000,0.000000000,0.008060730,0.165319084,-3.140650124,,,,,,,,
1701093326.918483,,,,,,,,,,,,,,,,,,,,,,,,,,,,,,,,,,,,,,,,,,,,,,,,,,,,,,,,,,,,,,,,,163933.000000000,1701093326.918343067,-0.059999999,14.899999619,94.769996643,0.241999999,-0.442000002,-0.140000001
1701093326.934922,,,,,,,,,,,,,,,,,,,,,,,,,,,,,,,,,,,,,,,,,,,,,,,,,,,,,,,,,,,,,,,,,163934.000000000,1701093326.934626341,-0.059999999,14.890000343,94.760002136,0.238000005,-0.444999993,-0.141000003
1701093326.951030,,,,,,,,,,,,,,,,,,,,,,,,,,,,,,,,,,,,,,,,,,,,,,,,,,,,,,,,,,,,,,,,,163935.000000000,1701093326.950887918,-0.050000001,14.909999847,94.750000000,0.237000003,-0.442999989,-0.138999999
1701093326.967257,,,,,,,,,,,,,,,,,,,,,,,,,,,,,,,,,,,,,,,,,,,,,,,,,,,,,,,,,,,,,,,,,163936.000000000,1701093326.967110157,0.070000000,14.800000191,94.819999695,0.239999995,-0.449000001,-0.138999999
1701093326.983619,,,,,,,,,,,,,,,,,,,,,,,,,,,,,,,,,,,,,,,,,,,,,,,,,,,,,,,,,,,,,,,,,163937.000000000,1701093326.983356476,0.010000000,14.760000229,94.860000610,0.243000001,-0.442999989,-0.136000007
1701093326.995800,,,,,,,,,,,,,,,,,,,,,,,,,,,,,,,,,,,,,,,,,,,,,,,,,,,,,,,,,,,,,,,,,163938.000000000,1701093326.995567799,-0.079999998,14.789999962,94.790000916,0.234999999,-0.442999989,-0.141000003
1701093326.997745,-0.699445069,0.007527950,-0.018512596,0.002248492,1.922124477,0.268728080,-7.994891314,-0.214483780,-0.031376724,-0.050119261,0.000438442,-0.000394625,0.165945441,0.000640102,-0.001272542,-0.001706913,-0.000033413,1.000000000,1.000000000,-3.403034823,-0.098651081,-0.818969052,21.922124477,3.128861666,-19.731271920,32.005108686,-0.954406477,-0.853456392,-0.050119261,0.000000000,0.000000000,0.000000000,0.000000000,0.000000000,-0.015864268,0.000000000,0.000000000,0.000000000,0.000000000,0.000000000,0.000000000,0.000000000,0.000000000,0.000000000,0.000000000,0.787732840,0.000000000,0.000000000,0.000000000,0.000000000,0.000000000,0.000000000,0.000000000,0.000000000,0.000000000,32764.000000000,-0.698813907,-524315568.000000000,32764.000000000,0.000000000,0.000000000,0.008060413,0.165318930,-3.140649021,,,,,,,,
1701093327.011947,,,,,,,,,,,,,,,,,,,,,,,,,,,,,,,,,,,,,,,,,,,,,,,,,,,,,,,,,,,,,,,,,163939.000000000,1701093327.011828184,-0.059999999,14.819999695,94.800003052,0.236000001,-0.442000002,-0.140000001
1701093327.028318,,,,,,,,,,,,,,,,,,,,,,,,,,,,,,,,,,,,,,,,,,,,,,,,,,,,,,,,,,,,,,,,,163940.000000000,1701093327.028073311,-0.070000000,14.880000114,94.800003052,0.243000001,-0.441000015,-0.140000001
1701093327.044633,,,,,,,,,,,,,,,,,,,,,,,,,,,,,,,,,,,,,,,,,,,,,,,,,,,,,,,,,,,,,,,,,163941.000000000,1701093327.044360876,0.010000000,14.779999733,94.830001831,0.241999999,-0.444000006,-0.137999997
1701093327.060690,,,,,,,,,,,,,,,,,,,,,,,,,,,,,,,,,,,,,,,,,,,,,,,,,,,,,,,,,,,,,,,,,163942.000000000,1701093327.060571194,-0.090000004,14.880000114,94.800003052,0.238000005,-0.442999989,-0.138999999
1701093327.077008,,,,,,,,,,,,,,,,,,,,,,,,,,,,,,,,,,,,,,,,,,,,,,,,,,,,,,,,,,,,,,,,,163943.000000000,1701093327.076807499,-0.029999999,14.819999695,94.819999695,0.238999993,-0.444999993,-0.140000001
1701093327.093331,,,,,,,,,,,,,,,,,,,,,,,,,,,,,,,,,,,,,,,,,,,,,,,,,,,,,,,,,,,,,,,,,163944.000000000,1701093327.093078375,-0.050000001,14.800000191,94.809997559,0.239999995,-0.442999989,-0.140000001
1701093327.096494,-0.699445069,0.007527950,-0.018514284,0.002248822,1.911624477,0.268728128,-7.980390505,-0.213983781,-0.030926724,-0.050619261,0.000438232,-0.000394625,0.165945441,0.000640392,-0.001271875,-0.001705225,-0.000033746,1.000000000,1.000000000,-3.396734499,-0.097833581,-0.815269052,21.911624477,3.128861666,-19.731271872,32.019609495,-0.953906476,-0.852612642,-0.050619261,0.000000000,0.000000000,0.000000000,0.000000000,0.000000000,-0.015864268,0.000000000,0.000000000,0.000000000,0.000000000,0.000000000,0.000000000,0.000000000,0.000000000,0.000000000,0.000000000,0.787732840,0.000000000,0.000000000,0.000000000,0.000000000,0.000000000,0.000000000,0.000000000,0.000000000,0.000000000,32764.000000000,-0.698814290,-524315568.000000000,32764.000000000,0.000000000,0.000000000,0.008060342,0.165318633,-3.140648361,,,,,,,,
1701093327.109526,,,,,,,,,,,,,,,,,,,,,,,,,,,,,,,,,,,,,,,,,,,,,,,,,,,,,,,,,,,,,,,,,163945.000000000,1701093327.109326839,-0.010000000,14.810000420,94.720001221,0.238000005,-0.446000010,-0.143999994
1701093327.125808,,,,,,,,,,,,,,,,,,,,,,,,,,,,,,,,,,,,,,,,,,,,,,,,,,,,,,,,,,,,,,,,,163946.000000000,1701093327.125591278,-0.050000001,14.859999657,94.730003357,0.236000001,-0.442999989,-0.140000001
1701093327.142128,,,,,,,,,,,,,,,,,,,,,,,,,,,,,,,,,,,,,,,,,,,,,,,,,,,,,,,,,,,,,,,,,163947.000000000,1701093327.141882420,-0.070000000,14.890000343,94.839996338,0.238999993,-0.444999993,-0.138999999
1701093327.158240,,,,,,,,,,,,,,,,,,,,,,,,,,,,,,,,,,,,,,,,,,,,,,,,,,,,,,,,,,,,,,,,,163948.000000000,1701093327.158132315,-0.020000000,14.829999924,94.849998474,0.243000001,-0.442999989,-0.136000007
1701093327.174523,,,,,,,,,,,,,,,,,,,,,,,,,,,,,,,,,,,,,,,,,,,,,,,,,,,,,,,,,,,,,,,,,163949.000000000,1701093327.174359798,-0.020000000,14.810000420,94.790000916,0.240999997,-0.444999993,-0.140000001
1701093327.190760,,,,,,,,,,,,,,,,,,,,,,,,,,,,,,,,,,,,,,,,,,,,,,,,,,,,,,,,,,,,,,,,,163950.000000000,1701093327.190607548,-0.010000000,14.899999619,94.790000916,0.236000001,-0.444999993,-0.141000003
1701093327.195993,-0.699445069,0.007527950,-0.018515297,0.002249086,1.906124477,0.260228172,-7.983390383,-0.214583781,-0.030626724,-0.051019262,0.000438122,-0.000394795,0.165945441,0.000640332,-0.001273100,-0.001704213,-0.000034013,1.000000000,1.000000000,-3.398831949,-0.097341080,-0.813469053,21.906124477,3.128861666,-19.739771828,32.016609617,-0.954825225,-0.852106391,-0.051019262,0.000000000,0.000000000,0.000000000,0.000000000,0.000000000,-0.015864268,0.000000000,0.000000000,0.000000000,0.000000000,0.000000000,0.000000000,0.000000000,0.000000000,0.000000000,0.000000000,0.787732840,0.000000000,0.000000000,0.000000000,0.000000000,0.000000000,0.000000000,0.000000000,0.000000000,0.000000000,32764.000000000,-0.698814510,-524315568.000000000,32764.000000000,0.000000000,0.000000000,0.008060642,0.165318689,-3.140649591,,,,,,,,
1701093327.207040,,,,,,,,,,,,,,,,,,,,,,,,,,,,,,,,,,,,,,,,,,,,,,,,,,,,,,,,,,,,,,,,,163951.000000000,1701093327.206846952,0.010000000,14.920000076,94.779998779,0.237000003,-0.446999997,-0.138999999
1701093327.223362,,,,,,,,,,,,,,,,,,,,,,,,,,,,,,,,,,,,,,,,,,,,,,,,,,,,,,,,,,,,,,,,,163952.000000000,1701093327.223111153,0.000000000,14.829999924,94.819999695,0.243000001,-0.444999993,-0.137999997
1701093327.239582,,,,,,,,,,,,,,,,,,,,,,,,,,,,,,,,,,,,,,,,,,,,,,,,,,,,,,,,,,,,,,,,,163953.000000000,1701093327.239396095,-0.050000001,14.859999657,94.790000916,0.238999993,-0.441000015,-0.138999999
1701093327.251667,,,,,,,,,,,,,,,,,,,,,,,,,,,,,,,,,,,,,,,,,,,,,,,,,,,,,,,,,,,,,,,,,163954.000000000,1701093327.251569033,-0.029999999,14.859999657,94.790000916,0.233999997,-0.446000010,-0.140000001
1701093327.268069,,,,,,,,,,,,,,,,,,,,,,,,,,,,,,,,,,,,,,,,,,,,,,,,,,,,,,,,,,,,,,,,,163955.000000000,1701093327.267821312,-0.090000004,14.829999924,94.779998779,0.239999995,-0.441000015,-0.140000001
1701093327.284379,,,,,,,,,,,,,,,,,,,,,,,,,,,,,,,,,,,,,,,,,,,,,,,,,,,,,,,,,,,,,,,,,163956.000000000,1701093327.284096718,-0.039999999,14.789999962,94.790000916,0.243000001,-0.444999993,-0.141000003
1701093327.296992,-0.699445069,0.007527950,-0.018516660,0.002249117,1.898624477,0.256228128,-7.984390216,-0.214533782,-0.030226726,-0.051069262,0.000437972,-0.000394875,0.165945441,0.000640312,-0.001273234,-0.001702850,-0.000034046,1.000000000,1.000000000,-3.399321884,-0.096678582,-0.810519053,21.898624477,3.128861666,-19.743771872,32.015609784,-0.954925227,-0.851425144,-0.051069262,0.000000000,0.000000000,0.000000000,0.000000000,0.000000000,-0.015864268,0.000000000,0.000000000,0.000000000,0.000000000,0.000000000,0.000000000,0.000000000,0.000000000,0.000000000,0.000000000,0.787732840,0.000000000,0.000000000,0.000000000,0.000000000,0.000000000,0.000000000,0.000000000,0.000000000,0.000000000,32764.000000000,-0.698814805,-524315568.000000000,32764.000000000,0.000000000,0.000000000,0.008060735,0.165318703,-3.140649725,,,,,,,,
1701093327.300530,,,,,,,,,,,,,,,,,,,,,,,,,,,,,,,,,,,,,,,,,,,,,,,,,,,,,,,,,,,,,,,,,163957.000000000,1701093327.300368309,-0.090000004,14.779999733,94.849998474,0.238999993,-0.441000015,-0.136000007
1701093327.316756,,,,,,,,,,,,,,,,,,,,,,,,,,,,,,,,,,,,,,,,,,,,,,,,,,,,,,,,,,,,,,,,,163958.000000000,1701093327.316581249,-0.010000000,14.880000114,94.800003052,0.238999993,-0.444999993,-0.136999995
1701093327.333135,,,,,,,,,,,,,,,,,,,,,,,,,,,,,,,,,,,,,,,,,,,,,,,,,,,,,,,,,,,,,,,,,163959.000000000,1701093327.332850218,-0.050000001,14.869999886,94.779998779,0.241999999,-0.441000015,-0.137999997
1701093327.349404,,,,,,,,,,,,,,,,,,,,,,,,,,,,,,,,,,,,,,,,,,,,,,,,,,,,,,,,,,,,,,,,,163960.000000000,1701093327.349130630,-0.020000000,14.909999847,94.790000916,0.243000001,-0.446000010,-0.141000003
1701093327.365476,,,,,,,,,,,,,,,,,,,,,,,,,,,,,,,,,,,,,,,,,,,,,,,,,,,,,,,,,,,,,,,,,163961.000000000,1701093327.365368605,-0.020000000,14.869999886,94.839996338,0.238000005,-0.442000002,-0.142000005
1701093327.381779,,,,,,,,,,,,,,,,,,,,,,,,,,,,,,,,,,,,,,,,,,,,,,,,,,,,,,,,,,,,,,,,,163962.000000000,1701093327.381598949,-0.119999997,14.840000153,94.800003052,0.234999999,-0.444000006,-0.137999997
1701093327.396400,-0.699445069,0.007527950,-0.018516472,0.002249050,1.897124477,0.268228116,-7.985390811,-0.214583783,-0.030376728,-0.050969262,0.000437942,-0.000394635,0.165945441,0.000640292,-0.001272700,-0.001703038,-0.000033980,1.000000000,1.000000000,-3.399352123,-0.096776085,-0.809819053,21.897124477,3.128861666,-19.731771884,32.014609189,-0.954525228,-0.851518896,-0.050969262,0.000000000,0.000000000,0.000000000,0.000000000,0.000000000,-0.015864268,0.000000000,0.000000000,0.000000000,0.000000000,0.000000000,0.000000000,0.000000000,0.000000000,0.000000000,0.000000000,0.787732840,0.000000000,0.000000000,0.000000000,0.000000000,0.000000000,0.000000000,0.000000000,0.000000000,0.000000000,32764.000000000,-0.698814815,-524315568.000000000,32764.000000000,0.000000000,0.000000000,0.008060438,0.165318723,-3.140649190,,,,,,,,
1701093327.398009,,,,,,,,,,,,,,,,,,,,,,,,,,,,,,,,,,,,,,,,,,,,,,,,,,,,,,,,,,,,,,,,,163963.000000000,1701093327.397857428,-0.039999999,14.739999771,94.830001831,0.245000005,-0.444000006,-0.135000005
1701093327.414290,,,,,,,,,,,,,,,,,,,,,,,,,,,,,,,,,,,,,,,,,,,,,,,,,,,,,,,,,,,,,,,,,163964.000000000,1701093327.414090157,-0.020000000,14.760000229,94.790000916,0.245000005,-0.444999993,-0.138999999
1701093327.430655,,,,,,,,,,,,,,,,,,,,,,,,,,,,,,,,,,,,,,,,,,,,,,,,,,,,,,,,,,,,,,,,,163965.000000000,1701093327.430363417,-0.010000000,14.880000114,94.750000000,0.233999997,-0.446999997,-0.143999994
1701093327.446829,,,,,,,,,,,,,,,,,,,,,,,,,,,,,,,,,,,,,,,,,,,,,,,,,,,,,,,,,,,,,,,,,163966.000000000,1701093327.446630001,0.029999999,14.840000153,94.750000000,0.231000006,-0.448000014,-0.143000007
1701093327.462987,,,,,,,,,,,,,,,,,,,,,,,,,,,,,,,,,,,,,,,,,,,,,,,,,,,,,,,,,,,,,,,,,163967.000000000,1701093327.462855577,0.029999999,14.710000038,94.839996338,0.243000001,-0.446999997,-0.138999999
1701093327.479393,,,,,,,,,,,,,,,,,,,,,,,,,,,,,,,,,,,,,,,,,,,,,,,,,,,,,,,,,,,,,,,,,163968.000000000,1701093327.479114532,-0.059999999,14.810000420,94.809997559,0.244000003,-0.439000010,-0.136000007
1701093327.495761,,,,,,,,,,,,,,,,,,,,,,,,,,,,,,,,,,,,,,,,,,,,,,,,,,,,,,,,,,,,,,,,,163969.000000000,1701093327.495404720,0.000000000,14.859999657,94.800003052,0.236000001,-0.446999997,-0.138999999
1701093327.497388,-0.699445069,0.007527950,-0.018515097,0.002248920,1.906124477,0.257228103,-7.984890704,-0.214483781,-0.030726731,-0.050769262,0.000438122,-0.000394855,0.165945441,0.000640302,-0.001273117,-0.001704413,-0.000033846,1.000000000,1.000000000,-3.399437079,-0.097441088,-0.813219053,21.906124477,3.128861666,-19.742771897,32.015109296,-0.954837727,-0.852206399,-0.050769262,0.000000000,0.000000000,0.000000000,0.000000000,0.000000000,-0.015864268,0.000000000,0.000000000,0.000000000,0.000000000,0.000000000,0.000000000,0.000000000,0.000000000,0.000000000,0.000000000,0.787732840,0.000000000,0.000000000,0.000000000,0.000000000,0.000000000,0.000000000,0.000000000,0.000000000,0.000000000,32764.000000000,-0.698814489,-524315568.000000000,32764.000000000,0.000000000,0.000000000,0.008060703,0.165318719,-3.140649604,,,,,,,,
1701093327.507711,,,,,,,,,,,,,,,,,,,,,,,,,,,,,,,,,,,,,,,,,,,,,,,,,,,,,,,,,,,,,,,,,163970.000000000,1701093327.507590532,-0.150000006,14.930000305,94.750000000,0.236000001,-0.439000010,-0.138999999
1701093327.524055,,,,,,,,,,,,,,,,,,,,,,,,,,,,,,,,,,,,,,,,,,,,,,,,,,,,,,,,,,,,,,,,,163971.000000000,1701093327.523835659,-0.039999999,14.829999924,94.790000916,0.243000001,-0.446999997,-0.142000005
1701093327.540372,,,,,,,,,,,,,,,,,,,,,,,,,,,,,,,,,,,,,,,,,,,,,,,,,,,,,,,,,,,,,,,,,163972.000000000,1701093327.540119410,-0.059999999,14.840000153,94.870002747,0.244000003,-0.439000010,-0.141000003
1701093327.556478,,,,,,,,,,,,,,,,,,,,,,,,,,,,,,,,,,,,,,,,,,,,,,,,,,,,,,,,,,,,,,,,,163973.000000000,1701093327.556372881,0.000000000,14.800000191,94.870002747,0.233999997,-0.444999993,-0.138999999
1701093327.572689,,,,,,,,,,,,,,,,,,,,,,,,,,,,,,,,,,,,,,,,,,,,,,,,,,,,,,,,,,,,,,,,,163974.000000000,1701093327.572566509,-0.010000000,14.810000420,94.839996338,0.237000003,-0.442000002,-0.136999995
1701093327.589035,,,,,,,,,,,,,,,,,,,,,,,,,,,,,,,,,,,,,,,,,,,,,,,,,,,,,,,,,,,,,,,,,163975.000000000,1701093327.588822365,-0.020000000,14.800000191,94.760002136,0.248999998,-0.442999989,-0.140000001
1701093327.597250,-0.699445069,0.007527950,-0.018516510,0.002248950,1.900624477,0.247728219,-7.978390460,-0.213783780,-0.030226730,-0.050819262,0.000438012,-0.000395045,0.165945441,0.000640432,-0.001272659,-0.001703000,-0.000033880,1.000000000,1.000000000,-3.396469477,-0.096748587,-0.811069053,21.900624477,3.128861666,-19.752271781,32.021609540,-0.954493972,-0.851500148,-0.050819262,0.000000000,0.000000000,0.000000000,0.000000000,0.000000000,-0.015864268,0.000000000,0.000000000,0.000000000,0.000000000,0.000000000,0.000000000,0.000000000,0.000000000,0.000000000,0.000000000,0.787732840,0.000000000,0.000000000,0.000000000,0.000000000,0.000000000,0.000000000,0.000000000,0.000000000,0.000000000,32764.000000000,-0.698814747,-524315568.000000000,32764.000000000,0.000000000,0.000000000,0.008060844,0.165318585,-3.140649147,,,,,,,,
1701093327.605168,,,,,,,,,,,,,,,,,,,,,,,,,,,,,,,,,,,,,,,,,,,,,,,,,,,,,,,,,,,,,,,,,163976.000000000,1701093327.605071306,-0.119999997,14.859999657,94.790000916,0.246999994,-0.435999990,-0.143000007
1701093327.621450,,,,,,,,,,,,,,,,,,,,,,,,,,,,,,,,,,,,,,,,,,,,,,,,,,,,,,,,,,,,,,,,,163977.000000000,1701093327.621302605,-0.079999998,14.869999886,94.790000916,0.233999997,-0.442000002,-0.140000001
1701093327.637839,,,,,,,,,,,,,,,,,,,,,,,,,,,,,,,,,,,,,,,,,,,,,,,,,,,,,,,,,,,,,,,,,163978.000000000,1701093327.637591362,-0.010000000,14.810000420,94.800003052,0.241999999,-0.446999997,-0.136999995
1701093327.654095,,,,,,,,,,,,,,,,,,,,,,,,,,,,,,,,,,,,,,,,,,,,,,,,,,,,,,,,,,,,,,,,,163979.000000000,1701093327.653877974,-0.059999999,14.789999962,94.769996643,0.250000000,-0.441000015,-0.136000007
1701093327.670210,,,,,,,,,,,,,,,,,,,,,,,,,,,,,,,,,,,,,,,,,,,,,,,,,,,,,,,,,,,,,,,,,163980.000000000,1701093327.670115948,0.029999999,14.789999962,94.849998474,0.239999995,-0.449999988,-0.141000003
1701093327.686582,,,,,,,,,,,,,,,,,,,,,,,,,,,,,,,,,,,,,,,,,,,,,,,,,,,,,,,,,,,,,,,,,163981.000000000,1701093327.686345339,-0.070000000,14.869999886,94.830001831,0.231999993,-0.442000002,-0.140000001
1701093327.703323,,,,,,,,,,,,,,,,,,,,,,,,,,,,,,,,,,,,,,,,,,,,,,,,,,,,,,,,,,,,,,,,,163982.000000000,1701093327.702848911,0.039999999,14.869999886,94.830001831,0.239999995,-0.449000001,-0.141000003
1701093327.705803,-0.699445069,0.007527950,-0.018515910,0.002249118,1.904624477,0.243728223,-7.977890353,-0.213483781,-0.030376728,-0.051069263,0.000438092,-0.000395125,0.165945441,0.000640442,-0.001272459,-0.001703600,-0.000034046,1.000000000,1.000000000,-3.396109435,-0.097038585,-0.812919054,21.904624477,3.128861666,-19.756271777,32.022109647,-0.954343973,-0.851800146,-0.051069263,0.000000000,0.000000000,0.000000000,0.000000000,0.000000000,-0.015864268,0.000000000,0.000000000,0.000000000,0.000000000,0.000000000,0.000000000,0.000000000,0.000000000,0.000000000,0.000000000,0.787732840,0.000000000,0.000000000,0.000000000,0.000000000,0.000000000,0.000000000,0.000000000,0.000000000,0.000000000,32764.000000000,-0.698814603,-524315568.000000000,32764.000000000,0.000000000,0.000000000,0.008060904,0.165318578,-3.140648950,,,,,,,,
1701093327.719387,,,,,,,,,,,,,,,,,,,,,,,,,,,,,,,,,,,,,,,,,,,,,,,,,,,,,,,,,,,,,,,,,163983.000000000,1701093327.719236135,-0.100000001,14.750000000,94.860000610,0.250000000,-0.439000010,-0.140000001
1701093327.735614,,,,,,,,,,,,,,,,,,,,,,,,,,,,,,,,,,,,,,,,,,,,,,,,,,,,,,,,,,,,,,,,,163984.000000000,1701093327.735498428,0.010000000,14.819999695,94.879997253,0.245000005,-0.448000014,-0.136000007
1701093327.747887,,,,,,,,,,,,,,,,,,,,,,,,,,,,,,,,,,,,,,,,,,,,,,,,,,,,,,,,,,,,,,,,,163985.000000000,1701093327.747709990,-0.039999999,14.829999924,94.790000916,0.231000006,-0.442000002,-0.138999999
1701093327.764204,,,,,,,,,,,,,,,,,,,,,,,,,,,,,,,,,,,,,,,,,,,,,,,,,,,,,,,,,,,,,,,,,163986.000000000,1701093327.763985157,0.029999999,14.779999733,94.760002136,0.234999999,-0.449000001,-0.137999997
1701093327.780654,,,,,,,,,,,,,,,,,,,,,,,,,,,,,,,,,,,,,,,,,,,,,,,,,,,,,,,,,,,,,,,,,163987.000000000,1701093327.780300617,0.000000000,14.850000381,94.800003052,0.250000000,-0.442000002,-0.141000003
1701093327.796932,,,,,,,,,,,,,,,,,,,,,,,,,,,,,,,,,,,,,,,,,,,,,,,,,,,,,,,,,,,,,,,,,163988.000000000,1701093327.796542406,-0.059999999,14.899999619,94.900001526,0.236000001,-0.441000015,-0.138999999
1701093327.797902,-0.699445069,0.007527950,-0.018517147,0.002249015,1.900124477,0.253228154,-7.966889910,-0.213233782,-0.029926730,-0.050919262,0.000438002,-0.000394935,0.165945441,0.000640662,-0.001271650,-0.001702363,-0.000033946,1.000000000,1.000000000,-3.391126760,-0.096431086,-0.810969053,21.900124477,3.128861666,-19.746771846,32.033110090,-0.953737726,-0.851181397,-0.050919262,0.000000000,0.000000000,0.000000000,0.000000000,0.000000000,-0.015864268,0.000000000,0.000000000,0.000000000,0.000000000,0.000000000,0.000000000,0.000000000,0.000000000,0.000000000,0.000000000,0.787732840,0.000000000,0.000000000,0.000000000,0.000000000,0.000000000,0.000000000,0.000000000,0.000000000,0.000000000,32764.000000000,-0.698814819,-524315568.000000000,32764.000000000,0.000000000,0.000000000,0.008060628,0.165318353,-3.140648140,,,,,,,,
1701093327.813113,,,,,,,,,,,,,,,,,,,,,,,,,,,,,,,,,,,,,,,,,,,,,,,,,,,,,,,,,,,,,,,,,163989.000000000,1701093327.812816143,-0.090000004,14.859999657,94.900001526,0.232999995,-0.439999998,-0.136999995
1701093327.829305,,,,,,,,,,,,,,,,,,,,,,,,,,,,,,,,,,,,,,,,,,,,,,,,,,,,,,,,,,,,,,,,,163990.000000000,1701093327.829063416,-0.079999998,14.800000191,94.839996338,0.246000007,-0.439000010,-0.137999997
1701093327.845432,,,,,,,,,,,,,,,,,,,,,,,,,,,,,,,,,,,,,,,,,,,,,,,,,,,,,,,,,,,,,,,,,163991.000000000,1701093327.845286846,-0.059999999,14.800000191,94.819999695,0.250999987,-0.441000015,-0.140000001
1701093327.861930,,,,,,,,,,,,,,,,,,,,,,,,,,,,,,,,,,,,,,,,,,,,,,,,,,,,,,,,,,,,,,,,,163992.000000000,1701093327.861541748,-0.059999999,14.939999580,94.769996643,0.233999997,-0.439999998,-0.142000005
1701093327.878088,,,,,,,,,,,,,,,,,,,,,,,,,,,,,,,,,,,,,,,,,,,,,,,,,,,,,,,,,,,,,,,,,163993.000000000,1701093327.877809763,0.000000000,14.710000038,94.879997253,0.233999997,-0.449000001,-0.134000003
1701093327.894389,,,,,,,,,,,,,,,,,,,,,,,,,,,,,,,,,,,,,,,,,,,,,,,,,,,,,,,,,,,,,,,,,163994.000000000,1701093327.894077301,-0.020000000,14.770000458,94.910003662,0.247999996,-0.439000010,-0.140000001
1701093327.896134,-0.699445069,0.007527950,-0.018518434,0.002248813,1.897624478,0.243728128,-7.956890444,-0.212433783,-0.029376731,-0.050619263,0.000437952,-0.000395125,0.165945441,0.000640862,-0.001271059,-0.001701075,-0.000033746,1.000000000,1.000000000,-3.386659476,-0.095793587,-0.809669054,21.897624478,3.128861666,-19.756271872,32.043109556,-0.953293978,-0.850537649,-0.050619263,0.000000000,0.000000000,0.000000000,0.000000000,0.000000000,-0.015864268,0.000000000,0.000000000,0.000000000,0.000000000,0.000000000,0.000000000,0.000000000,0.000000000,0.000000000,0.000000000,0.787732840,0.000000000,0.000000000,0.000000000,0.000000000,0.000000000,0.000000000,0.000000000,0.000000000,0.000000000,32764.000000000,-0.698815002,-524315568.000000000,32764.000000000,0.000000000,0.000000000,0.008060755,0.165318150,-3.140647544,,,,,,,,
1701093327.910711,,,,,,,,,,,,,,,,,,,,,,,,,,,,,,,,,,,,,,,,,,,,,,,,,,,,,,,,,,,,,,,,,163995.000000000,1701093327.910336018,0.000000000,14.810000420,94.849998474,0.246000007,-0.448000014,-0.138999999
1701093327.926907,,,,,,,,,,,,,,,,,,,,,,,,,,,,,,,,,,,,,,,,,,,,,,,,,,,,,,,,,,,,,,,,,163996.000000000,1701093327.926581621,-0.119999997,14.850000381,94.860000610,0.234999999,-0.437000006,-0.140000001
1701093327.943169,,,,,,,,,,,,,,,,,,,,,,,,,,,,,,,,,,,,,,,,,,,,,,,,,,,,,,,,,,,,,,,,,163997.000000000,1701093327.942845345,0.010000000,14.850000381,94.819999695,0.232999995,-0.449999988,-0.136999995
1701093327.959264,,,,,,,,,,,,,,,,,,,,,,,,,,,,,,,,,,,,,,,,,,,,,,,,,,,,,,,,,,,,,,,,,163998.000000000,1701093327.959070921,-0.050000001,14.739999771,94.819999695,0.254000008,-0.439000010,-0.141000003
1701093327.975595,,,,,,,,,,,,,,,,,,,,,,,,,,,,,,,,,,,,,,,,,,,,,,,,,,,,,,,,,,,,,,,,,163999.000000000,1701093327.975325823,0.050000001,14.760000229,94.879997253,0.248999998,-0.449000001,-0.137999997
1701093327.991886,,,,,,,,,,,,,,,,,,,,,,,,,,,,,,,,,,,,,,,,,,,,,,,,,,,,,,,,,,,,,,,,,164000.000000000,1701093327.991594791,-0.100000001,14.859999657,94.809997559,0.229000002,-0.441000015,-0.141000003
1701093327.997801,-0.699445069,0.007527950,-0.018517747,0.002248781,1.900124477,0.241228166,-7.942890887,-0.213233782,-0.029626733,-0.050569262,0.000438002,-0.000395175,0.165945441,0.000641142,-0.001272250,-0.001701763,-0.000033713,1.000000000,1.000000000,-3.381947151,-0.096131090,-0.810619053,21.900124477,3.128861666,-19.758771834,32.057109113,-0.954187725,-0.850881401,-0.050569262,0.000000000,0.000000000,0.000000000,0.000000000,0.000000000,-0.015864268,0.000000000,0.000000000,0.000000000,0.000000000,0.000000000,0.000000000,0.000000000,0.000000000,0.000000000,0.000000000,0.787732840,0.000000000,0.000000000,0.000000000,0.000000000,0.000000000,0.000000000,0.000000000,0.000000000,0.000000000,32764.000000000,-0.698814874,-524315568.000000000,32764.000000000,0.000000000,0.000000000,0.008060932,0.165317873,-3.140648735,,,,,,,,
1701093328.008132,,,,,,,,,,,,,,,,,,,,,,,,,,,,,,,,,,,,,,,,,,,,,,,,,,,,,,,,,,,,,,,,,164001.000000000,1701093328.007862568,-0.029999999,14.819999695,94.800003052,0.231999993,-0.448000014,-0.141000003
1701093328.020317,,,,,,,,,,,,,,,,,,,,,,,,,,,,,,,,,,,,,,,,,,,,,,,,,,,,,,,,,,,,,,,,,164002.000000000,1701093328.020039797,-0.020000000,14.739999771,94.830001831,0.252999991,-0.442999989,-0.136000007
1701093328.036651,,,,,,,,,,,,,,,,,,,,,,,,,,,,,,,,,,,,,,,,,,,,,,,,,,,,,,,,,,,,,,,,,164003.000000000,1701093328.036319017,-0.129999995,14.810000420,94.849998474,0.239999995,-0.437000006,-0.140000001
1701093328.052745,,,,,,,,,,,,,,,,,,,,,,,,,,,,,,,,,,,,,,,,,,,,,,,,,,,,,,,,,,,,,,,,,164004.000000000,1701093328.052591324,-0.059999999,14.880000114,94.839996338,0.231999993,-0.442999989,-0.140000001
1701093328.068957,,,,,,,,,,,,,,,,,,,,,,,,,,,,,,,,,,,,,,,,,,,,,,,,,,,,,,,,,,,,,,,,,164005.000000000,1701093328.068814516,-0.129999995,14.680000305,94.870002747,0.238999993,-0.435999990,-0.140000001
1701093328.085338,,,,,,,,,,,,,,,,,,,,,,,,,,,,,,,,,,,,,,,,,,,,,,,,,,,,,,,,,,,,,,,,,164006.000000000,1701093328.085064888,-0.119999997,14.710000038,94.839996338,0.250000000,-0.442000002,-0.137999997
1701093328.097740,-0.699445069,0.007527950,-0.018521097,0.002248807,1.882124478,0.227228227,-7.938891177,-0.212583783,-0.028626731,-0.050619262,0.000437642,-0.000395455,0.165945441,0.000641222,-0.001272084,-0.001698413,-0.000033746,1.000000000,1.000000000,-3.380187266,-0.094501088,-0.803469053,21.882124478,3.128861666,-19.772771773,32.061108823,-0.954062725,-0.849206399,-0.050619262,0.000000000,0.000000000,0.000000000,0.000000000,0.000000000,-0.015864268,0.000000000,0.000000000,0.000000000,0.000000000,0.000000000,0.000000000,0.000000000,0.000000000,0.000000000,0.000000000,0.787732840,0.000000000,0.000000000,0.000000000,0.000000000,0.000000000,0.000000000,0.000000000,0.000000000,0.000000000,32764.000000000,-0.698815588,-524315568.000000000,32764.000000000,0.000000000,0.000000000,0.008061193,0.165317779,-3.140648569,,,,,,,,
1701093328.101632,,,,,,,,,,,,,,,,,,,,,,,,,,,,,,,,,,,,,,,,,,,,,,,,,,,,,,,,,,,,,,,,,164007.000000000,1701093328.101358891,-0.109999999,14.840000153,94.839996338,0.244000003,-0.435000002,-0.142000005
1701093328.117811,,,,,,,,,,,,,,,,,,,,,,,,,,,,,,,,,,,,,,,,,,,,,,,,,,,,,,,,,,,,,,,,,164008.000000000,1701093328.117598057,-0.039999999,14.970000267,94.849998474,0.232999995,-0.444999993,-0.140000001
1701093328.134024,,,,,,,,,,,,,,,,,,,,,,,,,,,,,,,,,,,,,,,,,,,,,,,,,,,,,,,,,,,,,,,,,164009.000000000,1701093328.133824110,-0.119999997,14.970000267,94.860000610,0.240999997,-0.435000002,-0.142000005
1701093328.150348,,,,,,,,,,,,,,,,,,,,,,,,,,,,,,,,,,,,,,,,,,,,,,,,,,,,,,,,,,,,,,,,,164010.000000000,1701093328.150089979,0.000000000,14.710000038,94.870002747,0.252999991,-0.446999997,-0.136999995
1701093328.166509,,,,,,,,,,,,,,,,,,,,,,,,,,,,,,,,,,,,,,,,,,,,,,,,,,,,,,,,,,,,,,,,,164011.000000000,1701093328.166337729,-0.150000006,14.760000229,94.860000610,0.244000003,-0.435000002,-0.136999995
1701093328.182874,,,,,,,,,,,,,,,,,,,,,,,,,,,,,,,,,,,,,,,,,,,,,,,,,,,,,,,,,,,,,,,,,164012.000000000,1701093328.182602644,-0.010000000,14.920000076,94.849998474,0.232999995,-0.444000006,-0.143000007
1701093328.199070,,,,,,,,,,,,,,,,,,,,,,,,,,,,,,,,,,,,,,,,,,,,,,,,,,,,,,,,,,,,,,,,,164013.000000000,1701093328.198884010,0.000000000,14.829999924,94.809997559,0.246000007,-0.444999993,-0.142000005
1701093328.206261,-0.699445069,0.007527950,-0.018521998,0.002249205,1.878124478,0.234228292,-7.937391238,-0.212083783,-0.028326729,-0.051219262,0.000437562,-0.000395315,0.165945441,0.000641252,-0.001271067,-0.001697513,-0.000034146,1.000000000,1.000000000,-3.378842288,-0.094061086,-0.802469053,21.878124478,3.128861666,-19.765771708,32.062608762,-0.953300222,-0.848756397,-0.051219262,0.000000000,0.000000000,0.000000000,0.000000000,0.000000000,-0.015864268,0.000000000,0.000000000,0.000000000,0.000000000,0.000000000,0.000000000,0.000000000,0.000000000,0.000000000,0.000000000,0.787732840,0.000000000,0.000000000,0.000000000,0.000000000,0.000000000,0.000000000,0.000000000,0.000000000,0.000000000,32764.000000000,-0.698815762,-524315568.000000000,32764.000000000,0.000000000,0.000000000,0.008060945,0.165317746,-3.140647560,,,,,,,,
1701093328.215185,,,,,,,,,,,,,,,,,,,,,,,,,,,,,,,,,,,,,,,,,,,,,,,,,,,,,,,,,,,,,,,,,164014.000000000,1701093328.215131998,-0.020000000,14.779999733,94.839996338,0.250000000,-0.442999989,-0.138999999
1701093328.231680,,,,,,,,,,,,,,,,,,,,,,,,,,,,,,,,,,,,,,,,,,,,,,,,,,,,,,,,,,,,,,,,,164015.000000000,1701093328.231398821,-0.059999999,14.859999657,94.830001831,0.238999993,-0.444999993,-0.135000005
1701093328.247963,,,,,,,,,,,,,,,,,,,,,,,,,,,,,,,,,,,,,,,,,,,,,,,,,,,,,,,,,,,,,,,,,164016.000000000,1701093328.247688532,-0.079999998,14.850000381,94.900001526,0.234999999,-0.442000002,-0.138999999
1701093328.264119,,,,,,,,,,,,,,,,,,,,,,,,,,,,,,,,,,,,,,,,,,,,,,,,,,,,,,,,,,,,,,,,,164017.000000000,1701093328.263943911,-0.020000000,14.880000114,94.839996338,0.243000001,-0.444000006,-0.141000003
1701093328.276208,,,,,,,,,,,,,,,,,,,,,,,,,,,,,,,,,,,,,,,,,,,,,,,,,,,,,,,,,,,,,,,,,164018.000000000,1701093328.276111603,-0.050000001,14.810000420,94.889999390,0.246999994,-0.441000015,-0.140000001
1701093328.292643,,,,,,,,,,,,,,,,,,,,,,,,,,,,,,,,,,,,,,,,,,,,,,,,,,,,,,,,,,,,,,,,,164019.000000000,1701093328.292350292,-0.020000000,14.789999962,94.930000305,0.241999999,-0.446000010,-0.138999999
1701093328.297148,-0.699445069,0.007527950,-0.018522547,0.002249137,1.872124478,0.243728223,-7.932891421,-0.212533784,-0.028276728,-0.051119263,0.000437442,-0.000395125,0.165945441,0.000641342,-0.001271192,-0.001696963,-0.000034080,1.000000000,1.000000000,-3.377159865,-0.093801085,-0.799969054,21.872124478,3.128861666,-19.756271777,32.067108579,-0.953393976,-0.848481396,-0.051119263,0.000000000,0.000000000,0.000000000,0.000000000,0.000000000,-0.015864268,0.000000000,0.000000000,0.000000000,0.000000000,0.000000000,0.000000000,0.000000000,0.000000000,0.000000000,0.000000000,0.787732840,0.000000000,0.000000000,0.000000000,0.000000000,0.000000000,0.000000000,0.000000000,0.000000000,0.000000000,32764.000000000,-0.698815939,-524315568.000000000,32764.000000000,0.000000000,0.000000000,0.008060768,0.165317652,-3.140647684,,,,,,,,
1701093328.308932,,,,,,,,,,,,,,,,,,,,,,,,,,,,,,,,,,,,,,,,,,,,,,,,,,,,,,,,,,,,,,,,,164020.000000000,1701093328.308624506,-0.079999998,14.789999962,94.860000610,0.234999999,-0.437999994,-0.138999999
1701093328.325322,,,,,,,,,,,,,,,,,,,,,,,,,,,,,,,,,,,,,,,,,,,,,,,,,,,,,,,,,,,,,,,,,164021.000000000,1701093328.324901819,-0.070000000,14.829999924,94.849998474,0.243000001,-0.444000006,-0.140000001
1701093328.341345,,,,,,,,,,,,,,,,,,,,,,,,,,,,,,,,,,,,,,,,,,,,,,,,,,,,,,,,,,,,,,,,,164022.000000000,1701093328.341139793,-0.029999999,14.859999657,94.819999695,0.246999994,-0.439000010,-0.142000005
1701093328.357640,,,,,,,,,,,,,,,,,,,,,,,,,,,,,,,,,,,,,,,,,,,,,,,,,,,,,,,,,,,,,,,,,164023.000000000,1701093328.357371569,-0.010000000,14.840000153,94.910003662,0.236000001,-0.442999989,-0.136999995
1701093328.374071,,,,,,,,,,,,,,,,,,,,,,,,,,,,,,,,,,,,,,,,,,,,,,,,,,,,,,,,,,,,,,,,,164024.000000000,1701093328.373621941,-0.039999999,14.840000153,94.849998474,0.237000003,-0.439999998,-0.138999999
1701093328.390143,,,,,,,,,,,,,,,,,,,,,,,,,,,,,,,,,,,,,,,,,,,,,,,,,,,,,,,,,,,,,,,,,164025.000000000,1701093328.389874458,-0.050000001,14.859999657,94.839996338,0.248999998,-0.442999989,-0.140000001
1701093328.396135,-0.699445069,0.007527950,-0.018521935,0.002249105,1.881624478,0.255228200,-7.926391558,-0.211433782,-0.028226728,-0.051069262,0.000437632,-0.000394895,0.165945441,0.000641472,-0.001269150,-0.001697575,-0.000034046,1.000000000,1.000000000,-3.373057419,-0.094083584,-0.803719053,21.881624478,3.128861666,-19.744771800,32.073608442,-0.951862725,-0.848787646,-0.051069262,0.000000000,0.000000000,0.000000000,0.000000000,0.000000000,-0.015864268,0.000000000,0.000000000,0.000000000,0.000000000,0.000000000,0.000000000,0.000000000,0.000000000,0.000000000,0.000000000,0.787732840,0.000000000,0.000000000,0.000000000,0.000000000,0.000000000,0.000000000,0.000000000,0.000000000,0.000000000,32764.000000000,-0.698815680,-524315568.000000000,32764.000000000,0.000000000,0.000000000,0.008060323,0.165317526,-3.140645642,,,,,,,,
1701093328.406501,,,,,,,,,,,,,,,,,,,,,,,,,,,,,,,,,,,,,,,,,,,,,,,,,,,,,,,,,,,,,,,,,164026.000000000,1701093328.406120777,-0.100000001,14.890000343,94.849998474,0.246999994,-0.439000010,-0.140000001
1701093328.422789,,,,,,,,,,,,,,,,,,,,,,,,,,,,,,,,,,,,,,,,,,,,,,,,,,,,,,,,,,,,,,,,,164027.000000000,1701093328.422403574,-0.079999998,14.829999924,94.919998169,0.236000001,-0.442000002,-0.138999999
1701093328.438917,,,,,,,,,,,,,,,,,,,,,,,,,,,,,,,,,,,,,,,,,,,,,,,,,,,,,,,,,,,,,,,,,164028.000000000,1701093328.438653231,-0.029999999,14.880000114,94.870002747,0.243000001,-0.444999993,-0.136999995
1701093328.455119,,,,,,,,,,,,,,,,,,,,,,,,,,,,,,,,,,,,,,,,,,,,,,,,,,,,,,,,,,,,,,,,,164029.000000000,1701093328.454902172,-0.100000001,14.829999924,94.860000610,0.246999994,-0.442000002,-0.137999997
1701093328.471508,,,,,,,,,,,,,,,,,,,,,,,,,,,,,,,,,,,,,,,,,,,,,,,,,,,,,,,,,,,,,,,,,164030.000000000,1701093328.471128225,-0.090000004,14.850000381,94.870002747,0.241999999,-0.442999989,-0.136999995
1701093328.487633,,,,,,,,,,,,,,,,,,,,,,,,,,,,,,,,,,,,,,,,,,,,,,,,,,,,,,,,,,,,,,,,,164031.000000000,1701093328.487385511,-0.079999998,14.819999695,94.889999390,0.238000005,-0.441000015,-0.137999997
1701093328.503792,,,,,,,,,,,,,,,,,,,,,,,,,,,,,,,,,,,,,,,,,,,,,,,,,,,,,,,,,,,,,,,,,164032.000000000,1701093328.503648520,0.029999999,14.890000343,94.930000305,0.241999999,-0.444999993,-0.137999997
1701093328.507255,-0.699445069,0.007527950,-0.018520159,0.002248709,1.886624477,0.260728183,-7.915391116,-0.211583782,-0.028926728,-0.050469261,0.000437732,-0.000394785,0.165945441,0.000641692,-0.001269075,-0.001699350,-0.000033646,1.000000000,1.000000000,-3.368614742,-0.094958584,-0.805119052,21.886624477,3.128861666,-19.739271817,32.084608884,-0.951806475,-0.849675145,-0.050469261,0.000000000,0.000000000,0.000000000,0.000000000,0.000000000,-0.015864268,0.000000000,0.000000000,0.000000000,0.000000000,0.000000000,0.000000000,0.000000000,0.000000000,0.000000000,0.000000000,0.787732840,0.000000000,0.000000000,0.000000000,0.000000000,0.000000000,0.000000000,0.000000000,0.000000000,0.000000000,32764.000000000,-0.698815387,-524315568.000000000,32764.000000000,0.000000000,0.000000000,0.008060206,0.165317311,-3.140645559,,,,,,,,
1701093328.520100,,,,,,,,,,,,,,,,,,,,,,,,,,,,,,,,,,,,,,,,,,,,,,,,,,,,,,,,,,,,,,,,,164033.000000000,1701093328.519916296,-0.050000001,14.810000420,94.879997253,0.246999994,-0.439999998,-0.138999999
1701093328.532373,,,,,,,,,,,,,,,,,,,,,,,,,,,,,,,,,,,,,,,,,,,,,,,,,,,,,,,,,,,,,,,,,164034.000000000,1701093328.532138824,-0.020000000,14.810000420,94.839996338,0.241999999,-0.444999993,-0.140000001
1701093328.548732,,,,,,,,,,,,,,,,,,,,,,,,,,,,,,,,,,,,,,,,,,,,,,,,,,,,,,,,,,,,,,,,,164035.000000000,1701093328.548439980,-0.070000000,14.869999886,94.839996338,0.237000003,-0.439999998,-0.138999999
1701093328.564876,,,,,,,,,,,,,,,,,,,,,,,,,,,,,,,,,,,,,,,,,,,,,,,,,,,,,,,,,,,,,,,,,164036.000000000,1701093328.564704418,0.000000000,14.840000153,94.900001526,0.241999999,-0.444999993,-0.138999999
1701093328.581234,,,,,,,,,,,,,,,,,,,,,,,,,,,,,,,,,,,,,,,,,,,,,,,,,,,,,,,,,,,,,,,,,164037.000000000,1701093328.580932140,-0.090000004,14.750000000,94.870002747,0.246999994,-0.439999998,-0.140000001
1701093328.597393,,,,,,,,,,,,,,,,,,,,,,,,,,,,,,,,,,,,,,,,,,,,,,,,,,,,,,,,,,,,,,,,,164038.000000000,1701093328.597195625,-0.029999999,14.869999886,94.860000610,0.239999995,-0.442000002,-0.141000003
1701093328.611345,-0.699445069,0.007527950,-0.018521072,0.002248773,1.885124477,0.257728210,-7.911391024,-0.211833782,-0.028526727,-0.050569260,0.000437702,-0.000394845,0.165945441,0.000641772,-0.001269559,-0.001698438,-0.000033713,1.000000000,1.000000000,-3.367369705,-0.094506083,-0.804619051,21.885124477,3.128861666,-19.742271790,32.088608976,-0.952168975,-0.849218895,-0.050569260,0.000000000,0.000000000,0.000000000,0.000000000,0.000000000,-0.015864268,0.000000000,0.000000000,0.000000000,0.000000000,0.000000000,0.000000000,0.000000000,0.000000000,0.000000000,0.000000000,0.787732840,0.000000000,0.000000000,0.000000000,0.000000000,0.000000000,0.000000000,0.000000000,0.000000000,0.000000000,32764.000000000,-0.698815512,-524315568.000000000,32764.000000000,0.000000000,0.000000000,0.008060317,0.165317229,-3.140646043,,,,,,,,
1701093328.613580,,,,,,,,,,,,,,,,,,,,,,,,,,,,,,,,,,,,,,,,,,,,,,,,,,,,,,,,,,,,,,,,,164039.000000000,1701093328.613449574,0.000000000,14.930000305,94.870002747,0.238000005,-0.442999989,-0.140000001
1701093328.629922,,,,,,,,,,,,,,,,,,,,,,,,,,,,,,,,,,,,,,,,,,,,,,,,,,,,,,,,,,,,,,,,,164040.000000000,1701093328.629710197,0.000000000,14.850000381,94.900001526,0.246000007,-0.441000015,-0.140000001
1701093328.646327,,,,,,,,,,,,,,,,,,,,,,,,,,,,,,,,,,,,,,,,,,,,,,,,,,,,,,,,,,,,,,,,,164041.000000000,1701093328.645999193,-0.050000001,14.899999619,94.879997253,0.250000000,-0.441000015,-0.136999995
1701093328.662598,,,,,,,,,,,,,,,,,,,,,,,,,,,,,,,,,,,,,,,,,,,,,,,,,,,,,,,,,,,,,,,,,164042.000000000,1701093328.662292242,-0.070000000,14.760000229,94.860000610,0.239999995,-0.439999998,-0.136999995
1701093328.678793,,,,,,,,,,,,,,,,,,,,,,,,,,,,,,,,,,,,,,,,,,,,,,,,,,,,,,,,,,,,,,,,,164043.000000000,1701093328.678561449,-0.100000001,14.880000114,94.870002747,0.239999995,-0.441000015,-0.142000005
1701093328.694989,,,,,,,,,,,,,,,,,,,,,,,,,,,,,,,,,,,,,,,,,,,,,,,,,,,,,,,,,,,,,,,,,164044.000000000,1701093328.694793224,-0.129999995,14.909999847,94.900001526,0.244000003,-0.437999994,-0.140000001
1701093328.696121,-0.699445069,0.007527950,-0.018522047,0.002248771,1.880124477,0.271728244,-7.908390765,-0.210933782,-0.028226728,-0.050569260,0.000437602,-0.000394565,0.165945441,0.000641832,-0.001267659,-0.001697463,-0.000033713,1.000000000,1.000000000,-3.364779600,-0.094031084,-0.802619051,21.880124477,3.128861666,-19.728271756,32.091609235,-0.950743973,-0.848731395,-0.050569260,0.000000000,0.000000000,0.000000000,0.000000000,0.000000000,-0.015864268,0.000000000,0.000000000,0.000000000,0.000000000,0.000000000,0.000000000,0.000000000,0.000000000,0.000000000,0.000000000,0.787732840,0.000000000,0.000000000,0.000000000,0.000000000,0.000000000,0.000000000,0.000000000,0.000000000,0.000000000,32764.000000000,-0.698815714,-524315568.000000000,32764.000000000,0.000000000,0.000000000,0.008059835,0.165317164,-3.140644143,,,,,,,,
